[

  {
    "country": "SO",
    "id": 6268943,
    "coord": {
      "lat": 10.5,
      "lon": 43.5
    },
    "name": "Gobolka Awdal"
  },
  {
    "country": "SO",
    "id": 53654,
    "coord": {
      "lat": 2.03711,
      "lon": 45.34375
    },
    "name": "Mogadishu"
  },
  {
    "country": "SO",
    "id": 50360,
    "coord": {
      "lat": 10,
      "lon": 44.5
    },
    "name": "Gobolka Woqooyi Galbeed"
  },
  {
    "country": "SO",
    "id": 61993,
    "coord": {
      "lat": 9.59271,
      "lon": 44.06229
    },
    "name": "Dalooldho"
  },
  {
    "country": "SO",
    "id": 64661,
    "coord": {
      "lat": 10,
      "lon": 50
    },
    "name": "Gobolka Bari"
  },
  {
    "country": "SO",
    "id": 64013,
    "coord": {
      "lat": 11.28421,
      "lon": 49.18158
    },
    "name": "Boosaaso"
  },
  {
    "country": "SO",
    "id": 53477,
    "coord": {
      "lat": 8.16667,
      "lon": 49
    },
    "name": "Gobolka Nugaal"
  },
  {
    "country": "SO",
    "id": 58933,
    "coord": {
      "lat": 8.40536,
      "lon": 48.484459
    },
    "name": "Garoowe"
  },
  {
    "country": "SO",
    "id": 53707,
    "coord": {
      "lat": 7,
      "lon": 48
    },
    "name": "Gobolka Mudug"
  },
  {
    "country": "SO",
    "id": 59611,
    "coord": {
      "lat": 6.76972,
      "lon": 47.430828
    },
    "name": "Gaalkacyo"
  },
  {
    "country": "SO",
    "id": 57000,
    "coord": {
      "lat": 5.3505,
      "lon": 48.526798
    },
    "name": "Hobyo"
  },
  {
    "country": "SO",
    "id": 58802,
    "coord": {
      "lat": 3,
      "lon": 42
    },
    "name": "Gobolka Gedo"
  },
  {
    "country": "SO",
    "id": 54715,
    "coord": {
      "lat": 3.79376,
      "lon": 42.544498
    },
    "name": "Luuq"
  },
  {
    "country": "SO",
    "id": 64435,
    "coord": {
      "lat": 10.43959,
      "lon": 45.01432
    },
    "name": "Berbera"
  },
  {
    "country": "SO",
    "id": 53172,
    "coord": {
      "lat": 9.52943,
      "lon": 44.04784
    },
    "name": "Qaloocan"
  },
  {
    "country": "SO",
    "id": 60147,
    "coord": {
      "lat": 9.51667,
      "lon": 49.083328
    },
    "name": "El Dubat"
  },
  {
    "country": "SO",
    "id": 56083,
    "coord": {
      "lat": 0,
      "lon": 42
    },
    "name": "Gobolka Jubbada Hoose"
  },
  {
    "country": "SO",
    "id": 55671,
    "coord": {
      "lat": -0.35817,
      "lon": 42.545361
    },
    "name": "Kismaayo"
  },
  {
    "country": "SO",
    "id": 56084,
    "coord": {
      "lat": 1.33333,
      "lon": 42.666672
    },
    "name": "Gobolka Jubbada Dhexe"
  },
  {
    "country": "SO",
    "id": 51967,
    "coord": {
      "lat": 3,
      "lon": 46
    },
    "name": "Gobolka Shabeellaha Dhexe"
  },
  {
    "country": "SO",
    "id": 56335,
    "coord": {
      "lat": 2.78087,
      "lon": 45.500481
    },
    "name": "Jawhar"
  },
  {
    "country": "SO",
    "id": 56399,
    "coord": {
      "lat": 0.06968,
      "lon": 42.744968
    },
    "name": "Jamaame"
  },
  {
    "country": "SO",
    "id": 63571,
    "coord": {
      "lat": 2.80257,
      "lon": 44.07806
    },
    "name": "Buurhakaba"
  },
  {
    "country": "SO",
    "id": 64460,
    "coord": {
      "lat": 4.73583,
      "lon": 45.203609
    },
    "name": "Beledweyne"
  },
  {
    "country": "SO",
    "id": 65785,
    "coord": {
      "lat": 2.1381,
      "lon": 45.121201
    },
    "name": "Afgooye"
  },
  {
    "country": "SO",
    "id": 6268947,
    "coord": {
      "lat": 8.66667,
      "lon": 47.5
    },
    "name": "Gobolka Sool"
  },
  {
    "country": "SO",
    "id": 400769,
    "coord": {
      "lat": 8.47738,
      "lon": 47.359711
    },
    "name": "Laascaanood"
  },
  {
    "country": "SO",
    "id": 59362,
    "coord": {
      "lat": 5,
      "lon": 47
    },
    "name": "Gobolka Galguduud"
  },
  {
    "country": "SO",
    "id": 65893,
    "coord": {
      "lat": 4.39024,
      "lon": 46.372108
    },
    "name": "Cadayo"
  },
  {
    "country": "SO",
    "id": 57060,
    "coord": {
      "lat": 4,
      "lon": 45.5
    },
    "name": "Gobolka Hiiraan"
  },
  {
    "country": "SO",
    "id": 62660,
    "coord": {
      "lat": 4.43333,
      "lon": 45.083328
    },
    "name": "Cheli Gu"
  },
  {
    "country": "SO",
    "id": 60628,
    "coord": {
      "lat": 11.23861,
      "lon": 43.123329
    },
    "name": "Doon"
  },
  {
    "country": "SO",
    "id": 64833,
    "coord": {
      "lat": 2.11667,
      "lon": 45.400002
    },
    "name": "Gobolka Banaadir"
  },
  {
    "country": "SO",
    "id": 51230,
    "coord": {
      "lat": 9.33333,
      "lon": 45.416672
    },
    "name": "Gobolka Togdheer"
  },
  {
    "country": "SO",
    "id": 63795,
    "coord": {
      "lat": 9.52212,
      "lon": 45.53363
    },
    "name": "Burco"
  },
  {
    "country": "SO",
    "id": 52187,
    "coord": {
      "lat": 10.5,
      "lon": 48
    },
    "name": "Gobolka Sanaag"
  },
  {
    "country": "SO",
    "id": 62691,
    "coord": {
      "lat": 10.61616,
      "lon": 47.36795
    },
    "name": "Ceerigaabo"
  },
  {
    "country": "SO",
    "id": 56505,
    "coord": {
      "lat": 10.2837,
      "lon": 50.23
    },
    "name": "Iskushuban"
  },
  {
    "country": "SO",
    "id": 51966,
    "coord": {
      "lat": 1.83333,
      "lon": 44.416672
    },
    "name": "Gobolka Shabeellaha Hoose"
  },
  {
    "country": "SO",
    "id": 50672,
    "coord": {
      "lat": 2.6185,
      "lon": 44.893799
    },
    "name": "Wanlaweyn"
  },
  {
    "country": "SO",
    "id": 52867,
    "coord": {
      "lat": 1.78784,
      "lon": 44.529991
    },
    "name": "Qoryooley"
  },
  {
    "country": "SO",
    "id": 53157,
    "coord": {
      "lat": 11.47197,
      "lon": 49.872822
    },
    "name": "Qandala"
  },
  {
    "country": "SO",
    "id": 56166,
    "coord": {
      "lat": 0.48829,
      "lon": 42.785351
    },
    "name": "Jilib"
  },
  {
    "country": "SO",
    "id": 57289,
    "coord": {
      "lat": 9.56,
      "lon": 44.064999
    },
    "name": "Hargeysa"
  },
  {
    "country": "SO",
    "id": 62788,
    "coord": {
      "lat": 3.84878,
      "lon": 47.180641
    },
    "name": "Ceeldheer"
  },
  {
    "country": "SO",
    "id": 64538,
    "coord": {
      "lat": 3,
      "lon": 43.5
    },
    "name": "Gobolka Bay"
  },
  {
    "country": "SO",
    "id": 63689,
    "coord": {
      "lat": 3.85375,
      "lon": 45.56744
    },
    "name": "Buulobarde"
  },
  {
    "country": "SO",
    "id": 65170,
    "coord": {
      "lat": 2.34464,
      "lon": 42.27644
    },
    "name": "Baardheere"
  },
  {
    "country": "SO",
    "id": 51537,
    "coord": {
      "lat": 6,
      "lon": 48
    },
    "name": "Somalia"
  },
  {
    "country": "SO",
    "id": 60207,
    "coord": {
      "lat": 11.28333,
      "lon": 49.150002
    },
    "name": "El Ad"
  },
  {
    "country": "SO",
    "id": 60019,
    "coord": {
      "lat": 7.9803,
      "lon": 49.816399
    },
    "name": "Eyl"
  },
  {
    "country": "SO",
    "id": 64480,
    "coord": {
      "lat": 2.31667,
      "lon": 42.316669
    },
    "name": "Behelidle"
  },
  {
    "country": "SO",
    "id": 63081,
    "coord": {
      "lat": 11.96611,
      "lon": 50.756939
    },
    "name": "Caluula"
  },
  {
    "country": "SO",
    "id": 64536,
    "coord": {
      "lat": 3.11383,
      "lon": 43.649799
    },
    "name": "Baydhabo"
  },
  {
    "country": "SO",
    "id": 49593,
    "coord": {
      "lat": 4.55,
      "lon": 43.033329
    },
    "name": "Yeed"
  },
  {
    "country": "SO",
    "id": 49747,
    "coord": {
      "lat": 4.12129,
      "lon": 43.88945
    },
    "name": "Xuddur"
  },
  {
    "country": "SO",
    "id": 50064,
    "coord": {
      "lat": 4.6544,
      "lon": 47.857498
    },
    "name": "Xarardheere"
  },
  {
    "country": "SO",
    "id": 50814,
    "coord": {
      "lat": 3.80958,
      "lon": 43.246281
    },
    "name": "Waajid"
  },
  {
    "country": "SO",
    "id": 51299,
    "coord": {
      "lat": 4.01897,
      "lon": 44.51112
    },
    "name": "Tayeeglow"
  },
  {
    "country": "SO",
    "id": 52381,
    "coord": {
      "lat": 1.62794,
      "lon": 42.440659
    },
    "name": "Saacow"
  },
  {
    "country": "SO",
    "id": 53372,
    "coord": {
      "lat": 9.4092,
      "lon": 45.063969
    },
    "name": "Oodweyne"
  },
  {
    "country": "SO",
    "id": 54225,
    "coord": {
      "lat": 1.71594,
      "lon": 44.77166
    },
    "name": "Marka"
  },
  {
    "country": "SO",
    "id": 54460,
    "coord": {
      "lat": 2.9726,
      "lon": 45.534698
    },
    "name": "Mahaddayweyne"
  },
  {
    "country": "SO",
    "id": 54746,
    "coord": {
      "lat": 10.68573,
      "lon": 43.94397
    },
    "name": "Lughaye"
  },
  {
    "country": "SO",
    "id": 55223,
    "coord": {
      "lat": 11.1595,
      "lon": 48.196701
    },
    "name": "Laasqoray"
  },
  {
    "country": "SO",
    "id": 56414,
    "coord": {
      "lat": 3.3766,
      "lon": 45.599602
    },
    "name": "Jalalaqsi"
  },
  {
    "country": "SO",
    "id": 58994,
    "coord": {
      "lat": 3.32892,
      "lon": 42.220909
    },
    "name": "Garbahaarrey"
  },
  {
    "country": "SO",
    "id": 60457,
    "coord": {
      "lat": 1.25311,
      "lon": 42.573769
    },
    "name": "Dujuuma"
  },
  {
    "country": "SO",
    "id": 60928,
    "coord": {
      "lat": 5.535,
      "lon": 46.386108
    },
    "name": "Dusa Marreb"
  },
  {
    "country": "SO",
    "id": 62821,
    "coord": {
      "lat": 4.68501,
      "lon": 46.617599
    },
    "name": "Ceelbuur"
  },
  {
    "country": "SO",
    "id": 62854,
    "coord": {
      "lat": 8.99907,
      "lon": 45.358238
    },
    "name": "Ceek"
  },
  {
    "country": "SO",
    "id": 63344,
    "coord": {
      "lat": 2.7603,
      "lon": 46.322201
    },
    "name": "Cadale"
  },
  {
    "country": "SO",
    "id": 63580,
    "coord": {
      "lat": -1.21933,
      "lon": 41.83736
    },
    "name": "Buur Gaabo"
  },
  {
    "country": "SO",
    "id": 63949,
    "coord": {
      "lat": 1.08333,
      "lon": 42.583328
    },
    "name": "Buaale"
  },
  {
    "country": "SO",
    "id": 64412,
    "coord": {
      "lat": 11.87037,
      "lon": 51.057949
    },
    "name": "Bereeda"
  },
  {
    "country": "SO",
    "id": 64670,
    "coord": {
      "lat": 11.28636,
      "lon": 51.077301
    },
    "name": "Bargaal"
  },
  {
    "country": "SO",
    "id": 64814,
    "coord": {
      "lat": 9.4942,
      "lon": 50.812199
    },
    "name": "Bandarbeyla"
  },
  {
    "country": "SO",
    "id": 8045596,
    "coord": {
      "lat": 9.89206,
      "lon": 43.385311
    },
    "name": "Baki"
  }

]