[

  {
    "country": "TC",
    "id": 3576979,
    "coord": {
      "lat": 21.9,
      "lon": -72.033333
    },
    "name": "Kew"
  },
  {
    "country": "TC",
    "id": 3576909,
    "coord": {
      "lat": 21.466669,
      "lon": -71.133331
    },
    "name": "West Road"
  },
  {
    "country": "TC",
    "id": 3576916,
    "coord": {
      "lat": 21.73333,
      "lon": -71.583328
    },
    "name": "Turks and Caicos Islands"
  },
  {
    "country": "TC",
    "id": 3576994,
    "coord": {
      "lat": 21.46122,
      "lon": -71.141876
    },
    "name": "Cockburn Town"
  },
  {
    "country": "TC",
    "id": 3577055,
    "coord": {
      "lat": 21.450001,
      "lon": -71.133331
    },
    "name": "Back Salina"
  },
  {
    "country": "TC",
    "id": 3577004,
    "coord": {
      "lat": 21.75,
      "lon": -72.25
    },
    "name": "Five Cays Settlement"
  }

]