[

  {
    "country": "UA",
    "id": 707860,
    "coord": {
      "lat": 44.549999,
      "lon": 34.283333
    },
    "name": "Hurzuf"
  },
  {
    "country": "UA",
    "id": 708546,
    "coord": {
      "lat": 44.599998,
      "lon": 33.900002
    },
    "name": "Holubynka"
  },
  {
    "country": "UA",
    "id": 703363,
    "coord": {
      "lat": 44.416668,
      "lon": 33.733334
    },
    "name": "Laspi"
  },
  {
    "country": "UA",
    "id": 713514,
    "coord": {
      "lat": 44.416668,
      "lon": 34.049999
    },
    "name": "Alupka"
  },
  {
    "country": "UA",
    "id": 690856,
    "coord": {
      "lat": 44.466667,
      "lon": 34.083332
    },
    "name": "Tyuzler"
  },
  {
    "country": "UA",
    "id": 707716,
    "coord": {
      "lat": 44.666668,
      "lon": 34.383331
    },
    "name": "Il’ichëvka"
  },
  {
    "country": "UA",
    "id": 697959,
    "coord": {
      "lat": 44.833332,
      "lon": 34.083332
    },
    "name": "Partyzans’ke"
  },
  {
    "country": "UA",
    "id": 711349,
    "coord": {
      "lat": 50.583328,
      "lon": 30.366671
    },
    "name": "Bucha"
  },
  {
    "country": "UA",
    "id": 688105,
    "coord": {
      "lat": 45.197224,
      "lon": 33.355831
    },
    "name": "Yevpatoriya"
  },
  {
    "country": "UA",
    "id": 703845,
    "coord": {
      "lat": 47.916668,
      "lon": 33.349998
    },
    "name": "Kryvyy Rih"
  },
  {
    "country": "UA",
    "id": 690791,
    "coord": {
      "lat": 49,
      "lon": 32
    },
    "name": "Ukraine"
  },
  {
    "country": "UA",
    "id": 703447,
    "coord": {
      "lat": 50.433334,
      "lon": 30.516666
    },
    "name": "Misto Kyyiv"
  },
  {
    "country": "UA",
    "id": 703883,
    "coord": {
      "lat": 45,
      "lon": 34
    },
    "name": "Avtonomna Respublika Krym"
  },
  {
    "country": "UA",
    "id": 689552,
    "coord": {
      "lat": 44.483334,
      "lon": 34.099998
    },
    "name": "Vinogradnoye"
  },
  {
    "country": "UA",
    "id": 703446,
    "coord": {
      "lat": 50.25,
      "lon": 30.5
    },
    "name": "Kyyivs’ka Oblast’"
  },
  {
    "country": "UA",
    "id": 696234,
    "coord": {
      "lat": 44.783333,
      "lon": 34.333332
    },
    "name": "Privol’noye"
  },
  {
    "country": "UA",
    "id": 711987,
    "coord": {
      "lat": 44.650002,
      "lon": 34.366669
    },
    "name": "Bobyanskoye"
  },
  {
    "country": "UA",
    "id": 709584,
    "coord": {
      "lat": 52.042778,
      "lon": 33.945278
    },
    "name": "Druzhba"
  },
  {
    "country": "UA",
    "id": 707611,
    "coord": {
      "lat": 51.900002,
      "lon": 33.783333
    },
    "name": "Imshanaya"
  },
  {
    "country": "UA",
    "id": 688041,
    "coord": {
      "lat": 50.416668,
      "lon": 29.733334
    },
    "name": "Yurov"
  },
  {
    "country": "UA",
    "id": 701619,
    "coord": {
      "lat": 44.516666,
      "lon": 34.183334
    },
    "name": "Massandra"
  },
  {
    "country": "UA",
    "id": 703776,
    "coord": {
      "lat": 44.700001,
      "lon": 33.950001
    },
    "name": "Kudryne"
  },
  {
    "country": "UA",
    "id": 704360,
    "coord": {
      "lat": 44.866669,
      "lon": 34.333332
    },
    "name": "Krasnopeshchernaya"
  },
  {
    "country": "UA",
    "id": 713772,
    "coord": {
      "lat": 45.016666,
      "lon": 34.033333
    },
    "name": "Aeroflots’kyy"
  },
  {
    "country": "UA",
    "id": 703973,
    "coord": {
      "lat": 46.183334,
      "lon": 34.650002
    },
    "name": "Krucha"
  },
  {
    "country": "UA",
    "id": 713155,
    "coord": {
      "lat": 46.450001,
      "lon": 33.866669
    },
    "name": "-"
  },
  {
    "country": "UA",
    "id": 692248,
    "coord": {
      "lat": 47.583332,
      "lon": 35.366669
    },
    "name": "Sukhoivanovskoye"
  },
  {
    "country": "UA",
    "id": 700755,
    "coord": {
      "lat": 48.366669,
      "lon": 35.416668
    },
    "name": "Morozovskiy"
  },
  {
    "country": "UA",
    "id": 709624,
    "coord": {
      "lat": 48.583332,
      "lon": 22.333332
    },
    "name": "Dravtse"
  },
  {
    "country": "UA",
    "id": 6723018,
    "coord": {
      "lat": 50.019814,
      "lon": 36.233105
    },
    "name": "Shatylivka"
  },
  {
    "country": "UA",
    "id": 695305,
    "coord": {
      "lat": 47.216671,
      "lon": 35.316669
    },
    "name": "Rozovka"
  },
  {
    "country": "UA",
    "id": 712443,
    "coord": {
      "lat": 47.100559,
      "lon": 37.44722
    },
    "name": "Berdyanskoye"
  },
  {
    "country": "UA",
    "id": 709930,
    "coord": {
      "lat": 48.450001,
      "lon": 34.98333
    },
    "name": "Dnipropetrovsk"
  },
  {
    "country": "UA",
    "id": 695394,
    "coord": {
      "lat": 48.451172,
      "lon": 22.701941
    },
    "name": "Rosvigovo"
  },
  {
    "country": "UA",
    "id": 687640,
    "coord": {
      "lat": 49.788898,
      "lon": 30.10129
    },
    "name": "Zarech’ye"
  },
  {
    "country": "UA",
    "id": 700918,
    "coord": {
      "lat": 48.44598,
      "lon": 27.798201
    },
    "name": "Mohyliv-Podilskyy"
  },
  {
    "country": "UA",
    "id": 707155,
    "coord": {
      "lat": 49.453892,
      "lon": 28.526079
    },
    "name": "Kalynivka"
  },
  {
    "country": "UA",
    "id": 713163,
    "coord": {
      "lat": 45.99194,
      "lon": 29.41824
    },
    "name": "Artsyz"
  },
  {
    "country": "UA",
    "id": 461727,
    "coord": {
      "lat": 45.383331,
      "lon": 32.533329
    },
    "name": "Olenevka"
  },
  {
    "country": "UA",
    "id": 505257,
    "coord": {
      "lat": 46.915619,
      "lon": 37.099609
    },
    "name": "Urzuf"
  },
  {
    "country": "UA",
    "id": 616196,
    "coord": {
      "lat": 50.231541,
      "lon": 24.377001
    },
    "name": "Staryy Dobrotvor"
  },
  {
    "country": "UA",
    "id": 686812,
    "coord": {
      "lat": 45.053101,
      "lon": 34.315418
    },
    "name": "Zuya"
  },
  {
    "country": "UA",
    "id": 686863,
    "coord": {
      "lat": 48.9095,
      "lon": 25.33926
    },
    "name": "Zolotyy Potik"
  },
  {
    "country": "UA",
    "id": 686895,
    "coord": {
      "lat": 50.27985,
      "lon": 35.981781
    },
    "name": "Zolochiv"
  },
  {
    "country": "UA",
    "id": 686932,
    "coord": {
      "lat": 48.485222,
      "lon": 31.539061
    },
    "name": "Zlynka"
  },
  {
    "country": "UA",
    "id": 686970,
    "coord": {
      "lat": 48.549679,
      "lon": 26.48744
    },
    "name": "Zhvanets"
  },
  {
    "country": "UA",
    "id": 687009,
    "coord": {
      "lat": 50.481079,
      "lon": 32.594898
    },
    "name": "Zhuravka"
  },
  {
    "country": "UA",
    "id": 687065,
    "coord": {
      "lat": 50.663651,
      "lon": 24.24918
    },
    "name": "Zhovtneve"
  },
  {
    "country": "UA",
    "id": 687191,
    "coord": {
      "lat": 45.398769,
      "lon": 34.757759
    },
    "name": "Zhelyabovka"
  },
  {
    "country": "UA",
    "id": 687433,
    "coord": {
      "lat": 50.496071,
      "lon": 26.24111
    },
    "name": "Zdolbitsa"
  },
  {
    "country": "UA",
    "id": 687526,
    "coord": {
      "lat": 48.213539,
      "lon": 30.015579
    },
    "name": "Zavallya"
  },
  {
    "country": "UA",
    "id": 687556,
    "coord": {
      "lat": 46.14492,
      "lon": 30.526091
    },
    "name": "Karolino-Buhaz"
  },
  {
    "country": "UA",
    "id": 687557,
    "coord": {
      "lat": 46.07251,
      "lon": 30.46538
    },
    "name": "Zatoka"
  },
  {
    "country": "UA",
    "id": 687562,
    "coord": {
      "lat": 47.333511,
      "lon": 29.87327
    },
    "name": "Zatyshshya"
  },
  {
    "country": "UA",
    "id": 687578,
    "coord": {
      "lat": 48.523071,
      "lon": 25.843691
    },
    "name": "Zastavna"
  },
  {
    "country": "UA",
    "id": 687602,
    "coord": {
      "lat": 45.990799,
      "lon": 29.69672
    },
    "name": "Zarya"
  },
  {
    "country": "UA",
    "id": 687645,
    "coord": {
      "lat": 48.521439,
      "lon": 24.648569
    },
    "name": "Zarichchya"
  },
  {
    "country": "UA",
    "id": 687652,
    "coord": {
      "lat": 51.812599,
      "lon": 26.129021
    },
    "name": "Zarichne"
  },
  {
    "country": "UA",
    "id": 687726,
    "coord": {
      "lat": 45.158161,
      "lon": 33.27866
    },
    "name": "Zaozerne"
  },
  {
    "country": "UA",
    "id": 687787,
    "coord": {
      "lat": 49.791882,
      "lon": 25.372971
    },
    "name": "Zaliztsi"
  },
  {
    "country": "UA",
    "id": 687790,
    "coord": {
      "lat": 46.116669,
      "lon": 32.283329
    },
    "name": "Zheleznyj port"
  },
  {
    "country": "UA",
    "id": 687796,
    "coord": {
      "lat": 47.652382,
      "lon": 36.165241
    },
    "name": "Zaliznychne"
  },
  {
    "country": "UA",
    "id": 687797,
    "coord": {
      "lat": 45.748901,
      "lon": 28.61466
    },
    "name": "Zaliznychne"
  },
  {
    "country": "UA",
    "id": 687824,
    "coord": {
      "lat": 48.03104,
      "lon": 38.809341
    },
    "name": "Zalesnoye"
  },
  {
    "country": "UA",
    "id": 687841,
    "coord": {
      "lat": 49.119438,
      "lon": 26.337561
    },
    "name": "Zakupne"
  },
  {
    "country": "UA",
    "id": 687872,
    "coord": {
      "lat": 48.918362,
      "lon": 24.65275
    },
    "name": "Zahvizdya"
  },
  {
    "country": "UA",
    "id": 687901,
    "coord": {
      "lat": 48.048779,
      "lon": 28.89234
    },
    "name": "Zagnitkiv"
  },
  {
    "country": "UA",
    "id": 688052,
    "coord": {
      "lat": 49.012562,
      "lon": 31.10125
    },
    "name": "Yurkivka"
  },
  {
    "country": "UA",
    "id": 688127,
    "coord": {
      "lat": 48.99062,
      "lon": 30.98818
    },
    "name": "Yerky"
  },
  {
    "country": "UA",
    "id": 688191,
    "coord": {
      "lat": 48.80381,
      "lon": 32.404598
    },
    "name": "Yelyzavethradka"
  },
  {
    "country": "UA",
    "id": 688365,
    "coord": {
      "lat": 48.279369,
      "lon": 24.36042
    },
    "name": "Yasinya"
  },
  {
    "country": "UA",
    "id": 688512,
    "coord": {
      "lat": 48.989719,
      "lon": 24.7075
    },
    "name": "Yamnytsya"
  },
  {
    "country": "UA",
    "id": 688532,
    "coord": {
      "lat": 46.962791,
      "lon": 37.273651
    },
    "name": "Yalta"
  },
  {
    "country": "UA",
    "id": 688602,
    "coord": {
      "lat": 48.942478,
      "lon": 25.74374
    },
    "name": "Yahilnytsya"
  },
  {
    "country": "UA",
    "id": 688625,
    "coord": {
      "lat": 48.404179,
      "lon": 24.93874
    },
    "name": "Yabluniv"
  },
  {
    "country": "UA",
    "id": 688637,
    "coord": {
      "lat": 48.317421,
      "lon": 24.48448
    },
    "name": "Yablunytsya"
  },
  {
    "country": "UA",
    "id": 688717,
    "coord": {
      "lat": 48.04911,
      "lon": 23.421129
    },
    "name": "Vyshkovo"
  },
  {
    "country": "UA",
    "id": 688749,
    "coord": {
      "lat": 48.10915,
      "lon": 22.83865
    },
    "name": "Vylok"
  },
  {
    "country": "UA",
    "id": 688750,
    "coord": {
      "lat": 45.402142,
      "lon": 29.585951
    },
    "name": "Vylkove"
  },
  {
    "country": "UA",
    "id": 688805,
    "coord": {
      "lat": 49.824409,
      "lon": 36.507469
    },
    "name": "Vvedenka"
  },
  {
    "country": "UA",
    "id": 688846,
    "coord": {
      "lat": 47.86195,
      "lon": 30.591949
    },
    "name": "Vradiyivka"
  },
  {
    "country": "UA",
    "id": 688865,
    "coord": {
      "lat": 46.871651,
      "lon": 35.464581
    },
    "name": "Voznesenka"
  },
  {
    "country": "UA",
    "id": 688904,
    "coord": {
      "lat": 45.38261,
      "lon": 36.437241
    },
    "name": "Voykove"
  },
  {
    "country": "UA",
    "id": 688951,
    "coord": {
      "lat": 45.339199,
      "lon": 36.414101
    },
    "name": "Voskhod"
  },
  {
    "country": "UA",
    "id": 688961,
    "coord": {
      "lat": 51.17334,
      "lon": 34.21917
    },
    "name": "Vorozhba"
  },
  {
    "country": "UA",
    "id": 689003,
    "coord": {
      "lat": 49.109539,
      "lon": 28.68078
    },
    "name": "Voronovytsya"
  },
  {
    "country": "UA",
    "id": 689106,
    "coord": {
      "lat": 48.710899,
      "lon": 23.185101
    },
    "name": "Volovets"
  },
  {
    "country": "UA",
    "id": 689144,
    "coord": {
      "lat": 48.192249,
      "lon": 25.93074
    },
    "name": "Voloka"
  },
  {
    "country": "UA",
    "id": 689190,
    "coord": {
      "lat": 47.636459,
      "lon": 34.813869
    },
    "name": "Volnoye"
  },
  {
    "country": "UA",
    "id": 689307,
    "coord": {
      "lat": 45.8699,
      "lon": 33.991379
    },
    "name": "Voyinka"
  },
  {
    "country": "UA",
    "id": 689428,
    "coord": {
      "lat": 51.421299,
      "lon": 26.14469
    },
    "name": "Volodymyrets"
  },
  {
    "country": "UA",
    "id": 689434,
    "coord": {
      "lat": 48.248009,
      "lon": 25.194521
    },
    "name": "Vyzhnytsya"
  },
  {
    "country": "UA",
    "id": 689488,
    "coord": {
      "lat": 48.436611,
      "lon": 33.91618
    },
    "name": "Vyshneve"
  },
  {
    "country": "UA",
    "id": 689531,
    "coord": {
      "lat": 46.369572,
      "lon": 32.9398
    },
    "name": "Vynohradove"
  },
  {
    "country": "UA",
    "id": 689543,
    "coord": {
      "lat": 45.68119,
      "lon": 28.571381
    },
    "name": "Vynohradivka"
  },
  {
    "country": "UA",
    "id": 689595,
    "coord": {
      "lat": 44.8456,
      "lon": 33.671612
    },
    "name": "Viline"
  },
  {
    "country": "UA",
    "id": 689736,
    "coord": {
      "lat": 47.01479,
      "lon": 34.915039
    },
    "name": "Vesele"
  },
  {
    "country": "UA",
    "id": 689817,
    "coord": {
      "lat": 48.155708,
      "lon": 24.791121
    },
    "name": "Verkhovyna"
  },
  {
    "country": "UA",
    "id": 689830,
    "coord": {
      "lat": 50.829021,
      "lon": 34.958611
    },
    "name": "Verkhnyaya Syrovatka"
  },
  {
    "country": "UA",
    "id": 689834,
    "coord": {
      "lat": 48.791851,
      "lon": 23.51569
    },
    "name": "Verkhnya Rozhanka"
  },
  {
    "country": "UA",
    "id": 689857,
    "coord": {
      "lat": 48.828491,
      "lon": 30.03957
    },
    "name": "Verkhnyachka"
  },
  {
    "country": "UA",
    "id": 689860,
    "coord": {
      "lat": 48.16156,
      "lon": 24.94532
    },
    "name": "Verkhniy Yasenov"
  },
  {
    "country": "UA",
    "id": 689868,
    "coord": {
      "lat": 47.250542,
      "lon": 34.337971
    },
    "name": "Verkhniy Rohachyk"
  },
  {
    "country": "UA",
    "id": 689892,
    "coord": {
      "lat": 49.103069,
      "lon": 23.59099
    },
    "name": "Verkhneye Sinevidnoye"
  },
  {
    "country": "UA",
    "id": 689945,
    "coord": {
      "lat": 48.546532,
      "lon": 25.745331
    },
    "name": "Verenchanka"
  },
  {
    "country": "UA",
    "id": 690009,
    "coord": {
      "lat": 49.416672,
      "lon": 35.533329
    },
    "name": "Verbivka"
  },
  {
    "country": "UA",
    "id": 690032,
    "coord": {
      "lat": 48.611759,
      "lon": 27.79324
    },
    "name": "Vendychany"
  },
  {
    "country": "UA",
    "id": 690035,
    "coord": {
      "lat": 47.012539,
      "lon": 29.671709
    },
    "name": "Velykoploske"
  },
  {
    "country": "UA",
    "id": 690038,
    "coord": {
      "lat": 47.079441,
      "lon": 29.851391
    },
    "name": "Velyka Mykhaylivka"
  },
  {
    "country": "UA",
    "id": 690132,
    "coord": {
      "lat": 48.470921,
      "lon": 24.946779
    },
    "name": "Velykyy Klyuchiv"
  },
  {
    "country": "UA",
    "id": 690147,
    "coord": {
      "lat": 50.02314,
      "lon": 33.941441
    },
    "name": "Velikiye Sorochintsy"
  },
  {
    "country": "UA",
    "id": 690165,
    "coord": {
      "lat": 46.486839,
      "lon": 32.974979
    },
    "name": "Velyki Kopany"
  },
  {
    "country": "UA",
    "id": 690184,
    "coord": {
      "lat": 49.52364,
      "lon": 25.75753
    },
    "name": "Velikiye Borki"
  },
  {
    "country": "UA",
    "id": 690193,
    "coord": {
      "lat": 50.037868,
      "lon": 37.398708
    },
    "name": "Velikiy Burluk"
  },
  {
    "country": "UA",
    "id": 690230,
    "coord": {
      "lat": 50.425869,
      "lon": 35.48502
    },
    "name": "Velyka Pysarivka"
  },
  {
    "country": "UA",
    "id": 690285,
    "coord": {
      "lat": 49.791161,
      "lon": 33.72258
    },
    "name": "Velyka Bahachka"
  },
  {
    "country": "UA",
    "id": 690428,
    "coord": {
      "lat": 48.384918,
      "lon": 25.510229
    },
    "name": "Vashkivtsi"
  },
  {
    "country": "UA",
    "id": 690434,
    "coord": {
      "lat": 48.12207,
      "lon": 22.712811
    },
    "name": "Vary"
  },
  {
    "country": "UA",
    "id": 690485,
    "coord": {
      "lat": 48.53479,
      "lon": 28.74358
    },
    "name": "Vapnyarka"
  },
  {
    "country": "UA",
    "id": 690571,
    "coord": {
      "lat": 49.785831,
      "lon": 36.075279
    },
    "name": "Utkivka"
  },
  {
    "country": "UA",
    "id": 690600,
    "coord": {
      "lat": 47.95507,
      "lon": 32.536739
    },
    "name": "Ustynivka"
  },
  {
    "country": "UA",
    "id": 690673,
    "coord": {
      "lat": 48.295761,
      "lon": 39.825371
    },
    "name": "Uralo-Kavkaz"
  },
  {
    "country": "UA",
    "id": 690679,
    "coord": {
      "lat": 48.028469,
      "lon": 25.72327
    },
    "name": "Nyzhni Petrivtsi"
  },
  {
    "country": "UA",
    "id": 690745,
    "coord": {
      "lat": 49.233849,
      "lon": 23.65111
    },
    "name": "Ulichnoye"
  },
  {
    "country": "UA",
    "id": 690756,
    "coord": {
      "lat": 49.695122,
      "lon": 28.13298
    },
    "name": "Ulanov"
  },
  {
    "country": "UA",
    "id": 690804,
    "coord": {
      "lat": 48.9552,
      "lon": 24.692921
    },
    "name": "Uhryniv"
  },
  {
    "country": "UA",
    "id": 690814,
    "coord": {
      "lat": 50.368111,
      "lon": 23.748949
    },
    "name": "Ugnev"
  },
  {
    "country": "UA",
    "id": 690820,
    "coord": {
      "lat": 44.821461,
      "lon": 33.604519
    },
    "name": "Uhlove"
  },
  {
    "country": "UA",
    "id": 690875,
    "coord": {
      "lat": 48.771679,
      "lon": 24.66626
    },
    "name": "Tysmenychany"
  },
  {
    "country": "UA",
    "id": 690890,
    "coord": {
      "lat": 50.601452,
      "lon": 26.18486
    },
    "name": "Tynnoye"
  },
  {
    "country": "UA",
    "id": 690985,
    "coord": {
      "lat": 49.347881,
      "lon": 28.72117
    },
    "name": "Turbiv"
  },
  {
    "country": "UA",
    "id": 691019,
    "coord": {
      "lat": 48.912182,
      "lon": 23.47303
    },
    "name": "Tukhlya"
  },
  {
    "country": "UA",
    "id": 691051,
    "coord": {
      "lat": 48.387192,
      "lon": 29.10288
    },
    "name": "Tsybulevka"
  },
  {
    "country": "UA",
    "id": 691052,
    "coord": {
      "lat": 49.994839,
      "lon": 31.562811
    },
    "name": "Tsybli"
  },
  {
    "country": "UA",
    "id": 692410,
    "coord": {
      "lat": 44.943089,
      "lon": 34.197269
    },
    "name": "Strohonivka"
  },
  {
    "country": "UA",
    "id": 692468,
    "coord": {
      "lat": 48.113331,
      "lon": 38.4925
    },
    "name": "Stozhkovskoye"
  },
  {
    "country": "UA",
    "id": 692604,
    "coord": {
      "lat": 46.794891,
      "lon": 29.986839
    },
    "name": "Stepanivka"
  },
  {
    "country": "UA",
    "id": 693002,
    "coord": {
      "lat": 48.540428,
      "lon": 22.50696
    },
    "name": "Serednye"
  },
  {
    "country": "UA",
    "id": 700181,
    "coord": {
      "lat": 44.96714,
      "lon": 33.614429
    },
    "name": "Mykolayivka"
  },
  {
    "country": "UA",
    "id": 711623,
    "coord": {
      "lat": 49.377701,
      "lon": 37.621361
    },
    "name": "Borova"
  },
  {
    "country": "UA",
    "id": 796868,
    "coord": {
      "lat": 45.28669,
      "lon": 36.262699
    },
    "name": "Mykhaylivka"
  },
  {
    "country": "UA",
    "id": 703448,
    "coord": {
      "lat": 50.433334,
      "lon": 30.516666
    },
    "name": "Kiev"
  },
  {
    "country": "UA",
    "id": 699996,
    "coord": {
      "lat": 44.599998,
      "lon": 33.950001
    },
    "name": "Nizhniy Airgul’"
  },
  {
    "country": "UA",
    "id": 691184,
    "coord": {
      "lat": 50.466667,
      "lon": 30.533333
    },
    "name": "Trukhanov Ostrov"
  },
  {
    "country": "UA",
    "id": 696877,
    "coord": {
      "lat": 50.466667,
      "lon": 30.516666
    },
    "name": "Podol"
  },
  {
    "country": "UA",
    "id": 703863,
    "coord": {
      "lat": 44.900002,
      "lon": 35.183334
    },
    "name": "Sanatoriy Kryms’ke Prymor”ya"
  },
  {
    "country": "UA",
    "id": 815919,
    "coord": {
      "lat": 52.15778,
      "lon": 34.036667
    },
    "name": "Sorokin"
  },
  {
    "country": "UA",
    "id": 688533,
    "coord": {
      "lat": 44.5,
      "lon": 34.166668
    },
    "name": "Yalta"
  },
  {
    "country": "UA",
    "id": 712160,
    "coord": {
      "lat": 46.200001,
      "lon": 30.35
    },
    "name": "Bilhorod-Dnistrovskyy"
  },
  {
    "country": "UA",
    "id": 712374,
    "coord": {
      "lat": 49.450001,
      "lon": 24.933332
    },
    "name": "Berezhani"
  },
  {
    "country": "UA",
    "id": 690017,
    "coord": {
      "lat": 47,
      "lon": 30.01667
    },
    "name": "Verbany"
  },
  {
    "country": "UA",
    "id": 713101,
    "coord": {
      "lat": 49.066669,
      "lon": 33.416672
    },
    "name": "Avtozavodskiy Rayon"
  },
  {
    "country": "UA",
    "id": 712861,
    "coord": {
      "lat": 49.077171,
      "lon": 27.68256
    },
    "name": "Bar"
  },
  {
    "country": "UA",
    "id": 711487,
    "coord": {
      "lat": 49.109859,
      "lon": 28.174589
    },
    "name": "Brailiv"
  },
  {
    "country": "UA",
    "id": 710878,
    "coord": {
      "lat": 44.5,
      "lon": 34.133331
    },
    "name": "Chekhovo"
  },
  {
    "country": "UA",
    "id": 710425,
    "coord": {
      "lat": 50.416668,
      "lon": 30.450001
    },
    "name": "Chokolovka"
  },
  {
    "country": "UA",
    "id": 709716,
    "coord": {
      "lat": 48,
      "lon": 37.5
    },
    "name": "Donets’ka Oblast’"
  },
  {
    "country": "UA",
    "id": 709717,
    "coord": {
      "lat": 48,
      "lon": 37.799999
    },
    "name": "Donetsk"
  },
  {
    "country": "UA",
    "id": 693272,
    "coord": {
      "lat": 44.549999,
      "lon": 33.966667
    },
    "name": "Sokolyne"
  },
  {
    "country": "UA",
    "id": 699318,
    "coord": {
      "lat": 44.583332,
      "lon": 33.916668
    },
    "name": "Novopillya"
  },
  {
    "country": "UA",
    "id": 699072,
    "coord": {
      "lat": 44.599998,
      "lon": 33.866669
    },
    "name": "Novoul’yanovka"
  },
  {
    "country": "UA",
    "id": 703498,
    "coord": {
      "lat": 44.650002,
      "lon": 33.866669
    },
    "name": "Kuybysheve"
  },
  {
    "country": "UA",
    "id": 711743,
    "coord": {
      "lat": 44.633331,
      "lon": 33.833332
    },
    "name": "Velyke Sadove"
  },
  {
    "country": "UA",
    "id": 691919,
    "coord": {
      "lat": 44.650002,
      "lon": 33.816666
    },
    "name": "Tankove"
  },
  {
    "country": "UA",
    "id": 704201,
    "coord": {
      "lat": 44.650002,
      "lon": 33.783333
    },
    "name": "Krasnyy Mak"
  },
  {
    "country": "UA",
    "id": 687825,
    "coord": {
      "lat": 44.616669,
      "lon": 33.783333
    },
    "name": "Zalisne"
  },
  {
    "country": "UA",
    "id": 691462,
    "coord": {
      "lat": 44.716667,
      "lon": 33.816666
    },
    "name": "Tole"
  },
  {
    "country": "UA",
    "id": 712969,
    "coord": {
      "lat": 44.75,
      "lon": 33.866669
    },
    "name": "Bakhchysaray"
  },
  {
    "country": "UA",
    "id": 690973,
    "coord": {
      "lat": 44.700001,
      "lon": 33.833332
    },
    "name": "Turhenyevka"
  },
  {
    "country": "UA",
    "id": 712773,
    "coord": {
      "lat": 44.683334,
      "lon": 33.900002
    },
    "name": "Bashtanivka"
  },
  {
    "country": "UA",
    "id": 692800,
    "coord": {
      "lat": 44.75,
      "lon": 33.916668
    },
    "name": "Starosel’ye"
  },
  {
    "country": "UA",
    "id": 708727,
    "coord": {
      "lat": 44.766666,
      "lon": 33.933334
    },
    "name": "Hlybokyy Yar"
  },
  {
    "country": "UA",
    "id": 697960,
    "coord": {
      "lat": 44.75,
      "lon": 34
    },
    "name": "Partizanskoye"
  },
  {
    "country": "UA",
    "id": 700416,
    "coord": {
      "lat": 44.733334,
      "lon": 34.016666
    },
    "name": "Nauchnyy"
  },
  {
    "country": "UA",
    "id": 696050,
    "coord": {
      "lat": 50.450001,
      "lon": 30.5
    },
    "name": "Pushcha-Voditsa"
  },
  {
    "country": "UA",
    "id": 703625,
    "coord": {
      "lat": 50.483334,
      "lon": 30.466667
    },
    "name": "Kurenëvka"
  },
  {
    "country": "UA",
    "id": 711660,
    "coord": {
      "lat": 50.349998,
      "lon": 30.950001
    },
    "name": "Boryspil"
  },
  {
    "country": "UA",
    "id": 700072,
    "coord": {
      "lat": 50.450001,
      "lon": 30.583332
    },
    "name": "Nikol’skaya"
  },
  {
    "country": "UA",
    "id": 696359,
    "coord": {
      "lat": 50.433334,
      "lon": 30.583332
    },
    "name": "Predmostnaya"
  },
  {
    "country": "UA",
    "id": 710276,
    "coord": {
      "lat": 50.433334,
      "lon": 30.633333
    },
    "name": "Darnitsa"
  },
  {
    "country": "UA",
    "id": 711562,
    "coord": {
      "lat": 50.366669,
      "lon": 30.683332
    },
    "name": "Bortnichi"
  },
  {
    "country": "UA",
    "id": 698283,
    "coord": {
      "lat": 50.400002,
      "lon": 30.6
    },
    "name": "Osokorki"
  },
  {
    "country": "UA",
    "id": 699317,
    "coord": {
      "lat": 50.416668,
      "lon": 30.633333
    },
    "name": "Novo-Poznyaki"
  },
  {
    "country": "UA",
    "id": 701759,
    "coord": {
      "lat": 50.299999,
      "lon": 30.866667
    },
    "name": "Martusovka"
  },
  {
    "country": "UA",
    "id": 707305,
    "coord": {
      "lat": 44.716667,
      "lon": 34.349998
    },
    "name": "Izobil’ne"
  },
  {
    "country": "UA",
    "id": 713150,
    "coord": {
      "lat": 44.716667,
      "lon": 34.25
    },
    "name": "Asport"
  },
  {
    "country": "UA",
    "id": 700661,
    "coord": {
      "lat": 44.816666,
      "lon": 34.25
    },
    "name": "Mramorne"
  },
  {
    "country": "UA",
    "id": 709602,
    "coord": {
      "lat": 44.783333,
      "lon": 34.099998
    },
    "name": "Drovyanka"
  },
  {
    "country": "UA",
    "id": 703596,
    "coord": {
      "lat": 44.900002,
      "lon": 35.150002
    },
    "name": "Kurortne"
  },
  {
    "country": "UA",
    "id": 694320,
    "coord": {
      "lat": 44.933334,
      "lon": 35.150002
    },
    "name": "Shchebetovka"
  },
  {
    "country": "UA",
    "id": 713746,
    "coord": {
      "lat": 44.916668,
      "lon": 35.066666
    },
    "name": "Akikat"
  },
  {
    "country": "UA",
    "id": 694385,
    "coord": {
      "lat": 44.983334,
      "lon": 35.016666
    },
    "name": "Shakh-Murza Staraya"
  },
  {
    "country": "UA",
    "id": 697652,
    "coord": {
      "lat": 44.966667,
      "lon": 34.983334
    },
    "name": "Perevalivka"
  },
  {
    "country": "UA",
    "id": 703169,
    "coord": {
      "lat": 44.933334,
      "lon": 34.950001
    },
    "name": "Lisne"
  },
  {
    "country": "UA",
    "id": 709267,
    "coord": {
      "lat": 44.950001,
      "lon": 34.900002
    },
    "name": "Eski Yurt"
  },
  {
    "country": "UA",
    "id": 687301,
    "coord": {
      "lat": 44.966667,
      "lon": 34.833332
    },
    "name": "Zemlyanychne"
  },
  {
    "country": "UA",
    "id": 710680,
    "coord": {
      "lat": 44.950001,
      "lon": 34.75
    },
    "name": "Chernoslivka"
  },
  {
    "country": "UA",
    "id": 687388,
    "coord": {
      "lat": 44.866669,
      "lon": 34.716667
    },
    "name": "Arpat"
  },
  {
    "country": "UA",
    "id": 704324,
    "coord": {
      "lat": 44.916668,
      "lon": 34.633331
    },
    "name": "Krasnoselivka"
  },
  {
    "country": "UA",
    "id": 697811,
    "coord": {
      "lat": 44.933334,
      "lon": 34.549999
    },
    "name": "Pcholyne"
  },
  {
    "country": "UA",
    "id": 706557,
    "coord": {
      "lat": 44.950001,
      "lon": 34.5
    },
    "name": "Kazil’"
  },
  {
    "country": "UA",
    "id": 701300,
    "coord": {
      "lat": 44.966667,
      "lon": 34.416668
    },
    "name": "Baksan"
  },
  {
    "country": "UA",
    "id": 705127,
    "coord": {
      "lat": 44.983334,
      "lon": 34.416668
    },
    "name": "Konrat"
  },
  {
    "country": "UA",
    "id": 691743,
    "coord": {
      "lat": 50.400002,
      "lon": 30.566668
    },
    "name": "Telichka"
  },
  {
    "country": "UA",
    "id": 692196,
    "coord": {
      "lat": 51,
      "lon": 34
    },
    "name": "Sums’ka Oblast’"
  },
  {
    "country": "UA",
    "id": 709681,
    "coord": {
      "lat": 52.029167,
      "lon": 33.858891
    },
    "name": "Doroshivka"
  },
  {
    "country": "UA",
    "id": 688501,
    "coord": {
      "lat": 51.950001,
      "lon": 33.783333
    },
    "name": "Yampil"
  },
  {
    "country": "UA",
    "id": 701500,
    "coord": {
      "lat": 51.483334,
      "lon": 33.266666
    },
    "name": "Mayorovka"
  },
  {
    "country": "UA",
    "id": 710734,
    "coord": {
      "lat": 51,
      "lon": 32
    },
    "name": "Chernihivs’ka Oblast’"
  },
  {
    "country": "UA",
    "id": 706098,
    "coord": {
      "lat": 51.200001,
      "lon": 31.766666
    },
    "name": "Khutor Fomina"
  },
  {
    "country": "UA",
    "id": 704218,
    "coord": {
      "lat": 50.950001,
      "lon": 31.783333
    },
    "name": "Krasnyye Partizany"
  },
  {
    "country": "UA",
    "id": 711999,
    "coord": {
      "lat": 50.75,
      "lon": 31.383333
    },
    "name": "Bobrovytsya"
  },
  {
    "country": "UA",
    "id": 701779,
    "coord": {
      "lat": 50.733334,
      "lon": 31.25
    },
    "name": "Markovtsy"
  },
  {
    "country": "UA",
    "id": 699871,
    "coord": {
      "lat": 50.433334,
      "lon": 30.65
    },
    "name": "Novaya Darnitsa"
  },
  {
    "country": "UA",
    "id": 703757,
    "coord": {
      "lat": 50.416668,
      "lon": 30.6
    },
    "name": "Kukhmisterskaya Sloboda"
  },
  {
    "country": "UA",
    "id": 696377,
    "coord": {
      "lat": 50.400002,
      "lon": 30.616667
    },
    "name": "Poznyaki"
  },
  {
    "country": "UA",
    "id": 707470,
    "coord": {
      "lat": 48.5,
      "lon": 24.5
    },
    "name": "Ivano-Frankivs’ka Oblast’"
  },
  {
    "country": "UA",
    "id": 689037,
    "coord": {
      "lat": 48.286945,
      "lon": 24.571943
    },
    "name": "Vorokhta"
  },
  {
    "country": "UA",
    "id": 686966,
    "coord": {
      "lat": 50.5,
      "lon": 28.5
    },
    "name": "Zhytomyrs’ka Oblast’"
  },
  {
    "country": "UA",
    "id": 705514,
    "coord": {
      "lat": 50.349998,
      "lon": 29.35
    },
    "name": "Kocherovo"
  },
  {
    "country": "UA",
    "id": 706021,
    "coord": {
      "lat": 50.366669,
      "lon": 29.416668
    },
    "name": "Khutor Pen’kovatoye"
  },
  {
    "country": "UA",
    "id": 704183,
    "coord": {
      "lat": 50.366669,
      "lon": 29.433332
    },
    "name": "Krasnyy Shlyakh"
  },
  {
    "country": "UA",
    "id": 688675,
    "coord": {
      "lat": 50.383331,
      "lon": 29.516666
    },
    "name": "Vysokoye"
  },
  {
    "country": "UA",
    "id": 692672,
    "coord": {
      "lat": 50.400002,
      "lon": 29.533333
    },
    "name": "Stavyshche"
  },
  {
    "country": "UA",
    "id": 700396,
    "coord": {
      "lat": 50.416668,
      "lon": 29.6
    },
    "name": "Nebilitsa"
  },
  {
    "country": "UA",
    "id": 693738,
    "coord": {
      "lat": 50.416668,
      "lon": 29.700001
    },
    "name": "Sitnyaki"
  },
  {
    "country": "UA",
    "id": 706082,
    "coord": {
      "lat": 50.416668,
      "lon": 29.799999
    },
    "name": "Khutor Kalinovka"
  },
  {
    "country": "UA",
    "id": 705015,
    "coord": {
      "lat": 50.400002,
      "lon": 29.883333
    },
    "name": "Kopylov"
  },
  {
    "country": "UA",
    "id": 688726,
    "coord": {
      "lat": 50.450001,
      "lon": 29.933332
    },
    "name": "Vyshegrad"
  },
  {
    "country": "UA",
    "id": 705303,
    "coord": {
      "lat": 50.450001,
      "lon": 29.966667
    },
    "name": "Kolonshchina"
  },
  {
    "country": "UA",
    "id": 711055,
    "coord": {
      "lat": 50.416668,
      "lon": 30.033333
    },
    "name": "Buzovaya"
  },
  {
    "country": "UA",
    "id": 712590,
    "coord": {
      "lat": 50.383331,
      "lon": 30.216667
    },
    "name": "Belogorodka"
  },
  {
    "country": "UA",
    "id": 697418,
    "coord": {
      "lat": 50.433334,
      "lon": 30.333332
    },
    "name": "Petropavlovskaya Borshchagovka"
  },
  {
    "country": "UA",
    "id": 712631,
    "coord": {
      "lat": 50.466667,
      "lon": 30.35
    },
    "name": "Belichi"
  },
  {
    "country": "UA",
    "id": 692014,
    "coord": {
      "lat": 50.450001,
      "lon": 30.366667
    },
    "name": "Svyatoshino"
  },
  {
    "country": "UA",
    "id": 711390,
    "coord": {
      "lat": 50.5,
      "lon": 30.766666
    },
    "name": "Brovary"
  },
  {
    "country": "UA",
    "id": 706081,
    "coord": {
      "lat": 50.566666,
      "lon": 30.833332
    },
    "name": "Khutor Kalinovka"
  },
  {
    "country": "UA",
    "id": 711919,
    "coord": {
      "lat": 50.633331,
      "lon": 30.916668
    },
    "name": "Bogdanovka"
  },
  {
    "country": "UA",
    "id": 694558,
    "coord": {
      "lat": 50.716667,
      "lon": 30.933332
    },
    "name": "Semypolky"
  },
  {
    "country": "UA",
    "id": 707123,
    "coord": {
      "lat": 50.75,
      "lon": 31.016666
    },
    "name": "Kalita"
  },
  {
    "country": "UA",
    "id": 688157,
    "coord": {
      "lat": 50.766666,
      "lon": 31.033333
    },
    "name": "Yemel’yanov"
  },
  {
    "country": "UA",
    "id": 691991,
    "coord": {
      "lat": 50.849998,
      "lon": 31.049999
    },
    "name": "Syrai"
  },
  {
    "country": "UA",
    "id": 689772,
    "coord": {
      "lat": 45,
      "lon": 33.966667
    },
    "name": "Vesëloye"
  },
  {
    "country": "UA",
    "id": 704393,
    "coord": {
      "lat": 48.016666,
      "lon": 37.516666
    },
    "name": "Krasnogorovka"
  },
  {
    "country": "UA",
    "id": 691606,
    "coord": {
      "lat": 50.983334,
      "lon": 33.983334
    },
    "name": "Terny"
  },
  {
    "country": "UA",
    "id": 706043,
    "coord": {
      "lat": 51,
      "lon": 32
    },
    "name": "Khutor Naumovskiy"
  },
  {
    "country": "UA",
    "id": 688455,
    "coord": {
      "lat": 48.458332,
      "lon": 24.551945
    },
    "name": "Yaremche"
  },
  {
    "country": "UA",
    "id": 693585,
    "coord": {
      "lat": 50.483334,
      "lon": 28.533333
    },
    "name": "Slavov"
  },
  {
    "country": "UA",
    "id": 71296900,
    "coord": {
      "lat": 44.59,
      "lon": 33.92
    },
    "name": "Голубинка"
  },
  {
    "country": "UA",
    "id": 700924,
    "coord": {
      "lat": 53.900002,
      "lon": 30.35
    },
    "name": "Mogilëv"
  },
  {
    "country": "UA",
    "id": 709112,
    "coord": {
      "lat": 44.400002,
      "lon": 33.783333
    },
    "name": "Foros"
  },
  {
    "country": "UA",
    "id": 698466,
    "coord": {
      "lat": 44.400002,
      "lon": 33.933334
    },
    "name": "Opolzneve"
  },
  {
    "country": "UA",
    "id": 693372,
    "coord": {
      "lat": 44.416668,
      "lon": 33.866669
    },
    "name": "Snitovskoye"
  },
  {
    "country": "UA",
    "id": 700997,
    "coord": {
      "lat": 44.433334,
      "lon": 34.083332
    },
    "name": "Miskhor"
  },
  {
    "country": "UA",
    "id": 706452,
    "coord": {
      "lat": 44.433334,
      "lon": 33.733334
    },
    "name": "Tylove"
  },
  {
    "country": "UA",
    "id": 703586,
    "coord": {
      "lat": 44.433334,
      "lon": 34.116669
    },
    "name": "Kurpaty"
  },
  {
    "country": "UA",
    "id": 696961,
    "coord": {
      "lat": 44.450001,
      "lon": 33.816666
    },
    "name": "Pidhirne"
  },
  {
    "country": "UA",
    "id": 695572,
    "coord": {
      "lat": 44.466667,
      "lon": 33.849998
    },
    "name": "Rodnykivs’ke"
  },
  {
    "country": "UA",
    "id": 705440,
    "coord": {
      "lat": 44.466667,
      "lon": 33.883331
    },
    "name": "Kolkhozne"
  },
  {
    "country": "UA",
    "id": 702907,
    "coord": {
      "lat": 44.466667,
      "lon": 34.150002
    },
    "name": "Livadiya"
  },
  {
    "country": "UA",
    "id": 708408,
    "coord": {
      "lat": 44.466667,
      "lon": 34.133331
    },
    "name": "Gornaya Zdravnitsa"
  },
  {
    "country": "UA",
    "id": 707552,
    "coord": {
      "lat": 44.5,
      "lon": 34.099998
    },
    "name": "Isar"
  },
  {
    "country": "UA",
    "id": 696310,
    "coord": {
      "lat": 44.516666,
      "lon": 33.599998
    },
    "name": "Prigorodnoye"
  },
  {
    "country": "UA",
    "id": 712930,
    "coord": {
      "lat": 44.5,
      "lon": 33.599998
    },
    "name": "Balaklava"
  },
  {
    "country": "UA",
    "id": 698159,
    "coord": {
      "lat": 44.5,
      "lon": 34.233334
    },
    "name": "Otradnoye"
  },
  {
    "country": "UA",
    "id": 713520,
    "coord": {
      "lat": 44.516666,
      "lon": 33.716667
    },
    "name": "Alsu"
  },
  {
    "country": "UA",
    "id": 688952,
    "coord": {
      "lat": 44.516666,
      "lon": 34.216667
    },
    "name": "Voskhod"
  },
  {
    "country": "UA",
    "id": 690647,
    "coord": {
      "lat": 44.516666,
      "lon": 34.166668
    },
    "name": "Ushchel’noye"
  },
  {
    "country": "UA",
    "id": 711527,
    "coord": {
      "lat": 44.533333,
      "lon": 34.233334
    },
    "name": "Nikita"
  },
  {
    "country": "UA",
    "id": 700182,
    "coord": {
      "lat": 44.549999,
      "lon": 33.533333
    },
    "name": "Mykolayivka"
  },
  {
    "country": "UA",
    "id": 693056,
    "coord": {
      "lat": 44.549999,
      "lon": 34.166668
    },
    "name": "Sovetskoye"
  },
  {
    "country": "UA",
    "id": 709761,
    "coord": {
      "lat": 44.533333,
      "lon": 34.200001
    },
    "name": "Dolossy"
  },
  {
    "country": "UA",
    "id": 699992,
    "coord": {
      "lat": 44.533333,
      "lon": 33.683334
    },
    "name": "Nizhniy Chorgun’"
  },
  {
    "country": "UA",
    "id": 706372,
    "coord": {
      "lat": 44.549999,
      "lon": 33.650002
    },
    "name": "Khmel’nyts’ke"
  },
  {
    "country": "UA",
    "id": 713191,
    "coord": {
      "lat": 44.566666,
      "lon": 34.299999
    },
    "name": "Artek"
  },
  {
    "country": "UA",
    "id": 704377,
    "coord": {
      "lat": 44.566666,
      "lon": 34.283333
    },
    "name": "Krasnokamenka"
  },
  {
    "country": "UA",
    "id": 694393,
    "coord": {
      "lat": 44.583332,
      "lon": 33.433334
    },
    "name": "Shablykina"
  },
  {
    "country": "UA",
    "id": 694728,
    "coord": {
      "lat": 44.566666,
      "lon": 34.066666
    },
    "name": "Schastlivoye"
  },
  {
    "country": "UA",
    "id": 712576,
    "coord": {
      "lat": 44.599998,
      "lon": 33.599998
    },
    "name": "Inkerman"
  },
  {
    "country": "UA",
    "id": 691634,
    "coord": {
      "lat": 44.583332,
      "lon": 33.75
    },
    "name": "Ternivka"
  },
  {
    "country": "UA",
    "id": 694422,
    "coord": {
      "lat": 44.599998,
      "lon": 33.533333
    },
    "name": "Misto Sevastopol’"
  },
  {
    "country": "UA",
    "id": 694423,
    "coord": {
      "lat": 44.599998,
      "lon": 33.533333
    },
    "name": "Sevastopol"
  },
  {
    "country": "UA",
    "id": 707526,
    "coord": {
      "lat": 44.583332,
      "lon": 33.833332
    },
    "name": "Istoki"
  },
  {
    "country": "UA",
    "id": 704116,
    "coord": {
      "lat": 44.616669,
      "lon": 33.733334
    },
    "name": "Urochyshche Kripke"
  },
  {
    "country": "UA",
    "id": 712223,
    "coord": {
      "lat": 44.650002,
      "lon": 34.183334
    },
    "name": "Beshuyskiye Kopi"
  },
  {
    "country": "UA",
    "id": 701419,
    "coord": {
      "lat": 44.616669,
      "lon": 33.583332
    },
    "name": "Mekenziyevy Gory"
  },
  {
    "country": "UA",
    "id": 712796,
    "coord": {
      "lat": 44.633331,
      "lon": 33.549999
    },
    "name": "Bartenivka"
  },
  {
    "country": "UA",
    "id": 690847,
    "coord": {
      "lat": 44.633331,
      "lon": 33.533333
    },
    "name": "Uchkuyeva"
  },
  {
    "country": "UA",
    "id": 701947,
    "coord": {
      "lat": 44.616669,
      "lon": 34.366669
    },
    "name": "Malyy Mayak"
  },
  {
    "country": "UA",
    "id": 695947,
    "coord": {
      "lat": 44.650002,
      "lon": 34.400002
    },
    "name": "Rabochiy Ugolok"
  },
  {
    "country": "UA",
    "id": 687670,
    "coord": {
      "lat": 44.599998,
      "lon": 34.316666
    },
    "name": "Zaprudnoye"
  },
  {
    "country": "UA",
    "id": 702463,
    "coord": {
      "lat": 44.666668,
      "lon": 33.566666
    },
    "name": "Lyubymivka"
  },
  {
    "country": "UA",
    "id": 713513,
    "coord": {
      "lat": 44.666668,
      "lon": 34.416668
    },
    "name": "Alushta"
  },
  {
    "country": "UA",
    "id": 703518,
    "coord": {
      "lat": 44.733334,
      "lon": 34.366669
    },
    "name": "Verkhnya Kutuzovka"
  },
  {
    "country": "UA",
    "id": 694574,
    "coord": {
      "lat": 44.716667,
      "lon": 34.466667
    },
    "name": "Semydvir”ya"
  },
  {
    "country": "UA",
    "id": 693070,
    "coord": {
      "lat": 44.733334,
      "lon": 34.5
    },
    "name": "Sotera"
  },
  {
    "country": "UA",
    "id": 702705,
    "coord": {
      "lat": 44.75,
      "lon": 34.400002
    },
    "name": "Luchyste"
  },
  {
    "country": "UA",
    "id": 708879,
    "coord": {
      "lat": 44.799999,
      "lon": 34.483334
    },
    "name": "Heneral’s’ke"
  },
  {
    "country": "UA",
    "id": 693698,
    "coord": {
      "lat": 44.816666,
      "lon": 33.966667
    },
    "name": "Skalyste"
  },
  {
    "country": "UA",
    "id": 701611,
    "coord": {
      "lat": 44.833332,
      "lon": 35.016666
    },
    "name": "Matiasa"
  },
  {
    "country": "UA",
    "id": 698866,
    "coord": {
      "lat": 44.816666,
      "lon": 34.900002
    },
    "name": "Novyi Svit"
  },
  {
    "country": "UA",
    "id": 697653,
    "coord": {
      "lat": 44.833332,
      "lon": 34.333332
    },
    "name": "Perevalnoe"
  },
  {
    "country": "UA",
    "id": 690557,
    "coord": {
      "lat": 44.833332,
      "lon": 34.950001
    },
    "name": "Uyutnaya"
  },
  {
    "country": "UA",
    "id": 692315,
    "coord": {
      "lat": 44.849998,
      "lon": 34.966667
    },
    "name": "Sudak"
  },
  {
    "country": "UA",
    "id": 693219,
    "coord": {
      "lat": 44.866669,
      "lon": 35.099998
    },
    "name": "Sonyachna Dolyna"
  },
  {
    "country": "UA",
    "id": 703423,
    "coord": {
      "lat": 44.883331,
      "lon": 35.099998
    },
    "name": "Lagernoye"
  },
  {
    "country": "UA",
    "id": 710334,
    "coord": {
      "lat": 44.883331,
      "lon": 34.983334
    },
    "name": "Dachne"
  },
  {
    "country": "UA",
    "id": 709151,
    "coord": {
      "lat": 44.900002,
      "lon": 34.166668
    },
    "name": "Fersmanove"
  },
  {
    "country": "UA",
    "id": 694115,
    "coord": {
      "lat": 44.916668,
      "lon": 35.200001
    },
    "name": "Shevekova"
  },
  {
    "country": "UA",
    "id": 702741,
    "coord": {
      "lat": 44.916668,
      "lon": 34.166668
    },
    "name": "Lozove"
  },
  {
    "country": "UA",
    "id": 697124,
    "coord": {
      "lat": 44.950001,
      "lon": 35.25
    },
    "name": "Koktebel"
  },
  {
    "country": "UA",
    "id": 687746,
    "coord": {
      "lat": 44.950001,
      "lon": 34.099998
    },
    "name": "Zamost’ye"
  },
  {
    "country": "UA",
    "id": 696309,
    "coord": {
      "lat": 44.950001,
      "lon": 34.150002
    },
    "name": "Prigorodnoye"
  },
  {
    "country": "UA",
    "id": 687150,
    "coord": {
      "lat": 44.966667,
      "lon": 34.133331
    },
    "name": "Zhigulina Roshcha"
  },
  {
    "country": "UA",
    "id": 703168,
    "coord": {
      "lat": 44.966667,
      "lon": 34.349998
    },
    "name": "Lesnaya"
  },
  {
    "country": "UA",
    "id": 687995,
    "coord": {
      "lat": 44.983334,
      "lon": 35.283333
    },
    "name": "Yuzhne"
  },
  {
    "country": "UA",
    "id": 688074,
    "coord": {
      "lat": 44.966667,
      "lon": 35.266666
    },
    "name": "Yunga"
  },
  {
    "country": "UA",
    "id": 708507,
    "coord": {
      "lat": 44.983334,
      "lon": 35.266666
    },
    "name": "Goncharova"
  },
  {
    "country": "UA",
    "id": 704259,
    "coord": {
      "lat": 45.016666,
      "lon": 35.083332
    },
    "name": "Krasnoye Selo"
  },
  {
    "country": "UA",
    "id": 690652,
    "coord": {
      "lat": 45.016666,
      "lon": 34.799999
    },
    "name": "Urus-Khodzha"
  },
  {
    "country": "UA",
    "id": 712228,
    "coord": {
      "lat": 45.016666,
      "lon": 34.233334
    },
    "name": "Besh Terek"
  },
  {
    "country": "UA",
    "id": 709161,
    "coord": {
      "lat": 45.033333,
      "lon": 35.383331
    },
    "name": "Feodosiya"
  },
  {
    "country": "UA",
    "id": 796898,
    "coord": {
      "lat": 45.045555,
      "lon": 36.228611
    },
    "name": "Novyy Koyash"
  },
  {
    "country": "UA",
    "id": 712654,
    "coord": {
      "lat": 45.099998,
      "lon": 34.616669
    },
    "name": "Bila Skelya"
  },
  {
    "country": "UA",
    "id": 694910,
    "coord": {
      "lat": 45.135555,
      "lon": 33.603058
    },
    "name": "Saky"
  },
  {
    "country": "UA",
    "id": 688817,
    "coord": {
      "lat": 45.150002,
      "lon": 35.950001
    },
    "name": "Vulkanivka"
  },
  {
    "country": "UA",
    "id": 690556,
    "coord": {
      "lat": 45.199444,
      "lon": 33.301388
    },
    "name": "Uyutne"
  },
  {
    "country": "UA",
    "id": 706524,
    "coord": {
      "lat": 45.358334,
      "lon": 36.475834
    },
    "name": "Kerch"
  },
  {
    "country": "UA",
    "id": 826049,
    "coord": {
      "lat": 45.3325,
      "lon": 36.468056
    },
    "name": "Tsementna Slobidka"
  },
  {
    "country": "UA",
    "id": 688146,
    "coord": {
      "lat": 45.349998,
      "lon": 36.599998
    },
    "name": "Yenikale"
  },
  {
    "country": "UA",
    "id": 687032,
    "coord": {
      "lat": 45.370834,
      "lon": 36.628334
    },
    "name": "Zhukivka"
  },
  {
    "country": "UA",
    "id": 697114,
    "coord": {
      "lat": 45.383331,
      "lon": 35.900002
    },
    "name": "Plavni"
  },
  {
    "country": "UA",
    "id": 697958,
    "coord": {
      "lat": 45.387222,
      "lon": 36.523609
    },
    "name": "Adzhymushkay"
  },
  {
    "country": "UA",
    "id": 694627,
    "coord": {
      "lat": 45.383331,
      "lon": 35.766666
    },
    "name": "Semenivka"
  },
  {
    "country": "UA",
    "id": 826042,
    "coord": {
      "lat": 45.385834,
      "lon": 36.482777
    },
    "name": "Yehorove"
  },
  {
    "country": "UA",
    "id": 700550,
    "coord": {
      "lat": 45.450001,
      "lon": 35.849998
    },
    "name": "Mysove"
  },
  {
    "country": "UA",
    "id": 710687,
    "coord": {
      "lat": 45.503887,
      "lon": 32.699722
    },
    "name": "Chornomorske"
  },
  {
    "country": "UA",
    "id": 695322,
    "coord": {
      "lat": 45.533333,
      "lon": 35.166668
    },
    "name": "Urochyshche Rozhkova"
  },
  {
    "country": "UA",
    "id": 696471,
    "coord": {
      "lat": 45.849998,
      "lon": 33.483334
    },
    "name": "Portove"
  },
  {
    "country": "UA",
    "id": 712105,
    "coord": {
      "lat": 46.016666,
      "lon": 34.349998
    },
    "name": "Biyuk-Nayman"
  },
  {
    "country": "UA",
    "id": 708877,
    "coord": {
      "lat": 46.083332,
      "lon": 34.833332
    },
    "name": "Heniches’ka Hirka"
  },
  {
    "country": "UA",
    "id": 694308,
    "coord": {
      "lat": 46.150002,
      "lon": 33.700001
    },
    "name": "Shchemilovka"
  },
  {
    "country": "UA",
    "id": 708953,
    "coord": {
      "lat": 44.433334,
      "lon": 34.099998
    },
    "name": "Gaspra"
  },
  {
    "country": "UA",
    "id": 712752,
    "coord": {
      "lat": 44.416668,
      "lon": 33.683334
    },
    "name": "Sanatoriy Batylyman"
  },
  {
    "country": "UA",
    "id": 698391,
    "coord": {
      "lat": 44.450001,
      "lon": 33.766666
    },
    "name": "Orlyne"
  },
  {
    "country": "UA",
    "id": 695646,
    "coord": {
      "lat": 44.466667,
      "lon": 33.666668
    },
    "name": "Rezervne"
  },
  {
    "country": "UA",
    "id": 710298,
    "coord": {
      "lat": 44.516666,
      "lon": 34.25
    },
    "name": "Danilovka"
  },
  {
    "country": "UA",
    "id": 690398,
    "coord": {
      "lat": 44.516666,
      "lon": 34.166668
    },
    "name": "Vasil’yevka"
  },
  {
    "country": "UA",
    "id": 709075,
    "coord": {
      "lat": 44.577995,
      "lon": 34.344635
    },
    "name": "Partenit"
  },
  {
    "country": "UA",
    "id": 710320,
    "coord": {
      "lat": 44.666668,
      "lon": 33.650002
    },
    "name": "Kamyshly"
  },
  {
    "country": "UA",
    "id": 696945,
    "coord": {
      "lat": 44.766666,
      "lon": 33.866669
    },
    "name": "Pidhorodne"
  },
  {
    "country": "UA",
    "id": 697530,
    "coord": {
      "lat": 44.849998,
      "lon": 33.599998
    },
    "name": "Pishchane"
  },
  {
    "country": "UA",
    "id": 687501,
    "coord": {
      "lat": 44.916668,
      "lon": 34.083332
    },
    "name": "Zavods’ke"
  },
  {
    "country": "UA",
    "id": 697624,
    "coord": {
      "lat": 44.933334,
      "lon": 34.066666
    },
    "name": "Perove"
  },
  {
    "country": "UA",
    "id": 713204,
    "coord": {
      "lat": 44.983334,
      "lon": 35.166668
    },
    "name": "Armutluk"
  },
  {
    "country": "UA",
    "id": 708003,
    "coord": {
      "lat": 45.016666,
      "lon": 34.983334
    },
    "name": "Hrushivka"
  },
  {
    "country": "UA",
    "id": 686898,
    "coord": {
      "lat": 45.033333,
      "lon": 33.983334
    },
    "name": "Zol’noye"
  },
  {
    "country": "UA",
    "id": 692714,
    "coord": {
      "lat": 45.033333,
      "lon": 35.099998
    },
    "name": "Staryy Krym"
  },
  {
    "country": "UA",
    "id": 712587,
    "coord": {
      "lat": 45.049999,
      "lon": 34.599998
    },
    "name": "Bilohirsk"
  },
  {
    "country": "UA",
    "id": 712050,
    "coord": {
      "lat": 45.049999,
      "lon": 35.333332
    },
    "name": "Blyzhnye"
  },
  {
    "country": "UA",
    "id": 700432,
    "coord": {
      "lat": 45.049999,
      "lon": 35.283333
    },
    "name": "Nasypne"
  },
  {
    "country": "UA",
    "id": 713076,
    "coord": {
      "lat": 45.049999,
      "lon": 35.383331
    },
    "name": "Ayvazovskaya"
  },
  {
    "country": "UA",
    "id": 708506,
    "coord": {
      "lat": 45.066666,
      "lon": 35.166668
    },
    "name": "Goncharovka"
  },
  {
    "country": "UA",
    "id": 712048,
    "coord": {
      "lat": 45.083332,
      "lon": 35.400002
    },
    "name": "Blizhniye Kamyshi"
  },
  {
    "country": "UA",
    "id": 712427,
    "coord": {
      "lat": 45.099998,
      "lon": 35.433334
    },
    "name": "Berehove"
  },
  {
    "country": "UA",
    "id": 710315,
    "coord": {
      "lat": 45.116669,
      "lon": 35.483334
    },
    "name": "Dal’niye Kamyshi"
  },
  {
    "country": "UA",
    "id": 689374,
    "coord": {
      "lat": 45.166668,
      "lon": 35.366669
    },
    "name": "Vladyslavivka"
  },
  {
    "country": "UA",
    "id": 712755,
    "coord": {
      "lat": 45.200001,
      "lon": 35.616669
    },
    "name": "Batal’ne"
  },
  {
    "country": "UA",
    "id": 698351,
    "coord": {
      "lat": 45.183334,
      "lon": 35.150002
    },
    "name": "Ortay"
  },
  {
    "country": "UA",
    "id": 702662,
    "coord": {
      "lat": 45.233334,
      "lon": 35.716667
    },
    "name": "Luhove"
  },
  {
    "country": "UA",
    "id": 694554,
    "coord": {
      "lat": 45.233334,
      "lon": 35.566666
    },
    "name": "Semysotka"
  },
  {
    "country": "UA",
    "id": 710655,
    "coord": {
      "lat": 45.277779,
      "lon": 36.181667
    },
    "name": "Chernyakovo"
  },
  {
    "country": "UA",
    "id": 700180,
    "coord": {
      "lat": 45.266666,
      "lon": 34.933334
    },
    "name": "Mykolayivka"
  },
  {
    "country": "UA",
    "id": 690466,
    "coord": {
      "lat": 45.333332,
      "lon": 34.900002
    },
    "name": "Varvarivka"
  },
  {
    "country": "UA",
    "id": 796931,
    "coord": {
      "lat": 45.340557,
      "lon": 36.417778
    },
    "name": "Dzhardzhava"
  },
  {
    "country": "UA",
    "id": 699550,
    "coord": {
      "lat": 45.450001,
      "lon": 34.799999
    },
    "name": "Novoivanivka"
  },
  {
    "country": "UA",
    "id": 712236,
    "coord": {
      "lat": 45.450001,
      "lon": 34.766666
    },
    "name": "Besharan’"
  },
  {
    "country": "UA",
    "id": 686850,
    "coord": {
      "lat": 45.549999,
      "lon": 34.716667
    },
    "name": "Zorkine"
  },
  {
    "country": "UA",
    "id": 701491,
    "coord": {
      "lat": 45.599998,
      "lon": 34.566666
    },
    "name": "Mays’ke"
  },
  {
    "country": "UA",
    "id": 709334,
    "coord": {
      "lat": 45.716667,
      "lon": 34.400002
    },
    "name": "Dzhankoy"
  },
  {
    "country": "UA",
    "id": 709367,
    "coord": {
      "lat": 45.700001,
      "lon": 34.450001
    },
    "name": "Dymovka"
  },
  {
    "country": "UA",
    "id": 706515,
    "coord": {
      "lat": 45.733334,
      "lon": 34.416668
    },
    "name": "Kerleut"
  },
  {
    "country": "UA",
    "id": 696313,
    "coord": {
      "lat": 45.799999,
      "lon": 34.450001
    },
    "name": "Prydorozhnye"
  },
  {
    "country": "UA",
    "id": 688122,
    "coord": {
      "lat": 45.849998,
      "lon": 34.483334
    },
    "name": "Yermakove"
  },
  {
    "country": "UA",
    "id": 701453,
    "coord": {
      "lat": 45.883331,
      "lon": 34.549999
    },
    "name": "Medvedivka"
  },
  {
    "country": "UA",
    "id": 704362,
    "coord": {
      "lat": 45.955002,
      "lon": 33.792221
    },
    "name": "Krasnoperekopsk"
  },
  {
    "country": "UA",
    "id": 706442,
    "coord": {
      "lat": 46.5,
      "lon": 34
    },
    "name": "Khersons’ka Oblast’"
  },
  {
    "country": "UA",
    "id": 710413,
    "coord": {
      "lat": 46.016666,
      "lon": 34.5
    },
    "name": "Ataman’"
  },
  {
    "country": "UA",
    "id": 690393,
    "coord": {
      "lat": 46.049999,
      "lon": 34.583332
    },
    "name": "Vasil’yevka"
  },
  {
    "country": "UA",
    "id": 688986,
    "coord": {
      "lat": 46.150002,
      "lon": 34.599998
    },
    "name": "Chernihivka"
  },
  {
    "country": "UA",
    "id": 688357,
    "coord": {
      "lat": 46.183334,
      "lon": 34.633331
    },
    "name": "Yasna Polyana"
  },
  {
    "country": "UA",
    "id": 698738,
    "coord": {
      "lat": 47,
      "lon": 30
    },
    "name": "Odes’ka Oblast’"
  },
  {
    "country": "UA",
    "id": 699706,
    "coord": {
      "lat": 46.226944,
      "lon": 34.642776
    },
    "name": "Novooleksiyivka"
  },
  {
    "country": "UA",
    "id": 697957,
    "coord": {
      "lat": 46.33139,
      "lon": 34.750278
    },
    "name": "Partyzany"
  },
  {
    "country": "UA",
    "id": 699100,
    "coord": {
      "lat": 46.351112,
      "lon": 34.332779
    },
    "name": "Novotroyitske"
  },
  {
    "country": "UA",
    "id": 695347,
    "coord": {
      "lat": 46.400002,
      "lon": 34.883331
    },
    "name": "Rozy Lyuksemburh"
  },
  {
    "country": "UA",
    "id": 692995,
    "coord": {
      "lat": 46.400002,
      "lon": 30.766666
    },
    "name": "Sredniy Fontan"
  },
  {
    "country": "UA",
    "id": 701965,
    "coord": {
      "lat": 46.433334,
      "lon": 30.766666
    },
    "name": "Malyy Fontan"
  },
  {
    "country": "UA",
    "id": 696740,
    "coord": {
      "lat": 46.483334,
      "lon": 31.700001
    },
    "name": "Pokrovka"
  },
  {
    "country": "UA",
    "id": 698740,
    "coord": {
      "lat": 46.477474,
      "lon": 30.732622
    },
    "name": "Odessa"
  },
  {
    "country": "UA",
    "id": 704051,
    "coord": {
      "lat": 46.5,
      "lon": 30.683332
    },
    "name": "Krivaya Balka"
  },
  {
    "country": "UA",
    "id": 708632,
    "coord": {
      "lat": 46.520557,
      "lon": 32.525833
    },
    "name": "Hola Prystan"
  },
  {
    "country": "UA",
    "id": 700567,
    "coord": {
      "lat": 47.25,
      "lon": 32
    },
    "name": "Mykolayivs’ka Oblast’"
  },
  {
    "country": "UA",
    "id": 696722,
    "coord": {
      "lat": 46.533333,
      "lon": 31.633333
    },
    "name": "Pokrovs’ke"
  },
  {
    "country": "UA",
    "id": 711820,
    "coord": {
      "lat": 46.566666,
      "lon": 30.6
    },
    "name": "Bol’shaya Balka"
  },
  {
    "country": "UA",
    "id": 706333,
    "coord": {
      "lat": 46.599998,
      "lon": 30.583332
    },
    "name": "Kholodnaya Balka"
  },
  {
    "country": "UA",
    "id": 713135,
    "coord": {
      "lat": 46.633331,
      "lon": 30.549999
    },
    "name": "Atestovo"
  },
  {
    "country": "UA",
    "id": 707647,
    "coord": {
      "lat": 46.636112,
      "lon": 36.774723
    },
    "name": "Imeni Lenina"
  },
  {
    "country": "UA",
    "id": 687699,
    "coord": {
      "lat": 47.5,
      "lon": 35.5
    },
    "name": "Zaporiz’ka Oblast’"
  },
  {
    "country": "UA",
    "id": 713743,
    "coord": {
      "lat": 46.68972,
      "lon": 35.15361
    },
    "name": "Yakymivka"
  },
  {
    "country": "UA",
    "id": 693080,
    "coord": {
      "lat": 46.683334,
      "lon": 35.166668
    },
    "name": "Sosnovka"
  },
  {
    "country": "UA",
    "id": 710013,
    "coord": {
      "lat": 46.700001,
      "lon": 35.183334
    },
    "name": "Dmitriyevka"
  },
  {
    "country": "UA",
    "id": 712451,
    "coord": {
      "lat": 46.750278,
      "lon": 36.794445
    },
    "name": "Berdyansk"
  },
  {
    "country": "UA",
    "id": 701579,
    "coord": {
      "lat": 46.723331,
      "lon": 36.816387
    },
    "name": "Matrosskaya Sloboda"
  },
  {
    "country": "UA",
    "id": 702962,
    "coord": {
      "lat": 46.766666,
      "lon": 36.766666
    },
    "name": "Liski"
  },
  {
    "country": "UA",
    "id": 710299,
    "coord": {
      "lat": 46.746666,
      "lon": 35.274723
    },
    "name": "Danylo-Ivanivka"
  },
  {
    "country": "UA",
    "id": 701404,
    "coord": {
      "lat": 46.84222,
      "lon": 35.373055
    },
    "name": "Melitopol"
  },
  {
    "country": "UA",
    "id": 703972,
    "coord": {
      "lat": 46.849998,
      "lon": 35.400002
    },
    "name": "Krucha"
  },
  {
    "country": "UA",
    "id": 694623,
    "coord": {
      "lat": 46.889999,
      "lon": 35.413334
    },
    "name": "Semenivka"
  },
  {
    "country": "UA",
    "id": 710531,
    "coord": {
      "lat": 47.016666,
      "lon": 30.299999
    },
    "name": "Chervonoznamenka"
  },
  {
    "country": "UA",
    "id": 699657,
    "coord": {
      "lat": 47.081944,
      "lon": 35.327221
    },
    "name": "Novobohdanivka"
  },
  {
    "country": "UA",
    "id": 688681,
    "coord": {
      "lat": 47.231388,
      "lon": 35.403889
    },
    "name": "Vysoke"
  },
  {
    "country": "UA",
    "id": 701932,
    "coord": {
      "lat": 47.25,
      "lon": 35.716667
    },
    "name": "Malyy Tokmak"
  },
  {
    "country": "UA",
    "id": 691469,
    "coord": {
      "lat": 47.251389,
      "lon": 35.705833
    },
    "name": "Tokmak"
  },
  {
    "country": "UA",
    "id": 706225,
    "coord": {
      "lat": 47.299999,
      "lon": 35.366669
    },
    "name": "Khozyain"
  },
  {
    "country": "UA",
    "id": 687345,
    "coord": {
      "lat": 47.390835,
      "lon": 35.362499
    },
    "name": "Zeleny Hay"
  },
  {
    "country": "UA",
    "id": 686729,
    "coord": {
      "lat": 47.436943,
      "lon": 35.274166
    },
    "name": "Vasylivka"
  },
  {
    "country": "UA",
    "id": 706967,
    "coord": {
      "lat": 47.536388,
      "lon": 35.360279
    },
    "name": "Yanchekrak"
  },
  {
    "country": "UA",
    "id": 699573,
    "coord": {
      "lat": 47.549999,
      "lon": 30.316668
    },
    "name": "Novo-Grigor’yevka"
  },
  {
    "country": "UA",
    "id": 707898,
    "coord": {
      "lat": 47.665279,
      "lon": 36.257778
    },
    "name": "Hulyaypole"
  },
  {
    "country": "UA",
    "id": 708120,
    "coord": {
      "lat": 47.69278,
      "lon": 35.341389
    },
    "name": "Hryhorivka"
  },
  {
    "country": "UA",
    "id": 703555,
    "coord": {
      "lat": 47.714443,
      "lon": 35.209167
    },
    "name": "Kushuhum"
  },
  {
    "country": "UA",
    "id": 712934,
    "coord": {
      "lat": 47.734444,
      "lon": 35.206112
    },
    "name": "Balabine"
  },
  {
    "country": "UA",
    "id": 710189,
    "coord": {
      "lat": 47.766666,
      "lon": 30.25
    },
    "name": "Demidovka"
  },
  {
    "country": "UA",
    "id": 700151,
    "coord": {
      "lat": 47.783333,
      "lon": 35.200001
    },
    "name": "Nikolayevka"
  },
  {
    "country": "UA",
    "id": 700871,
    "coord": {
      "lat": 47.816666,
      "lon": 35.25
    },
    "name": "Mokroye"
  },
  {
    "country": "UA",
    "id": 687676,
    "coord": {
      "lat": 47.849998,
      "lon": 35.283333
    },
    "name": "Zaporozh’ye Levoye"
  },
  {
    "country": "UA",
    "id": 701587,
    "coord": {
      "lat": 47.883331,
      "lon": 35.266666
    },
    "name": "Matveyevka"
  },
  {
    "country": "UA",
    "id": 694240,
    "coord": {
      "lat": 47.900002,
      "lon": 35.283333
    },
    "name": "Shëlokovyy"
  },
  {
    "country": "UA",
    "id": 709929,
    "coord": {
      "lat": 48.5,
      "lon": 35
    },
    "name": "Dnipropetrovska Oblast'"
  },
  {
    "country": "UA",
    "id": 713760,
    "coord": {
      "lat": 47.916668,
      "lon": 30.299999
    },
    "name": "Ageyevka"
  },
  {
    "country": "UA",
    "id": 702657,
    "coord": {
      "lat": 49,
      "lon": 39
    },
    "name": "Luhans’ka Oblast’"
  },
  {
    "country": "UA",
    "id": 712142,
    "coord": {
      "lat": 47.950001,
      "lon": 39.733334
    },
    "name": "Birjukowo"
  },
  {
    "country": "UA",
    "id": 701216,
    "coord": {
      "lat": 47.950001,
      "lon": 35.25
    },
    "name": "Mikhaylovka"
  },
  {
    "country": "UA",
    "id": 708662,
    "coord": {
      "lat": 48.033333,
      "lon": 35.266666
    },
    "name": "Gnorovskoye"
  },
  {
    "country": "UA",
    "id": 688828,
    "coord": {
      "lat": 48.016666,
      "lon": 38.150002
    },
    "name": "Vuglyar"
  },
  {
    "country": "UA",
    "id": 696010,
    "coord": {
      "lat": 48.033333,
      "lon": 37.75
    },
    "name": "Putilovka"
  },
  {
    "country": "UA",
    "id": 713698,
    "coord": {
      "lat": 48.049999,
      "lon": 37.75
    },
    "name": "Aleksandro-Grigor’yevka"
  },
  {
    "country": "UA",
    "id": 691630,
    "coord": {
      "lat": 48.116669,
      "lon": 35.333332
    },
    "name": "Ternovka"
  },
  {
    "country": "UA",
    "id": 697859,
    "coord": {
      "lat": 48.233334,
      "lon": 35.349998
    },
    "name": "Pavlovka"
  },
  {
    "country": "UA",
    "id": 710720,
    "coord": {
      "lat": 48.25,
      "lon": 26
    },
    "name": "Chernivets’ka Oblast’"
  },
  {
    "country": "UA",
    "id": 708633,
    "coord": {
      "lat": 48.233334,
      "lon": 26.216667
    },
    "name": "Gogulina"
  },
  {
    "country": "UA",
    "id": 705811,
    "coord": {
      "lat": 48.5,
      "lon": 32
    },
    "name": "Kirovohrads’ka Oblast’"
  },
  {
    "country": "UA",
    "id": 690713,
    "coord": {
      "lat": 48.326111,
      "lon": 30.231667
    },
    "name": "Ul’yanovka"
  },
  {
    "country": "UA",
    "id": 711756,
    "coord": {
      "lat": 48.400002,
      "lon": 30.216667
    },
    "name": "Bol’shiye Troyany"
  },
  {
    "country": "UA",
    "id": 696317,
    "coord": {
      "lat": 48.400002,
      "lon": 35.116669
    },
    "name": "Pridneprovsk"
  },
  {
    "country": "UA",
    "id": 702765,
    "coord": {
      "lat": 48.433334,
      "lon": 35.349998
    },
    "name": "Lozovatka Vtoraya"
  },
  {
    "country": "UA",
    "id": 700022,
    "coord": {
      "lat": 48.5,
      "lon": 35.066666
    },
    "name": "Nizhnedneprovsk"
  },
  {
    "country": "UA",
    "id": 706244,
    "coord": {
      "lat": 48.483334,
      "lon": 26.5
    },
    "name": "Khotyn"
  },
  {
    "country": "UA",
    "id": 694117,
    "coord": {
      "lat": 48.516666,
      "lon": 35.400002
    },
    "name": "Shevchenko Vtoroy"
  },
  {
    "country": "UA",
    "id": 705392,
    "coord": {
      "lat": 48.530556,
      "lon": 25.040277
    },
    "name": "Kolomyya"
  },
  {
    "country": "UA",
    "id": 706370,
    "coord": {
      "lat": 49.5,
      "lon": 27
    },
    "name": "Khmel’nyts’ka Oblast’"
  },
  {
    "country": "UA",
    "id": 713142,
    "coord": {
      "lat": 48.533333,
      "lon": 26.483334
    },
    "name": "Ataki"
  },
  {
    "country": "UA",
    "id": 693250,
    "coord": {
      "lat": 48.533333,
      "lon": 35.316666
    },
    "name": "Sokolovo"
  },
  {
    "country": "UA",
    "id": 708266,
    "coord": {
      "lat": 48.583332,
      "lon": 34.866669
    },
    "name": "Goryanovskoye"
  },
  {
    "country": "UA",
    "id": 709077,
    "coord": {
      "lat": 48.566666,
      "lon": 34.916668
    },
    "name": "Frunzenskiy"
  },
  {
    "country": "UA",
    "id": 687869,
    "coord": {
      "lat": 48.333332,
      "lon": 23
    },
    "name": "Zakarpats’ka Oblast’"
  },
  {
    "country": "UA",
    "id": 701091,
    "coord": {
      "lat": 48.583332,
      "lon": 22.283333
    },
    "name": "Mynay"
  },
  {
    "country": "UA",
    "id": 701405,
    "coord": {
      "lat": 48.599998,
      "lon": 35.366669
    },
    "name": "Meliorativnoye"
  },
  {
    "country": "UA",
    "id": 708545,
    "coord": {
      "lat": 48.566666,
      "lon": 22.966667
    },
    "name": "Golubinoye"
  },
  {
    "country": "UA",
    "id": 699445,
    "coord": {
      "lat": 48.616669,
      "lon": 35.200001
    },
    "name": "Novomoskovsk"
  },
  {
    "country": "UA",
    "id": 698362,
    "coord": {
      "lat": 48.633331,
      "lon": 35.333332
    },
    "name": "Orlovshchina"
  },
  {
    "country": "UA",
    "id": 704232,
    "coord": {
      "lat": 48.616669,
      "lon": 23.700001
    },
    "name": "Krasnyy"
  },
  {
    "country": "UA",
    "id": 690548,
    "coord": {
      "lat": 48.616669,
      "lon": 22.299999
    },
    "name": "Uzhhorod"
  },
  {
    "country": "UA",
    "id": 697536,
    "coord": {
      "lat": 48.599998,
      "lon": 35.299999
    },
    "name": "Peschanka"
  },
  {
    "country": "UA",
    "id": 691649,
    "coord": {
      "lat": 49.5,
      "lon": 25.5
    },
    "name": "Ternopil’s’ka Oblast’"
  },
  {
    "country": "UA",
    "id": 687826,
    "coord": {
      "lat": 48.644722,
      "lon": 25.733889
    },
    "name": "Zalishchyky"
  },
  {
    "country": "UA",
    "id": 695641,
    "coord": {
      "lat": 48.666668,
      "lon": 35.283333
    },
    "name": "Reshetilovskiy Kut"
  },
  {
    "country": "UA",
    "id": 698542,
    "coord": {
      "lat": 48.650002,
      "lon": 26.516666
    },
    "name": "Ol’khovtsy"
  },
  {
    "country": "UA",
    "id": 710802,
    "coord": {
      "lat": 49,
      "lon": 31
    },
    "name": "Cherkas’ka Oblast’"
  },
  {
    "country": "UA",
    "id": 830068,
    "coord": {
      "lat": 48.666389,
      "lon": 30.184999
    },
    "name": "Hromy"
  },
  {
    "country": "UA",
    "id": 706950,
    "coord": {
      "lat": 48.666668,
      "lon": 26.566668
    },
    "name": "Kamieniec Podolski"
  },
  {
    "country": "UA",
    "id": 686949,
    "coord": {
      "lat": 48.683334,
      "lon": 26.583332
    },
    "name": "Zin’kovtsy"
  },
  {
    "country": "UA",
    "id": 696071,
    "coord": {
      "lat": 48.716667,
      "lon": 26.549999
    },
    "name": "Pudlovtsy"
  },
  {
    "country": "UA",
    "id": 705282,
    "coord": {
      "lat": 48.733334,
      "lon": 26.666668
    },
    "name": "Kolubayevtsy"
  },
  {
    "country": "UA",
    "id": 706482,
    "coord": {
      "lat": 49.5,
      "lon": 36.5
    },
    "name": "Kharkivs’ka Oblast’"
  },
  {
    "country": "UA",
    "id": 806450,
    "coord": {
      "lat": 50.085377,
      "lon": 36.454189
    },
    "name": "Chernyaki"
  },
  {
    "country": "UA",
    "id": 6722149,
    "coord": {
      "lat": 50.033634,
      "lon": 36.261181
    },
    "name": "Sokol’nyky"
  },
  {
    "country": "UA",
    "id": 689304,
    "coord": {
      "lat": 50.300278,
      "lon": 36.946667
    },
    "name": "Vovchansk"
  },
  {
    "country": "UA",
    "id": 690553,
    "coord": {
      "lat": 44.549999,
      "lon": 33.766666
    },
    "name": "Uzenbash"
  },
  {
    "country": "UA",
    "id": 6722153,
    "coord": {
      "lat": 50.005161,
      "lon": 36.202209
    },
    "name": "Ivanivka"
  },
  {
    "country": "UA",
    "id": 696743,
    "coord": {
      "lat": 49.915279,
      "lon": 36.177219
    },
    "name": "Pokotylivka"
  },
  {
    "country": "UA",
    "id": 703014,
    "coord": {
      "lat": 49.950001,
      "lon": 36.166672
    },
    "name": "Lipovaya Rosheha"
  },
  {
    "country": "UA",
    "id": 812803,
    "coord": {
      "lat": 49.963058,
      "lon": 36.098888
    },
    "name": "Nadtochiv"
  },
  {
    "country": "UA",
    "id": 697488,
    "coord": {
      "lat": 49.956669,
      "lon": 36.101391
    },
    "name": "Pesochin"
  },
  {
    "country": "UA",
    "id": 812806,
    "coord": {
      "lat": 49.958889,
      "lon": 36.042782
    },
    "name": "Sinolitsovka"
  },
  {
    "country": "UA",
    "id": 702417,
    "coord": {
      "lat": 49.950001,
      "lon": 35.966671
    },
    "name": "Lyubotyn"
  },
  {
    "country": "UA",
    "id": 6723020,
    "coord": {
      "lat": 50.012501,
      "lon": 36.272141
    },
    "name": "Dal'nya Zhuravlivka"
  },
  {
    "country": "UA",
    "id": 706483,
    "coord": {
      "lat": 50,
      "lon": 36.25
    },
    "name": "Kharkiv"
  },
  {
    "country": "UA",
    "id": 812917,
    "coord": {
      "lat": 49.953609,
      "lon": 36.321671
    },
    "name": "Losevo"
  },
  {
    "country": "UA",
    "id": 812926,
    "coord": {
      "lat": 49.946941,
      "lon": 36.33667
    },
    "name": "Chunikhin"
  },
  {
    "country": "UA",
    "id": 806512,
    "coord": {
      "lat": 49.965851,
      "lon": 36.33852
    },
    "name": "Imeni Frunze"
  },
  {
    "country": "UA",
    "id": 694246,
    "coord": {
      "lat": 44.633331,
      "lon": 34.099998
    },
    "name": "Shelkovichnoye"
  },
  {
    "country": "UA",
    "id": 6982974,
    "coord": {
      "lat": 44.686298,
      "lon": 34.10199
    },
    "name": "Marta"
  },
  {
    "country": "UA",
    "id": 6725648,
    "coord": {
      "lat": 50.36552,
      "lon": 36.212448
    },
    "name": "Shevchenka"
  },
  {
    "country": "UA",
    "id": 706587,
    "coord": {
      "lat": 50.339199,
      "lon": 36.187229
    },
    "name": "Kozacha Lopan’"
  },
  {
    "country": "UA",
    "id": 6725459,
    "coord": {
      "lat": 50.302448,
      "lon": 36.171322
    },
    "name": "Il’icha"
  },
  {
    "country": "UA",
    "id": 693598,
    "coord": {
      "lat": 50.224171,
      "lon": 36.160831
    },
    "name": "Slatino"
  },
  {
    "country": "UA",
    "id": 688696,
    "coord": {
      "lat": 49.89056,
      "lon": 36.119999
    },
    "name": "Vysokyy"
  },
  {
    "country": "UA",
    "id": 697135,
    "coord": {
      "lat": 49.88139,
      "lon": 36.07
    },
    "name": "Pivdenne"
  },
  {
    "country": "UA",
    "id": 705240,
    "coord": {
      "lat": 49.866669,
      "lon": 36.066669
    },
    "name": "Komarovka"
  },
  {
    "country": "UA",
    "id": 713178,
    "coord": {
      "lat": 49.840561,
      "lon": 36.041672
    },
    "name": "Artemovka"
  },
  {
    "country": "UA",
    "id": 701347,
    "coord": {
      "lat": 49.819721,
      "lon": 36.051941
    },
    "name": "Merefa"
  },
  {
    "country": "UA",
    "id": 812877,
    "coord": {
      "lat": 49.778889,
      "lon": 36.025558
    },
    "name": "Krasnyy Oktyabr’"
  },
  {
    "country": "UA",
    "id": 706748,
    "coord": {
      "lat": 49.76667,
      "lon": 35.933331
    },
    "name": "Karlovka"
  },
  {
    "country": "UA",
    "id": 812881,
    "coord": {
      "lat": 49.760281,
      "lon": 36.02528
    },
    "name": "Kislovskiy"
  },
  {
    "country": "UA",
    "id": 808864,
    "coord": {
      "lat": 49.243061,
      "lon": 36.509441
    },
    "name": "Vasil’yevo-Grigor’yevskiy"
  },
  {
    "country": "UA",
    "id": 699406,
    "coord": {
      "lat": 49.33028,
      "lon": 36.275002
    },
    "name": "Novo-Nikolayevka"
  },
  {
    "country": "UA",
    "id": 695570,
    "coord": {
      "lat": 49.293331,
      "lon": 36.284721
    },
    "name": "Rodomyslovka"
  },
  {
    "country": "UA",
    "id": 809657,
    "coord": {
      "lat": 49.264439,
      "lon": 36.316391
    },
    "name": "Kooperatorka"
  },
  {
    "country": "UA",
    "id": 687835,
    "coord": {
      "lat": 49.207218,
      "lon": 36.310001
    },
    "name": "Zakutnevka"
  },
  {
    "country": "UA",
    "id": 688170,
    "coord": {
      "lat": 49.186111,
      "lon": 36.345829
    },
    "name": "Yelizavetovka"
  },
  {
    "country": "UA",
    "id": 704363,
    "coord": {
      "lat": 49.137218,
      "lon": 36.327221
    },
    "name": "Krasnopavlivka"
  },
  {
    "country": "UA",
    "id": 808926,
    "coord": {
      "lat": 49.107498,
      "lon": 36.346939
    },
    "name": "Privol’ye"
  },
  {
    "country": "UA",
    "id": 808841,
    "coord": {
      "lat": 49.084438,
      "lon": 36.340832
    },
    "name": "Novo Ivanovka"
  },
  {
    "country": "UA",
    "id": 808832,
    "coord": {
      "lat": 49.061668,
      "lon": 36.323059
    },
    "name": "Otdokhnina"
  },
  {
    "country": "UA",
    "id": 710600,
    "coord": {
      "lat": 49.033329,
      "lon": 36.299999
    },
    "name": "Chervona-Shakhtarka"
  },
  {
    "country": "UA",
    "id": 808829,
    "coord": {
      "lat": 49.00639,
      "lon": 36.285278
    },
    "name": "Kostyanka"
  },
  {
    "country": "UA",
    "id": 696628,
    "coord": {
      "lat": 48.98333,
      "lon": 36.26667
    },
    "name": "Poltavskoye"
  },
  {
    "country": "UA",
    "id": 698003,
    "coord": {
      "lat": 48.933331,
      "lon": 36.283329
    },
    "name": "Panyutyne"
  },
  {
    "country": "UA",
    "id": 700272,
    "coord": {
      "lat": 48.849998,
      "lon": 36.25
    },
    "name": "Nestileyevka"
  },
  {
    "country": "UA",
    "id": 699718,
    "coord": {
      "lat": 48.799999,
      "lon": 36.200001
    },
    "name": "Novo-Aleksandrovka"
  },
  {
    "country": "UA",
    "id": 701196,
    "coord": {
      "lat": 48.799999,
      "lon": 36.150002
    },
    "name": "Mikhaylovka"
  },
  {
    "country": "UA",
    "id": 699562,
    "coord": {
      "lat": 48.73333,
      "lon": 36.116669
    },
    "name": "Novo-Grigor’yevka"
  },
  {
    "country": "UA",
    "id": 688022,
    "coord": {
      "lat": 48.73333,
      "lon": 36.033329
    },
    "name": "Yur”yivka"
  },
  {
    "country": "UA",
    "id": 690454,
    "coord": {
      "lat": 48.716671,
      "lon": 36
    },
    "name": "Varvarovka"
  },
  {
    "country": "UA",
    "id": 689985,
    "coord": {
      "lat": 48.683331,
      "lon": 35.933331
    },
    "name": "Verbovatovka"
  },
  {
    "country": "UA",
    "id": 699967,
    "coord": {
      "lat": 48.666672,
      "lon": 35.916672
    },
    "name": "Nizhnyanka"
  },
  {
    "country": "UA",
    "id": 700754,
    "coord": {
      "lat": 48.650002,
      "lon": 35.916672
    },
    "name": "Morozovskiy"
  },
  {
    "country": "UA",
    "id": 689997,
    "coord": {
      "lat": 48.583328,
      "lon": 35.900002
    },
    "name": "Verbki"
  },
  {
    "country": "UA",
    "id": 690367,
    "coord": {
      "lat": 48.033329,
      "lon": 35.5
    },
    "name": "Vasil’yevka"
  },
  {
    "country": "UA",
    "id": 687363,
    "coord": {
      "lat": 47.966671,
      "lon": 35.5
    },
    "name": "Zelënyy"
  },
  {
    "country": "UA",
    "id": 700201,
    "coord": {
      "lat": 47.916672,
      "lon": 35.366669
    },
    "name": "Nikiforovskiy"
  },
  {
    "country": "UA",
    "id": 690777,
    "coord": {
      "lat": 47.916672,
      "lon": 35.349998
    },
    "name": "Ukrainka"
  },
  {
    "country": "UA",
    "id": 707356,
    "coord": {
      "lat": 47.883331,
      "lon": 35.366669
    },
    "name": "Ivanovskiy"
  },
  {
    "country": "UA",
    "id": 687700,
    "coord": {
      "lat": 47.816669,
      "lon": 35.183331
    },
    "name": "Zaporizhzhya"
  },
  {
    "country": "UA",
    "id": 702072,
    "coord": {
      "lat": 47.6525,
      "lon": 35.253891
    },
    "name": "Malokaterynivka"
  },
  {
    "country": "UA",
    "id": 696278,
    "coord": {
      "lat": 47.617779,
      "lon": 35.285
    },
    "name": "Prymors’ke"
  },
  {
    "country": "UA",
    "id": 712615,
    "coord": {
      "lat": 47.583328,
      "lon": 35.299999
    },
    "name": "Belitskiy"
  },
  {
    "country": "UA",
    "id": 689845,
    "coord": {
      "lat": 47.491669,
      "lon": 35.279999
    },
    "name": "Verkhnya Krynytsya"
  },
  {
    "country": "UA",
    "id": 690380,
    "coord": {
      "lat": 47.433331,
      "lon": 35.299999
    },
    "name": "Vasil’yevka"
  },
  {
    "country": "UA",
    "id": 711165,
    "coord": {
      "lat": 47.383331,
      "lon": 35.299999
    },
    "name": "Burchak"
  },
  {
    "country": "UA",
    "id": 698410,
    "coord": {
      "lat": 47.333328,
      "lon": 35.316669
    },
    "name": "Orekhovskiy"
  },
  {
    "country": "UA",
    "id": 689482,
    "coord": {
      "lat": 47.299999,
      "lon": 35.333328
    },
    "name": "Vishnëvyy"
  },
  {
    "country": "UA",
    "id": 696262,
    "coord": {
      "lat": 47.260281,
      "lon": 35.322781
    },
    "name": "Pryshyb"
  },
  {
    "country": "UA",
    "id": 699606,
    "coord": {
      "lat": 47.083328,
      "lon": 35.316669
    },
    "name": "Novofëdorovka"
  },
  {
    "country": "UA",
    "id": 710324,
    "coord": {
      "lat": 46.950001,
      "lon": 35.283329
    },
    "name": "Dalëkiy"
  },
  {
    "country": "UA",
    "id": 705214,
    "coord": {
      "lat": 46.916672,
      "lon": 35.316669
    },
    "name": "Kommercheskiy"
  },
  {
    "country": "UA",
    "id": 707592,
    "coord": {
      "lat": 46.77861,
      "lon": 35.207218
    },
    "name": "Dolyns’ke"
  },
  {
    "country": "UA",
    "id": 707800,
    "coord": {
      "lat": 46.75,
      "lon": 35.200001
    },
    "name": "Gutertal’"
  },
  {
    "country": "UA",
    "id": 689416,
    "coord": {
      "lat": 46.655281,
      "lon": 35.151669
    },
    "name": "Volodymyrivka"
  },
  {
    "country": "UA",
    "id": 692035,
    "coord": {
      "lat": 46.599998,
      "lon": 35.049999
    },
    "name": "Svobodnaya Zhizn’"
  },
  {
    "country": "UA",
    "id": 694568,
    "coord": {
      "lat": 46.583328,
      "lon": 35.066669
    },
    "name": "Semikhatka"
  },
  {
    "country": "UA",
    "id": 7048363,
    "coord": {
      "lat": 46.54496,
      "lon": 34.994579
    },
    "name": "Druzhba"
  },
  {
    "country": "UA",
    "id": 697244,
    "coord": {
      "lat": 46.533329,
      "lon": 35
    },
    "name": "Pikalovka"
  },
  {
    "country": "UA",
    "id": 690029,
    "coord": {
      "lat": 46.507191,
      "lon": 34.960609
    },
    "name": "Rozivka"
  },
  {
    "country": "UA",
    "id": 693269,
    "coord": {
      "lat": 46.498131,
      "lon": 34.942539
    },
    "name": "Sokolohirne"
  },
  {
    "country": "UA",
    "id": 7048362,
    "coord": {
      "lat": 46.478409,
      "lon": 34.93766
    },
    "name": "Novoyefremivka"
  },
  {
    "country": "UA",
    "id": 7046810,
    "coord": {
      "lat": 46.372169,
      "lon": 34.785191
    },
    "name": "Kommunarskoye"
  },
  {
    "country": "UA",
    "id": 7046809,
    "coord": {
      "lat": 46.360168,
      "lon": 34.757729
    },
    "name": "Rivne"
  },
  {
    "country": "UA",
    "id": 7046808,
    "coord": {
      "lat": 46.286369,
      "lon": 34.741928
    },
    "name": "Moskalenka"
  },
  {
    "country": "UA",
    "id": 709865,
    "coord": {
      "lat": 46.283329,
      "lon": 34.683331
    },
    "name": "Dobroye Utro"
  },
  {
    "country": "UA",
    "id": 7032306,
    "coord": {
      "lat": 46.256531,
      "lon": 34.68531
    },
    "name": "Shchorsivka"
  },
  {
    "country": "UA",
    "id": 7046678,
    "coord": {
      "lat": 46.175251,
      "lon": 34.606331
    },
    "name": "Sal’kove"
  },
  {
    "country": "UA",
    "id": 700177,
    "coord": {
      "lat": 46.107071,
      "lon": 34.606361
    },
    "name": "Mykolayivka"
  },
  {
    "country": "UA",
    "id": 7046679,
    "coord": {
      "lat": 46.083031,
      "lon": 34.575668
    },
    "name": "Krasne Znam”ya"
  },
  {
    "country": "UA",
    "id": 7046674,
    "coord": {
      "lat": 46.07766,
      "lon": 34.551159
    },
    "name": "Novyy Trud"
  },
  {
    "country": "UA",
    "id": 7031339,
    "coord": {
      "lat": 46.032261,
      "lon": 34.539871
    },
    "name": "Chonhar"
  },
  {
    "country": "UA",
    "id": 693226,
    "coord": {
      "lat": 45.888481,
      "lon": 34.447819
    },
    "name": "Solone Ozero"
  },
  {
    "country": "UA",
    "id": 705053,
    "coord": {
      "lat": 45.85004,
      "lon": 34.462528
    },
    "name": "Kopani"
  },
  {
    "country": "UA",
    "id": 692505,
    "coord": {
      "lat": 45.826759,
      "lon": 34.467331
    },
    "name": "Stovpove"
  },
  {
    "country": "UA",
    "id": 701922,
    "coord": {
      "lat": 45.79575,
      "lon": 34.428249
    },
    "name": "Mamut"
  },
  {
    "country": "UA",
    "id": 7021061,
    "coord": {
      "lat": 45.791241,
      "lon": 34.419579
    },
    "name": "Vitvyste"
  },
  {
    "country": "UA",
    "id": 691842,
    "coord": {
      "lat": 45.769058,
      "lon": 34.421612
    },
    "name": "Ostrovs’ke"
  },
  {
    "country": "UA",
    "id": 7021003,
    "coord": {
      "lat": 45.737942,
      "lon": 34.410198
    },
    "name": "Izumrudne"
  },
  {
    "country": "UA",
    "id": 7020274,
    "coord": {
      "lat": 45.674541,
      "lon": 34.368149
    },
    "name": "Kostyantynivka"
  },
  {
    "country": "UA",
    "id": 7020273,
    "coord": {
      "lat": 45.659939,
      "lon": 34.360882
    },
    "name": "Tymofiyivka"
  },
  {
    "country": "UA",
    "id": 712053,
    "coord": {
      "lat": 45.640099,
      "lon": 34.377159
    },
    "name": "Blyzhn’ohorods’ke"
  },
  {
    "country": "UA",
    "id": 706811,
    "coord": {
      "lat": 45.627071,
      "lon": 34.332851
    },
    "name": "Arbuzivka"
  },
  {
    "country": "UA",
    "id": 7019908,
    "coord": {
      "lat": 45.606522,
      "lon": 34.33712
    },
    "name": "Vidradne"
  },
  {
    "country": "UA",
    "id": 689738,
    "coord": {
      "lat": 45.593929,
      "lon": 34.318588
    },
    "name": "Vesele"
  },
  {
    "country": "UA",
    "id": 7019906,
    "coord": {
      "lat": 45.568619,
      "lon": 34.32132
    },
    "name": "Dibrivka"
  },
  {
    "country": "UA",
    "id": 704253,
    "coord": {
      "lat": 45.549999,
      "lon": 34.299999
    },
    "name": "Krasnoye Znamya"
  },
  {
    "country": "UA",
    "id": 691160,
    "coord": {
      "lat": 45.538559,
      "lon": 34.30534
    },
    "name": "Pushkine"
  },
  {
    "country": "UA",
    "id": 7019513,
    "coord": {
      "lat": 45.521919,
      "lon": 34.298809
    },
    "name": "Blyzhnye"
  },
  {
    "country": "UA",
    "id": 704381,
    "coord": {
      "lat": 45.501621,
      "lon": 34.30024
    },
    "name": "Krasnohvardiys’ke"
  },
  {
    "country": "UA",
    "id": 710297,
    "coord": {
      "lat": 45.48333,
      "lon": 34.299999
    },
    "name": "Danilovka"
  },
  {
    "country": "UA",
    "id": 701862,
    "coord": {
      "lat": 45.453239,
      "lon": 34.292511
    },
    "name": "Mare"
  },
  {
    "country": "UA",
    "id": 7018912,
    "coord": {
      "lat": 45.433819,
      "lon": 34.222069
    },
    "name": "Yantarne"
  },
  {
    "country": "UA",
    "id": 7018274,
    "coord": {
      "lat": 45.406109,
      "lon": 34.20821
    },
    "name": "Krasnyy Partyzan"
  },
  {
    "country": "UA",
    "id": 711681,
    "coord": {
      "lat": 45.400002,
      "lon": 34.200001
    },
    "name": "Borangar"
  },
  {
    "country": "UA",
    "id": 712987,
    "coord": {
      "lat": 45.366669,
      "lon": 34.183331
    },
    "name": "Baglikovo"
  },
  {
    "country": "UA",
    "id": 7018275,
    "coord": {
      "lat": 45.351109,
      "lon": 34.18388
    },
    "name": "Poltavka"
  },
  {
    "country": "UA",
    "id": 691064,
    "coord": {
      "lat": 45.31181,
      "lon": 34.165859
    },
    "name": "Tsvitkove"
  },
  {
    "country": "UA",
    "id": 713505,
    "coord": {
      "lat": 45.290138,
      "lon": 34.14159
    },
    "name": "Amurs’ke"
  },
  {
    "country": "UA",
    "id": 698652,
    "coord": {
      "lat": 45.292839,
      "lon": 34.126678
    },
    "name": "Oktyabrs’ke"
  },
  {
    "country": "UA",
    "id": 713724,
    "coord": {
      "lat": 45.26667,
      "lon": 34.133331
    },
    "name": "Alabash Konrat"
  },
  {
    "country": "UA",
    "id": 6981130,
    "coord": {
      "lat": 45.21973,
      "lon": 34.075611
    },
    "name": "Novoandriyivka"
  },
  {
    "country": "UA",
    "id": 6981123,
    "coord": {
      "lat": 45.20155,
      "lon": 34.047321
    },
    "name": "Shyroke"
  },
  {
    "country": "UA",
    "id": 709344,
    "coord": {
      "lat": 45.183331,
      "lon": 34.083328
    },
    "name": "Dzhaga-Mamysh"
  },
  {
    "country": "UA",
    "id": 704431,
    "coord": {
      "lat": 45.135479,
      "lon": 34.037819
    },
    "name": "Krasna Zor’ka"
  },
  {
    "country": "UA",
    "id": 707777,
    "coord": {
      "lat": 45.120861,
      "lon": 34.018452
    },
    "name": "Hvardiys’ke"
  },
  {
    "country": "UA",
    "id": 693342,
    "coord": {
      "lat": 45.097092,
      "lon": 34.001209
    },
    "name": "Sofiyivka"
  },
  {
    "country": "UA",
    "id": 6980613,
    "coord": {
      "lat": 45.076889,
      "lon": 34.002399
    },
    "name": "Malen’ke"
  },
  {
    "country": "UA",
    "id": 698873,
    "coord": {
      "lat": 45.049999,
      "lon": 34.033329
    },
    "name": "Novyy Sarabuz"
  },
  {
    "country": "UA",
    "id": 6976172,
    "coord": {
      "lat": 45.019669,
      "lon": 34.016312
    },
    "name": "Komsomols’ke"
  },
  {
    "country": "UA",
    "id": 700835,
    "coord": {
      "lat": 45.00428,
      "lon": 34.05006
    },
    "name": "Molodizhne"
  },
  {
    "country": "UA",
    "id": 707240,
    "coord": {
      "lat": 44.98333,
      "lon": 34.066669
    },
    "name": "Kakhovskoye"
  },
  {
    "country": "UA",
    "id": 690788,
    "coord": {
      "lat": 44.96072,
      "lon": 34.063461
    },
    "name": "Ukrayinka"
  },
  {
    "country": "UA",
    "id": 6974770,
    "coord": {
      "lat": 44.91288,
      "lon": 34.033039
    },
    "name": "Molochne"
  },
  {
    "country": "UA",
    "id": 710454,
    "coord": {
      "lat": 44.882568,
      "lon": 34.038979
    },
    "name": "Chysten’ke"
  },
  {
    "country": "UA",
    "id": 6974516,
    "coord": {
      "lat": 44.850368,
      "lon": 34.00095
    },
    "name": "Pryyatne Svidannya"
  },
  {
    "country": "UA",
    "id": 7040002,
    "coord": {
      "lat": 44.841999,
      "lon": 33.995129
    },
    "name": "Topoli"
  },
  {
    "country": "UA",
    "id": 696999,
    "coord": {
      "lat": 44.831108,
      "lon": 33.95446
    },
    "name": "Poshtove"
  },
  {
    "country": "UA",
    "id": 7040016,
    "coord": {
      "lat": 44.824558,
      "lon": 33.922482
    },
    "name": "Samokhvalove"
  },
  {
    "country": "UA",
    "id": 7040021,
    "coord": {
      "lat": 44.801441,
      "lon": 33.868141
    },
    "name": "Aromatne"
  },
  {
    "country": "UA",
    "id": 688826,
    "coord": {
      "lat": 44.849998,
      "lon": 33.650002
    },
    "name": "Vulino"
  },
  {
    "country": "UA",
    "id": 704416,
    "coord": {
      "lat": 44.849998,
      "lon": 33.683331
    },
    "name": "Krasnoarmeyskoye"
  },
  {
    "country": "UA",
    "id": 698157,
    "coord": {
      "lat": 44.859341,
      "lon": 33.730942
    },
    "name": "Vidradne"
  },
  {
    "country": "UA",
    "id": 7040014,
    "coord": {
      "lat": 44.83709,
      "lon": 33.750011
    },
    "name": "Kocherhine"
  },
  {
    "country": "UA",
    "id": 698166,
    "coord": {
      "lat": 44.833328,
      "lon": 33.76667
    },
    "name": "Otesh-Eli"
  },
  {
    "country": "UA",
    "id": 700490,
    "coord": {
      "lat": 44.799999,
      "lon": 33.799999
    },
    "name": "Nagornoye"
  },
  {
    "country": "UA",
    "id": 7040022,
    "coord": {
      "lat": 44.795849,
      "lon": 33.81052
    },
    "name": "Malovydne"
  },
  {
    "country": "UA",
    "id": 7040139,
    "coord": {
      "lat": 44.71629,
      "lon": 33.802689
    },
    "name": "Zaliznychne"
  },
  {
    "country": "UA",
    "id": 7021078,
    "coord": {
      "lat": 44.63913,
      "lon": 33.840729
    },
    "name": "Male Sadove"
  },
  {
    "country": "UA",
    "id": 7021112,
    "coord": {
      "lat": 44.598068,
      "lon": 33.911209
    },
    "name": "Nyzhnya Holubynka"
  },
  {
    "country": "UA",
    "id": 7040140,
    "coord": {
      "lat": 44.68391,
      "lon": 33.725811
    },
    "name": "Pyrohivka"
  },
  {
    "country": "UA",
    "id": 689905,
    "coord": {
      "lat": 44.689701,
      "lon": 33.699791
    },
    "name": "Verkhn’osadove"
  },
  {
    "country": "UA",
    "id": 7040142,
    "coord": {
      "lat": 44.700291,
      "lon": 33.689098
    },
    "name": "Semarenka"
  },
  {
    "country": "UA",
    "id": 709083,
    "coord": {
      "lat": 44.68045,
      "lon": 33.599689
    },
    "name": "Fruktove"
  },
  {
    "country": "UA",
    "id": 697889,
    "coord": {
      "lat": 48.51667,
      "lon": 35.866669
    },
    "name": "Pavlohrad"
  },
  {
    "country": "UA",
    "id": 7046438,
    "coord": {
      "lat": 46.01931,
      "lon": 34.512772
    },
    "name": "Zaliznychne"
  },
  {
    "country": "UA",
    "id": 7021138,
    "coord": {
      "lat": 44.577511,
      "lon": 33.940498
    },
    "name": "Aromat"
  },
  {
    "country": "UA",
    "id": 709325,
    "coord": {
      "lat": 44.900002,
      "lon": 34.283329
    },
    "name": "Dzhefar-Berdy"
  },
  {
    "country": "UA",
    "id": 6986274,
    "coord": {
      "lat": 44.927059,
      "lon": 34.27541
    },
    "name": "Lazarivka"
  },
  {
    "country": "UA",
    "id": 691679,
    "coord": {
      "lat": 44.933331,
      "lon": 34.26667
    },
    "name": "Terenair"
  },
  {
    "country": "UA",
    "id": 699844,
    "coord": {
      "lat": 44.937309,
      "lon": 34.24807
    },
    "name": "Ivanivka"
  },
  {
    "country": "UA",
    "id": 710141,
    "coord": {
      "lat": 44.92186,
      "lon": 34.22234
    },
    "name": "Denysivka"
  },
  {
    "country": "UA",
    "id": 6986279,
    "coord": {
      "lat": 44.89592,
      "lon": 34.290379
    },
    "name": "Druzhne"
  },
  {
    "country": "UA",
    "id": 687656,
    "coord": {
      "lat": 44.855999,
      "lon": 34.262199
    },
    "name": "Zarichne"
  },
  {
    "country": "UA",
    "id": 713099,
    "coord": {
      "lat": 44.827229,
      "lon": 34.28706
    },
    "name": "Ayans’ke Dzherelo"
  },
  {
    "country": "UA",
    "id": 6987036,
    "coord": {
      "lat": 44.695549,
      "lon": 34.318111
    },
    "name": "Rozovyy"
  },
  {
    "country": "UA",
    "id": 6988139,
    "coord": {
      "lat": 44.742569,
      "lon": 34.366871
    },
    "name": "Lavanda"
  },
  {
    "country": "UA",
    "id": 695053,
    "coord": {
      "lat": 44.772388,
      "lon": 34.592991
    },
    "name": "Rybache"
  },
  {
    "country": "UA",
    "id": 696240,
    "coord": {
      "lat": 44.817371,
      "lon": 34.679031
    },
    "name": "Pryvitne"
  },
  {
    "country": "UA",
    "id": 701822,
    "coord": {
      "lat": 47.066669,
      "lon": 37.5
    },
    "name": "Mariupol"
  },
  {
    "country": "UA",
    "id": 712005,
    "coord": {
      "lat": 50.349979,
      "lon": 30.18858
    },
    "name": "Bobritsa"
  },
  {
    "country": "UA",
    "id": 689974,
    "coord": {
      "lat": 48.997749,
      "lon": 31.96711
    },
    "name": "Verbovka"
  },
  {
    "country": "UA",
    "id": 708140,
    "coord": {
      "lat": 45.008041,
      "lon": 34.026569
    },
    "name": "Hresivs’kyy"
  },
  {
    "country": "UA",
    "id": 704121,
    "coord": {
      "lat": 50.241291,
      "lon": 30.505831
    },
    "name": "Krenichi"
  },
  {
    "country": "UA",
    "id": 6957702,
    "coord": {
      "lat": 48.00769,
      "lon": 37.514011
    },
    "name": "Krasnogorovka"
  },
  {
    "country": "UA",
    "id": 692909,
    "coord": {
      "lat": 50.433331,
      "lon": 30.633329
    },
    "name": "Staraya Darnitsa"
  },
  {
    "country": "UA",
    "id": 8037857,
    "coord": {
      "lat": 52.158852,
      "lon": 34.036709
    },
    "name": "Krasnyy Prohres"
  },
  {
    "country": "UA",
    "id": 702694,
    "coord": {
      "lat": 48.51667,
      "lon": 24.58333
    },
    "name": "Lug"
  },