[

  {
    "country": "ZM",
    "id": 906044,
    "coord": {
      "lat": -16.283331,
      "lon": 27.48333
    },
    "name": "Monze"
  },
  {
    "country": "ZM",
    "id": 913613,
    "coord": {
      "lat": -12.09514,
      "lon": 26.427271
    },
    "name": "Kansanshi"
  },
  {
    "country": "ZM",
    "id": 902106,
    "coord": {
      "lat": -16.41667,
      "lon": 27.1
    },
    "name": "Namalindi"
  },
  {
    "country": "ZM",
    "id": 921064,
    "coord": {
      "lat": -14,
      "lon": 29
    },
    "name": "Central Province"
  },
  {
    "country": "ZM",
    "id": 904264,
    "coord": {
      "lat": -15.22904,
      "lon": 28.1623
    },
    "name": "Mungule Court"
  },
  {
    "country": "ZM",
    "id": 908734,
    "coord": {
      "lat": -14.23333,
      "lon": 28.23333
    },
    "name": "Lyembo"
  },
  {
    "country": "ZM",
    "id": 900594,
    "coord": {
      "lat": -13,
      "lon": 25
    },
    "name": "North-Western Province"
  },
  {
    "country": "ZM",
    "id": 919814,
    "coord": {
      "lat": -13.31454,
      "lon": 24.089741
    },
    "name": "Chikonkwelo"
  },
  {
    "country": "ZM",
    "id": 901218,
    "coord": {
      "lat": -13.36667,
      "lon": 25.66667
    },
    "name": "Ngambo"
  },
  {
    "country": "ZM",
    "id": 904838,
    "coord": {
      "lat": -13.13333,
      "lon": 30.116671
    },
    "name": "Mulaya"
  },
  {
    "country": "ZM",
    "id": 900969,
    "coord": {
      "lat": -12.16667,
      "lon": 33.099998
    },
    "name": "Ngwata"
  },
  {
    "country": "ZM",
    "id": 916211,
    "coord": {
      "lat": -11.57095,
      "lon": 31.287729
    },
    "name": "Kabuko"
  },
  {
    "country": "ZM",
    "id": 901344,
    "coord": {
      "lat": -12.95867,
      "lon": 28.636589
    },
    "name": "Ndola"
  },
  {
    "country": "ZM",
    "id": 896140,
    "coord": {
      "lat": -15,
      "lon": 24
    },
    "name": "Western Province"
  },
  {
    "country": "ZM",
    "id": 918009,
    "coord": {
      "lat": -17.35,
      "lon": 24.16667
    },
    "name": "Chiulu"
  },
  {
    "country": "ZM",
    "id": 896972,
    "coord": {
      "lat": -16.5,
      "lon": 27
    },
    "name": "Southern Province"
  },
  {
    "country": "ZM",
    "id": 915680,
    "coord": {
      "lat": -17.36702,
      "lon": 27.20085
    },
    "name": "Kanjonja"
  },
  {
    "country": "ZM",
    "id": 917388,
    "coord": {
      "lat": -13,
      "lon": 32.25
    },
    "name": "Eastern Province"
  },
  {
    "country": "ZM",
    "id": 914555,
    "coord": {
      "lat": -14.13333,
      "lon": 31.15
    },
    "name": "Kamboka"
  },
  {
    "country": "ZM",
    "id": 900813,
    "coord": {
      "lat": -12.82633,
      "lon": 28.204741
    },
    "name": "Nkana"
  },
  {
    "country": "ZM",
    "id": 175499,
    "coord": {
      "lat": -9.34506,
      "lon": 28.733959
    },
    "name": "Nchelenge"
  },
  {
    "country": "ZM",
    "id": 176555,
    "coord": {
      "lat": -9.7915,
      "lon": 29.07913
    },
    "name": "Kawambwa"
  },
  {
    "country": "ZM",
    "id": 898188,
    "coord": {
      "lat": -16.538179,
      "lon": 28.708759
    },
    "name": "Siavonga"
  },
  {
    "country": "ZM",
    "id": 899274,
    "coord": {
      "lat": -11.36491,
      "lon": 29.55652
    },
    "name": "Samfya"
  },
  {
    "country": "ZM",
    "id": 899825,
    "coord": {
      "lat": -14.24264,
      "lon": 31.3253
    },
    "name": "Petauke"
  },
  {
    "country": "ZM",
    "id": 904422,
    "coord": {
      "lat": -14.97832,
      "lon": 27.06188
    },
    "name": "Mumbwa"
  },
  {
    "country": "ZM",
    "id": 905846,
    "coord": {
      "lat": -11.83431,
      "lon": 31.452869
    },
    "name": "Mpika"
  },
  {
    "country": "ZM",
    "id": 907111,
    "coord": {
      "lat": -15.85601,
      "lon": 27.747999
    },
    "name": "Mazabuka"
  },
  {
    "country": "ZM",
    "id": 907770,
    "coord": {
      "lat": -11.19976,
      "lon": 28.89431
    },
    "name": "Mansa"
  },
  {
    "country": "ZM",
    "id": 909863,
    "coord": {
      "lat": -13.13667,
      "lon": 28.416611
    },
    "name": "Luanshya"
  },
  {
    "country": "ZM",
    "id": 911148,
    "coord": {
      "lat": -12.79614,
      "lon": 28.247669
    },
    "name": "Kitwe"
  },
  {
    "country": "ZM",
    "id": 912764,
    "coord": {
      "lat": -10.21289,
      "lon": 31.18084
    },
    "name": "Kasama"
  },
  {
    "country": "ZM",
    "id": 913029,
    "coord": {
      "lat": -13.96518,
      "lon": 28.680861
    },
    "name": "Kapiri Mposhi"
  },
  {
    "country": "ZM",
    "id": 914959,
    "coord": {
      "lat": -12.83778,
      "lon": 28.091921
    },
    "name": "Kalulushi"
  },
  {
    "country": "ZM",
    "id": 915883,
    "coord": {
      "lat": -15.76911,
      "lon": 28.18136
    },
    "name": "Kafue"
  },
  {
    "country": "ZM",
    "id": 917748,
    "coord": {
      "lat": -16.80648,
      "lon": 26.95306
    },
    "name": "Choma"
  },
  {
    "country": "ZM",
    "id": 919009,
    "coord": {
      "lat": -12.52897,
      "lon": 27.88382
    },
    "name": "Chingola"
  },
  {
    "country": "ZM",
    "id": 919544,
    "coord": {
      "lat": -12.36475,
      "lon": 27.822861
    },
    "name": "Chililabombwe"
  },
  {
    "country": "ZM",
    "id": 895949,
    "coord": {
      "lat": -15,
      "lon": 30
    },
    "name": "Republic of Zambia"
  },
  {
    "country": "ZM",
    "id": 900601,
    "coord": {
      "lat": -11,
      "lon": 31
    },
    "name": "Northern Province"
  },
  {
    "country": "ZM",
    "id": 901298,
    "coord": {
      "lat": -11.33333,
      "lon": 24.216669
    },
    "name": "Ndumbakahehu"
  },
  {
    "country": "ZM",
    "id": 909845,
    "coord": {
      "lat": -11,
      "lon": 29
    },
    "name": "Luapula Province"
  },
  {
    "country": "ZM",
    "id": 921061,
    "coord": {
      "lat": -11.26445,
      "lon": 29.357861
    },
    "name": "Chaba"
  },
  {
    "country": "ZM",
    "id": 899151,
    "coord": {
      "lat": -10.05,
      "lon": 32.416672
    },
    "name": "Sande"
  },
  {
    "country": "ZM",
    "id": 176947,
    "coord": {
      "lat": -9.41681,
      "lon": 28.737801
    },
    "name": "Kambwali"
  },
  {
    "country": "ZM",
    "id": 909129,
    "coord": {
      "lat": -15.41667,
      "lon": 29
    },
    "name": "Lusaka Province"
  },
  {
    "country": "ZM",
    "id": 909137,
    "coord": {
      "lat": -15.40669,
      "lon": 28.28713
    },
    "name": "Lusaka"
  },
  {
    "country": "ZM",
    "id": 917524,
    "coord": {
      "lat": -13,
      "lon": 28
    },
    "name": "Copperbelt Province"
  },
  {
    "country": "ZM",
    "id": 910111,
    "coord": {
      "lat": -17.84194,
      "lon": 25.85425
    },
    "name": "Livingstone"
  },
  {
    "country": "ZM",
    "id": 905395,
    "coord": {
      "lat": -12.54982,
      "lon": 28.240709
    },
    "name": "Mufulira"
  },
  {
    "country": "ZM",
    "id": 916095,
    "coord": {
      "lat": -14.4469,
      "lon": 28.44644
    },
    "name": "Kabwe"
  },
  {
    "country": "ZM",
    "id": 917889,
    "coord": {
      "lat": -12.55203,
      "lon": 27.841021
    },
    "name": "Chiwempala"
  },
  {
    "country": "ZM",
    "id": 906054,
    "coord": {
      "lat": -15.24835,
      "lon": 23.127411
    },
    "name": "Mongu"
  },
  {
    "country": "ZM",
    "id": 918702,
    "coord": {
      "lat": -13.63333,
      "lon": 32.650002
    },
    "name": "Chipata"
  },
  {
    "country": "ZM",
    "id": 895953,
    "coord": {
      "lat": -13.54323,
      "lon": 23.10466
    },
    "name": "Zambezi"
  },
  {
    "country": "ZM",
    "id": 897045,
    "coord": {
      "lat": -12.1688,
      "lon": 26.38938
    },
    "name": "Solwezi"
  },
  {
    "country": "ZM",
    "id": 898905,
    "coord": {
      "lat": -17.475929,
      "lon": 24.296841
    },
    "name": "Sesheke"
  },
  {
    "country": "ZM",
    "id": 898947,
    "coord": {
      "lat": -16.116671,
      "lon": 23.26667
    },
    "name": "Senanga"
  },
  {
    "country": "ZM",
    "id": 908248,
    "coord": {
      "lat": -13,
      "lon": 28.66667
    },
    "name": "Malabo"
  },
  {
    "country": "ZM",
    "id": 905149,
    "coord": {
      "lat": -15.25,
      "lon": 23.15
    },
    "name": "Mukoko"
  },
  {
    "country": "ZM",
    "id": 899903,
    "coord": {
      "lat": -13.26846,
      "lon": 31.91715
    },
    "name": "Panku"
  },
  {
    "country": "ZM",
    "id": 919255,
    "coord": {
      "lat": -11.16667,
      "lon": 28.866671
    },
    "name": "Chimese"
  },
  {
    "country": "ZM",
    "id": 920928,
    "coord": {
      "lat": -15.36667,
      "lon": 28.433331
    },
    "name": "Chalimbana"
  },
  {
    "country": "ZM",
    "id": 920106,
    "coord": {
      "lat": -17.83333,
      "lon": 25.866671
    },
    "name": "Chichili"
  },
  {
    "country": "ZM",
    "id": 916978,
    "coord": {
      "lat": -17.83333,
      "lon": 25.85
    },
    "name": "Highlands"
  },
  {
    "country": "ZM",
    "id": 896662,
    "coord": {
      "lat": -10.21667,
      "lon": 31.133329
    },
    "name": "Thornton"
  },
  {
    "country": "ZM",
    "id": 898586,
    "coord": {
      "lat": -14.81667,
      "lon": 24.799999
    },
    "name": "Shimpanya"
  },
  {
    "country": "ZM",
    "id": 907439,
    "coord": {
      "lat": -13.55,
      "lon": 32.566669
    },
    "name": "Masupe"
  },
  {
    "country": "ZM",
    "id": 176146,
    "coord": {
      "lat": -8.84024,
      "lon": 31.36587
    },
    "name": "Mbala"
  },
  {
    "country": "ZM",
    "id": 175555,
    "coord": {
      "lat": -9.34213,
      "lon": 32.744999
    },
    "name": "Nakonde"
  },
  {
    "country": "ZM",
    "id": 175961,
    "coord": {
      "lat": -8.76234,
      "lon": 31.11405
    },
    "name": "Mpulungu"
  },
  {
    "country": "ZM",
    "id": 175967,
    "coord": {
      "lat": -9.37272,
      "lon": 30.12501
    },
    "name": "Mporokoso"
  },
  {
    "country": "ZM",
    "id": 176758,
    "coord": {
      "lat": -8.46887,
      "lon": 29.661921
    },
    "name": "Kaputa"
  },
  {
    "country": "ZM",
    "id": 897456,
    "coord": {
      "lat": -17.2614,
      "lon": 27.46179
    },
    "name": "Sinazongwe"
  },
  {
    "country": "ZM",
    "id": 898912,
    "coord": {
      "lat": -13.23251,
      "lon": 30.23522
    },
    "name": "Serenje"
  },
  {
    "country": "ZM",
    "id": 900056,
    "coord": {
      "lat": -14.55656,
      "lon": 30.814899
    },
    "name": "Nyimba"
  },
  {
    "country": "ZM",
    "id": 901766,
    "coord": {
      "lat": -15.75042,
      "lon": 26.438391
    },
    "name": "Namwala"
  },
  {
    "country": "ZM",
    "id": 902344,
    "coord": {
      "lat": -15.83244,
      "lon": 27.77994
    },
    "name": "Nakambala"
  },
  {
    "country": "ZM",
    "id": 902620,
    "coord": {
      "lat": -11.73584,
      "lon": 24.42926
    },
    "name": "Mwinilunga"
  },
  {
    "country": "ZM",
    "id": 902721,
    "coord": {
      "lat": -10.38446,
      "lon": 28.698
    },
    "name": "Mwense"
  },
  {
    "country": "ZM",
    "id": 904241,
    "coord": {
      "lat": -10.1732,
      "lon": 31.369419
    },
    "name": "Mungwi"
  },
  {
    "country": "ZM",
    "id": 905382,
    "coord": {
      "lat": -13.68333,
      "lon": 24.799999
    },
    "name": "Mufumbwe"
  },
  {
    "country": "ZM",
    "id": 905789,
    "coord": {
      "lat": -13.50914,
      "lon": 28.155041
    },
    "name": "Mpongwe"
  },
  {
    "country": "ZM",
    "id": 906221,
    "coord": {
      "lat": -13.62015,
      "lon": 29.3939
    },
    "name": "Mkushi"
  },
  {
    "country": "ZM",
    "id": 908718,
    "coord": {
      "lat": -17.366671,
      "lon": 27.15
    },
    "name": "Maamba"
  },
  {
    "country": "ZM",
    "id": 908913,
    "coord": {
      "lat": -10.2621,
      "lon": 29.92712
    },
    "name": "Luwingu"
  },
  {
    "country": "ZM",
    "id": 909299,
    "coord": {
      "lat": -12.29292,
      "lon": 33.1782
    },
    "name": "Lundazi"
  },
  {
    "country": "ZM",
    "id": 909488,
    "coord": {
      "lat": -14.37067,
      "lon": 23.241961
    },
    "name": "Lukulu"
  },
  {
    "country": "ZM",
    "id": 909887,
    "coord": {
      "lat": -15.61667,
      "lon": 30.41667
    },
    "name": "Luangwa"
  },
  {
    "country": "ZM",
    "id": 910361,
    "coord": {
      "lat": -15.09691,
      "lon": 23.137581
    },
    "name": "Limulunga"
  },
  {
    "country": "ZM",
    "id": 912628,
    "coord": {
      "lat": -13.45836,
      "lon": 25.833799
    },
    "name": "Kasempa"
  },
  {
    "country": "ZM",
    "id": 913323,
    "coord": {
      "lat": -14.78333,
      "lon": 24.799999
    },
    "name": "Kaoma"
  },
  {
    "country": "ZM",
    "id": 915285,
    "coord": {
      "lat": -13.46586,
      "lon": 25.00271
    },
    "name": "Kalengwa"
  },
  {
    "country": "ZM",
    "id": 915471,
    "coord": {
      "lat": -14.97004,
      "lon": 22.681379
    },
    "name": "Kalabo"
  },
  {
    "country": "ZM",
    "id": 916246,
    "coord": {
      "lat": -13.59268,
      "lon": 24.200809
    },
    "name": "Kabompo"
  },
  {
    "country": "ZM",
    "id": 916668,
    "coord": {
      "lat": -10.16062,
      "lon": 32.63353
    },
    "name": "Isoka"
  },
  {
    "country": "ZM",
    "id": 917011,
    "coord": {
      "lat": -16.497549,
      "lon": 27.606911
    },
    "name": "Gwembe"
  },
  {
    "country": "ZM",
    "id": 917688,
    "coord": {
      "lat": -15.32916,
      "lon": 28.682039
    },
    "name": "Chongwe"
  },
  {
    "country": "ZM",
    "id": 918905,
    "coord": {
      "lat": -10.54142,
      "lon": 32.081619
    },
    "name": "Chinsali"
  },
  {
    "country": "ZM",
    "id": 920233,
    "coord": {
      "lat": -14.65685,
      "lon": 28.07057
    },
    "name": "Chibombo"
  },
  {
    "country": "ZM",
    "id": 920820,
    "coord": {
      "lat": -12.63247,
      "lon": 28.053671
    },
    "name": "Chambishi"
  },
  {
    "country": "ZM",
    "id": 920901,
    "coord": {
      "lat": -11.21304,
      "lon": 33.1521
    },
    "name": "Chama"
  },
  {
    "country": "ZM",
    "id": 921028,
    "coord": {
      "lat": -14.06779,
      "lon": 32.439171
    },
    "name": "Chadiza"
  }

]