[

  {
    "country": "ZW",
    "id": 890983,
    "coord": {
      "lat": -18.20476,
      "lon": 28.9349
    },
    "name": "Gokwe"
  },
  {
    "country": "ZW",
    "id": 886841,
    "coord": {
      "lat": -17,
      "lon": 29.5
    },
    "name": "Mashonaland West Province"
  },
  {
    "country": "ZW",
    "id": 887648,
    "coord": {
      "lat": -16.316481,
      "lon": 29.251921
    },
    "name": "Makuti"
  },
  {
    "country": "ZW",
    "id": 886748,
    "coord": {
      "lat": -19,
      "lon": 27.5
    },
    "name": "Matabeleland North Province"
  },
  {
    "country": "ZW",
    "id": 884428,
    "coord": {
      "lat": -17.80806,
      "lon": 31.081671
    },
    "name": "Newlands"
  },
  {
    "country": "ZW",
    "id": 878675,
    "coord": {
      "lat": -19,
      "lon": 29
    },
    "name": "Republic of Zimbabwe"
  },
  {
    "country": "ZW",
    "id": 894366,
    "coord": {
      "lat": -22.116671,
      "lon": 30.066669
    },
    "name": "Chamnanga"
  },
  {
    "country": "ZW",
    "id": 886842,
    "coord": {
      "lat": -17.5,
      "lon": 32
    },
    "name": "Mashonaland East Province"
  },
  {
    "country": "ZW",
    "id": 7385181,
    "coord": {
      "lat": -17.21319,
      "lon": 32.22464
    },
    "name": "Masenda Township"
  },
  {
    "country": "ZW",
    "id": 881164,
    "coord": {
      "lat": -19.67016,
      "lon": 30.00589
    },
    "name": "Shurugwi"
  },
  {
    "country": "ZW",
    "id": 882599,
    "coord": {
      "lat": -19.033331,
      "lon": 29.783331
    },
    "name": "Redcliff"
  },
  {
    "country": "ZW",
    "id": 884979,
    "coord": {
      "lat": -18.970699,
      "lon": 32.67086
    },
    "name": "Mutare"
  },
  {
    "country": "ZW",
    "id": 886990,
    "coord": {
      "lat": -18.18527,
      "lon": 31.551929
    },
    "name": "Marondera"
  },
  {
    "country": "ZW",
    "id": 888710,
    "coord": {
      "lat": -18.928101,
      "lon": 29.814859
    },
    "name": "Kwekwe"
  },
  {
    "country": "ZW",
    "id": 889191,
    "coord": {
      "lat": -16.809931,
      "lon": 29.692471
    },
    "name": "Karoi"
  },
  {
    "country": "ZW",
    "id": 889215,
    "coord": {
      "lat": -16.51667,
      "lon": 28.799999
    },
    "name": "Kariba"
  },
  {
    "country": "ZW",
    "id": 889453,
    "coord": {
      "lat": -18.333281,
      "lon": 29.91534
    },
    "name": "Kadoma"
  },
  {
    "country": "ZW",
    "id": 889942,
    "coord": {
      "lat": -18.36927,
      "lon": 26.50194
    },
    "name": "Hwange"
  },
  {
    "country": "ZW",
    "id": 893697,
    "coord": {
      "lat": -17.366671,
      "lon": 30.200001
    },
    "name": "Chinhoyi"
  },
  {
    "country": "ZW",
    "id": 894239,
    "coord": {
      "lat": -18.130211,
      "lon": 30.140739
    },
    "name": "Chegutu"
  },
  {
    "country": "ZW",
    "id": 895061,
    "coord": {
      "lat": -17.30192,
      "lon": 31.330561
    },
    "name": "Bindura"
  },
  {
    "country": "ZW",
    "id": 895269,
    "coord": {
      "lat": -22.216669,
      "lon": 30
    },
    "name": "Beitbridge"
  },
  {
    "country": "ZW",
    "id": 1085510,
    "coord": {
      "lat": -17.889999,
      "lon": 31.147499
    },
    "name": "Epworth"
  },
  {
    "country": "ZW",
    "id": 1106542,
    "coord": {
      "lat": -18.012739,
      "lon": 31.07555
    },
    "name": "Chitungwiza"
  },
  {
    "country": "ZW",
    "id": 887358,
    "coord": {
      "lat": -19,
      "lon": 32.5
    },
    "name": "Manicaland Province"
  },
  {
    "country": "ZW",
    "id": 882100,
    "coord": {
      "lat": -18.527849,
      "lon": 32.128429
    },
    "name": "Rusape"
  },
  {
    "country": "ZW",
    "id": 890242,
    "coord": {
      "lat": -18.27733,
      "lon": 32.051498
    },
    "name": "Headlands"
  },
  {
    "country": "ZW",
    "id": 886119,
    "coord": {
      "lat": -19,
      "lon": 30
    },
    "name": "Midlands Province"
  },
  {
    "country": "ZW",
    "id": 894015,
    "coord": {
      "lat": -18.148081,
      "lon": 28.38097
    },
    "name": "Chief Sai"
  },
  {
    "country": "ZW",
    "id": 7418156,
    "coord": {
      "lat": -18.967569,
      "lon": 32.668968
    },
    "name": "Yeovil"
  },
  {
    "country": "ZW",
    "id": 890422,
    "coord": {
      "lat": -19.450001,
      "lon": 29.816669
    },
    "name": "Gweru"
  },
  {
    "country": "ZW",
    "id": 878549,
    "coord": {
      "lat": -20.32674,
      "lon": 30.066481
    },
    "name": "Zvishavane"
  },
  {
    "country": "ZW",
    "id": 1105844,
    "coord": {
      "lat": -17.816669,
      "lon": 31.033331
    },
    "name": "Harare Province"
  },
  {
    "country": "ZW",
    "id": 890299,
    "coord": {
      "lat": -17.82935,
      "lon": 31.05389
    },
    "name": "Harare"
  },
  {
    "country": "ZW",
    "id": 1106407,
    "coord": {
      "lat": -17.81889,
      "lon": 31.03944
    },
    "name": "Avenues"
  },
  {
    "country": "ZW",
    "id": 885517,
    "coord": {
      "lat": -20.08333,
      "lon": 30.816669
    },
    "name": "Mucheke Township"
  },
  {
    "country": "ZW",
    "id": 879431,
    "coord": {
      "lat": -17.923531,
      "lon": 25.842991
    },
    "name": "Victoria Falls"
  },
  {
    "country": "ZW",
    "id": 1105843,
    "coord": {
      "lat": -20.15,
      "lon": 28.58333
    },
    "name": "Bulawayo Province"
  },
  {
    "country": "ZW",
    "id": 894701,
    "coord": {
      "lat": -20.15,
      "lon": 28.58333
    },
    "name": "Bulawayo"
  },
  {
    "country": "ZW",
    "id": 884141,
    "coord": {
      "lat": -17.883329,
      "lon": 30.700001
    },
    "name": "Norton"
  },
  {
    "country": "ZW",
    "id": 886843,
    "coord": {
      "lat": -17,
      "lon": 31
    },
    "name": "Mashonaland Central Province"
  },
  {
    "country": "ZW",
    "id": 891099,
    "coord": {
      "lat": -17.355141,
      "lon": 31.067181
    },
    "name": "Glendale"
  },
  {
    "country": "ZW",
    "id": 892876,
    "coord": {
      "lat": -17.383329,
      "lon": 30.950001
    },
    "name": "Concession"
  },
  {
    "country": "ZW",
    "id": 1106398,
    "coord": {
      "lat": -17.858061,
      "lon": 31.03722
    },
    "name": "Mbare"
  },
  {
    "country": "ZW",
    "id": 892711,
    "coord": {
      "lat": -18.616671,
      "lon": 27.16667
    },
    "name": "Dahlia"
  },
  {
    "country": "ZW",
    "id": 886761,
    "coord": {
      "lat": -21,
      "lon": 31
    },
    "name": "Masvingo Province"
  },
  {
    "country": "ZW",
    "id": 886763,
    "coord": {
      "lat": -20.06373,
      "lon": 30.82766
    },
    "name": "Masvingo"
  },
  {
    "country": "ZW",
    "id": 894310,
    "coord": {
      "lat": -16.54977,
      "lon": 28.95179
    },
    "name": "Charara"
  },
  {
    "country": "ZW",
    "id": 1085511,
    "coord": {
      "lat": -17.89139,
      "lon": 31.116671
    },
    "name": "Dunowen"
  },
  {
    "country": "ZW",
    "id": 1085520,
    "coord": {
      "lat": -17.913059,
      "lon": 31.094721
    },
    "name": "Arlington"
  },
  {
    "country": "ZW",
    "id": 893485,
    "coord": {
      "lat": -21.049999,
      "lon": 31.66667
    },
    "name": "Chiredzi"
  },
  {
    "country": "ZW",
    "id": 893549,
    "coord": {
      "lat": -20.18833,
      "lon": 32.623638
    },
    "name": "Chipinge"
  },
  {
    "country": "ZW",
    "id": 1105960,
    "coord": {
      "lat": -20.051941,
      "lon": 28.58861
    },
    "name": "Umvutcha A"
  },
  {
    "country": "ZW",
    "id": 881331,
    "coord": {
      "lat": -19.783331,
      "lon": 29.366671
    },
    "name": "Shangani"
  },
  {
    "country": "ZW",
    "id": 881345,
    "coord": {
      "lat": -17.31159,
      "lon": 31.575609
    },
    "name": "Shamva"
  },
  {
    "country": "ZW",
    "id": 882722,
    "coord": {
      "lat": -17.033331,
      "lon": 30.433331
    },
    "name": "Raffingora"
  },
  {
    "country": "ZW",
    "id": 882859,
    "coord": {
      "lat": -20.48333,
      "lon": 27.816669
    },
    "name": "Plumtree"
  },
  {
    "country": "ZW",
    "id": 882955,
    "coord": {
      "lat": -18.891121,
      "lon": 32.697811
    },
    "name": "Penhalonga"
  },
  {
    "country": "ZW",
    "id": 883183,
    "coord": {
      "lat": -18.96167,
      "lon": 32.405571
    },
    "name": "Odzi"
  },
  {
    "country": "ZW",
    "id": 883258,
    "coord": {
      "lat": -18.70587,
      "lon": 32.167961
    },
    "name": "Nyazura"
  },
  {
    "country": "ZW",
    "id": 883481,
    "coord": {
      "lat": -18.216669,
      "lon": 32.75
    },
    "name": "Nyanga"
  },
  {
    "country": "ZW",
    "id": 884798,
    "coord": {
      "lat": -17.033331,
      "lon": 30.85
    },
    "name": "Mvurwi"
  },
  {
    "country": "ZW",
    "id": 884814,
    "coord": {
      "lat": -19.27924,
      "lon": 30.52828
    },
    "name": "Mvuma"
  },
  {
    "country": "ZW",
    "id": 884927,
    "coord": {
      "lat": -17.39699,
      "lon": 32.226768
    },
    "name": "Mutoko"
  },
  {
    "country": "ZW",
    "id": 885159,
    "coord": {
      "lat": -17.643221,
      "lon": 31.784
    },
    "name": "Murehwa"
  },
  {
    "country": "ZW",
    "id": 885800,
    "coord": {
      "lat": -16.772511,
      "lon": 31.583811
    },
    "name": "Mount Darwin"
  },
  {
    "country": "ZW",
    "id": 886146,
    "coord": {
      "lat": -16.89386,
      "lon": 30.16828
    },
    "name": "Mhangura"
  },
  {
    "country": "ZW",
    "id": 886384,
    "coord": {
      "lat": -17.50404,
      "lon": 30.973881
    },
    "name": "Mazoe"
  },
  {
    "country": "ZW",
    "id": 886864,
    "coord": {
      "lat": -20.03665,
      "lon": 30.48225
    },
    "name": "Mashava"
  },
  {
    "country": "ZW",
    "id": 888089,
    "coord": {
      "lat": -18.139009,
      "lon": 31.849331
    },
    "name": "Macheke"
  },
  {
    "country": "ZW",
    "id": 888225,
    "coord": {
      "lat": -18.93149,
      "lon": 27.806959
    },
    "name": "Lupane"
  },
  {
    "country": "ZW",
    "id": 888667,
    "coord": {
      "lat": -19.332251,
      "lon": 30.177679
    },
    "name": "Lalapanzi"
  },
  {
    "country": "ZW",
    "id": 889390,
    "coord": {
      "lat": -18.31563,
      "lon": 27.05728
    },
    "name": "Kamativi Mine"
  },
  {
    "country": "ZW",
    "id": 889723,
    "coord": {
      "lat": -19.675631,
      "lon": 28.84687
    },
    "name": "Inyathi"
  },
  {
    "country": "ZW",
    "id": 889795,
    "coord": {
      "lat": -19.783331,
      "lon": 29.200001
    },
    "name": "Insiza"
  },
  {
    "country": "ZW",
    "id": 890516,
    "coord": {
      "lat": -20.933331,
      "lon": 29
    },
    "name": "Gwanda"
  },
  {
    "country": "ZW",
    "id": 891515,
    "coord": {
      "lat": -20.533331,
      "lon": 29.285021
    },
    "name": "Filabusi"
  },
  {
    "country": "ZW",
    "id": 891699,
    "coord": {
      "lat": -20.289789,
      "lon": 28.922609
    },
    "name": "Esigodini"
  },
  {
    "country": "ZW",
    "id": 892156,
    "coord": {
      "lat": -19.066669,
      "lon": 31.75
    },
    "name": "Dorowa Mining Lease"
  },
  {
    "country": "ZW",
    "id": 892440,
    "coord": {
      "lat": -18.616671,
      "lon": 26.866671
    },
    "name": "Dete"
  },
  {
    "country": "ZW",
    "id": 893172,
    "coord": {
      "lat": -19.02112,
      "lon": 30.892179
    },
    "name": "Chivhu"
  },
  {
    "country": "ZW",
    "id": 893397,
    "coord": {
      "lat": -16.033331,
      "lon": 28.85
    },
    "name": "Chirundu"
  },
  {
    "country": "ZW",
    "id": 893813,
    "coord": {
      "lat": -19.799999,
      "lon": 32.866669
    },
    "name": "Chimanimani"
  },
  {
    "country": "ZW",
    "id": 894413,
    "coord": {
      "lat": -18.062941,
      "lon": 29.89246
    },
    "name": "Chakari"
  },
  {
    "country": "ZW",
    "id": 894460,
    "coord": {
      "lat": -16.722891,
      "lon": 31.11462
    },
    "name": "Centenary"
  },
  {
    "country": "ZW",
    "id": 895057,
    "coord": {
      "lat": -17.620279,
      "lon": 27.341391
    },
    "name": "Binga"
  },
  {
    "country": "ZW",
    "id": 895308,
    "coord": {
      "lat": -18.252831,
      "lon": 30.8473
    },
    "name": "Beatrice"
  },
  {
    "country": "ZW",
    "id": 895417,
    "coord": {
      "lat": -17.383329,
      "lon": 30.4
    },
    "name": "Banket"
  },
  {
    "country": "ZW",
    "id": 878676,
    "coord": {
      "lat": -20.26667,
      "lon": 30.91667
    },
    "name": "Zimbabwe"
  }

]