[

  {
    "country": "AE",
    "id": 291074,
    "coord": {
      "lat": 25.78953,
      "lon": 55.943199
    },
    "name": "Ras al Khaymah"
  },
  {
    "country": "AE",
    "id": 291696,
    "coord": {
      "lat": 25.33132,
      "lon": 56.341991
    },
    "name": "Khawr Fakkan"
  },
  {
    "country": "AE",
    "id": 292239,
    "coord": {
      "lat": 25.619551,
      "lon": 56.272911
    },
    "name": "Diba"
  },
  {
    "country": "AE",
    "id": 389287,
    "coord": {
      "lat": 24.26762,
      "lon": 54.561932
    },
    "name": "Al Muqaţţarah"
  },
  {
    "country": "AE",
    "id": 290595,
    "coord": {
      "lat": 25.5,
      "lon": 55.75
    },
    "name": "Umm al Qaywayn"
  },
  {
    "country": "AE",
    "id": 290594,
    "coord": {
      "lat": 25.56473,
      "lon": 55.555168
    },
    "name": "Umm al Qaywayn"
  },
  {
    "country": "AE",
    "id": 291279,
    "coord": {
      "lat": 23.143551,
      "lon": 53.788101
    },
    "name": "Muzayri"
  },
  {
    "country": "AE",
    "id": 290557,
    "coord": {
      "lat": 24,
      "lon": 54
    },
    "name": "United Arab Emirates"
  },
  {
    "country": "AE",
    "id": 292969,
    "coord": {
      "lat": 23.66667,
      "lon": 54
    },
    "name": "Abū Z̧aby"
  },
  {
    "country": "AE",
    "id": 290400,
    "coord": {
      "lat": 23.283331,
      "lon": 53.200001
    },
    "name": "Z̧uwayhir"
  },
  {
    "country": "AE",
    "id": 292968,
    "coord": {
      "lat": 24.466669,
      "lon": 54.366669
    },
    "name": "Abu Dhabi"
  },
  {
    "country": "AE",
    "id": 292673,
    "coord": {
      "lat": 25,
      "lon": 55.75
    },
    "name": "Ash Shāriqah"
  },
  {
    "country": "AE",
    "id": 292672,
    "coord": {
      "lat": 25.357309,
      "lon": 55.403301
    },
    "name": "Sharjah"
  },
  {
    "country": "AE",
    "id": 6691135,
    "coord": {
      "lat": 25.35985,
      "lon": 55.391911
    },
    "name": "Al Ghuwair"
  },
  {
    "country": "AE",
    "id": 292224,
    "coord": {
      "lat": 25,
      "lon": 55.333328
    },
    "name": "Dubayy"
  },
  {
    "country": "AE",
    "id": 292223,
    "coord": {
      "lat": 25.258169,
      "lon": 55.304722
    },
    "name": "Dubai"
  },
  {
    "country": "AE",
    "id": 290845,
    "coord": {
      "lat": 25.258329,
      "lon": 55.283329
    },
    "name": "Shandaghah"
  },
  {
    "country": "AE",
    "id": 292913,
    "coord": {
      "lat": 24.191669,
      "lon": 55.760559
    },
    "name": "Al Ayn"
  },
  {
    "country": "AE",
    "id": 292879,
    "coord": {
      "lat": 25.133329,
      "lon": 56.25
    },
    "name": "Al Fujayrah"
  },
  {
    "country": "AE",
    "id": 292878,
    "coord": {
      "lat": 25.116409,
      "lon": 56.341412
    },
    "name": "Al Fujayrah"
  },
  {
    "country": "AE",
    "id": 291110,
    "coord": {
      "lat": 25.34701,
      "lon": 56.35014
    },
    "name": "Rafā‘"
  },
  {
    "country": "AE",
    "id": 292766,
    "coord": {
      "lat": 24.24914,
      "lon": 55.745819
    },
    "name": "Al Qīmī"
  },
  {
    "country": "AE",
    "id": 292932,
    "coord": {
      "lat": 25.41111,
      "lon": 55.43504
    },
    "name": "Ajman"
  },
  {
    "country": "AE",
    "id": 6691204,
    "coord": {
      "lat": 25.34852,
      "lon": 55.46928
    },
    "name": "Muwafjah"
  },
  {
    "country": "AE",
    "id": 291075,
    "coord": {
      "lat": 25.66667,
      "lon": 56
    },
    "name": "Ra’s al Khaymah"
  },
  {
    "country": "AE",
    "id": 412516,
    "coord": {
      "lat": 25.611389,
      "lon": 55.90028
    },
    "name": "Al Ḩamrānīyah"
  },
  {
    "country": "AE",
    "id": 290624,
    "coord": {
      "lat": 25.016251,
      "lon": 55.45533
    },
    "name": "‘Ūd al Bayḑā’"
  },
  {
    "country": "AE",
    "id": 412578,
    "coord": {
      "lat": 25.26667,
      "lon": 55.366669
    },
    "name": "Aţ Ţuwār"
  },
  {
    "country": "AE",
    "id": 292836,
    "coord": {
      "lat": 24.25,
      "lon": 55.583328
    },
    "name": "Al Jaḩr"
  },
  {
    "country": "AE",
    "id": 8057179,
    "coord": {
      "lat": 24.437,
      "lon": 54.45343
    },
    "name": "Minţaqat al Maţār"
  },
  {
    "country": "AE",
    "id": 292688,
    "coord": {
      "lat": 24.110279,
      "lon": 52.73056
    },
    "name": "Ar Ruways"
  },
  {
    "country": "AE",
    "id": 292953,
    "coord": {
      "lat": 25.28812,
      "lon": 55.881569
    },
    "name": "Adh Dhayd"
  },
  {
    "country": "AE",
    "id": 8056564,
    "coord": {
      "lat": 24.432261,
      "lon": 54.423531
    },
    "name": "Al Amān"
  }

]