[

  {
    "country": "AR",
    "id": 3858204,
    "coord": {
      "lat": -24.1,
      "lon": -62.47662
    },
    "name": "El Destierro"
  },
  {
    "country": "AR",
    "id": 3428577,
    "coord": {
      "lat": -26.62207,
      "lon": -54.108421
    },
    "name": "San Pedro"
  },
  {
    "country": "AR",
    "id": 3866425,
    "coord": {
      "lat": -31.43722,
      "lon": -68.525558
    },
    "name": "Albardon"
  },
  {
    "country": "AR",
    "id": 3427454,
    "coord": {
      "lat": -30.79567,
      "lon": -57.912571
    },
    "name": "Villa del Rosario"
  },
  {
    "country": "AR",
    "id": 3429567,
    "coord": {
      "lat": -25.362089,
      "lon": -58.2775
    },
    "name": "Riacho Eh-Eh"
  },
  {
    "country": "AR",
    "id": 3429801,
    "coord": {
      "lat": -26.93173,
      "lon": -58.505379
    },
    "name": "Puerto Bermejo"
  },
  {
    "country": "AR",
    "id": 3430178,
    "coord": {
      "lat": -27.7237,
      "lon": -54.915138
    },
    "name": "Panambi"
  },
  {
    "country": "AR",
    "id": 3435525,
    "coord": {
      "lat": -27.5131,
      "lon": -55.608959
    },
    "name": "Cerro Cora"
  },
  {
    "country": "AR",
    "id": 3435765,
    "coord": {
      "lat": -27.461081,
      "lon": -55.019009
    },
    "name": "Campo Ramon"
  },
  {
    "country": "AR",
    "id": 3834403,
    "coord": {
      "lat": -23.57757,
      "lon": -65.350899
    },
    "name": "Tilcara"
  },
  {
    "country": "AR",
    "id": 3834814,
    "coord": {
      "lat": -26.852751,
      "lon": -65.709831
    },
    "name": "Tafi del Valle"
  },
  {
    "country": "AR",
    "id": 3834843,
    "coord": {
      "lat": -25.616671,
      "lon": -63.283329
    },
    "name": "Taco Pozo"
  },
  {
    "country": "AR",
    "id": 3835866,
    "coord": {
      "lat": -31.38731,
      "lon": -63.418209
    },
    "name": "Santiago Temple"
  },
  {
    "country": "AR",
    "id": 3837624,
    "coord": {
      "lat": -32.598251,
      "lon": -66.125389
    },
    "name": "San Francisco del Monte de Oro"
  },
  {
    "country": "AR",
    "id": 3837823,
    "coord": {
      "lat": -30.31053,
      "lon": -61.23724
    },
    "name": "San Cristobal"
  },
  {
    "country": "AR",
    "id": 3843436,
    "coord": {
      "lat": -26.73333,
      "lon": -60.616669
    },
    "name": "Napenay"
  },
  {
    "country": "AR",
    "id": 3843504,
    "coord": {
      "lat": -28.321039,
      "lon": -66.142532
    },
    "name": "Mutquin"
  },
  {
    "country": "AR",
    "id": 3845490,
    "coord": {
      "lat": -27.954821,
      "lon": -65.865501
    },
    "name": "Los Varela"
  },
  {
    "country": "AR",
    "id": 3860319,
    "coord": {
      "lat": -38.724232,
      "lon": -68.15284
    },
    "name": "Contraalmirante Cordero"
  },
  {
    "country": "AR",
    "id": 3860419,
    "coord": {
      "lat": -26.59926,
      "lon": -60.946171
    },
    "name": "Concepcion del Bermejo"
  },
  {
    "country": "AR",
    "id": 3860757,
    "coord": {
      "lat": -31.237459,
      "lon": -63.06134
    },
    "name": "Colonia La Tordilla"
  },
  {
    "country": "AR",
    "id": 3433359,
    "coord": {
      "lat": -34.655819,
      "lon": -58.65836
    },
    "name": "Ituzaingo"
  },
  {
    "country": "AR",
    "id": 3429959,
    "coord": {
      "lat": -34.533329,
      "lon": -58.75
    },
    "name": "Piñero"
  },
  {
    "country": "AR",
    "id": 3860289,
    "coord": {
      "lat": -26,
      "lon": -62.75
    },
    "name": "Departamento de Copo"
  },
  {
    "country": "AR",
    "id": 3843819,
    "coord": {
      "lat": -25.805651,
      "lon": -62.830189
    },
    "name": "Monte Quemado"
  },
  {
    "country": "AR",
    "id": 3862555,
    "coord": {
      "lat": -31.033331,
      "lon": -64.116669
    },
    "name": "Caroya"
  },
  {
    "country": "AR",
    "id": 3852125,
    "coord": {
      "lat": -33.951149,
      "lon": -62.972382
    },
    "name": "La Cesira"
  },
  {
    "country": "AR",
    "id": 3839096,
    "coord": {
      "lat": -32.1022,
      "lon": -68.601784
    },
    "name": "Retamito"
  },
  {
    "country": "AR",
    "id": 3427475,
    "coord": {
      "lat": -34.612598,
      "lon": -58.550468
    },
    "name": "Villa Alianza"
  },
  {
    "country": "AR",
    "id": 3429402,
    "coord": {
      "lat": -28.25,
      "lon": -58.75
    },
    "name": "Departamento de Saladas"
  },
  {
    "country": "AR",
    "id": 3433487,
    "coord": {
      "lat": -25.866671,
      "lon": -54.366669
    },
    "name": "Departamento de Iguazú"
  },
  {
    "country": "AR",
    "id": 3429949,
    "coord": {
      "lat": -25.732389,
      "lon": -59.108791
    },
    "name": "Pirane"
  },
  {
    "country": "AR",
    "id": 3436230,
    "coord": {
      "lat": -29.117611,
      "lon": -59.65834
    },
    "name": "Avellaneda"
  },
  {
    "country": "AR",
    "id": 3837124,
    "coord": {
      "lat": -30.789129,
      "lon": -60.591888
    },
    "name": "San Justo"
  },
  {
    "country": "AR",
    "id": 3853510,
    "coord": {
      "lat": -30.981529,
      "lon": -64.094238
    },
    "name": "Jesus Maria"
  },
  {
    "country": "AR",
    "id": 3855554,
    "coord": {
      "lat": -33.45937,
      "lon": -61.4832
    },
    "name": "Firmat"
  },
  {
    "country": "AR",
    "id": 3427273,
    "coord": {
      "lat": -29.019131,
      "lon": -58.908459
    },
    "name": "Yataity Calle"
  },
  {
    "country": "AR",
    "id": 3427279,
    "coord": {
      "lat": -29.469139,
      "lon": -56.818409
    },
    "name": "Yapeyu"
  },
  {
    "country": "AR",
    "id": 3427404,
    "coord": {
      "lat": -32.39727,
      "lon": -58.74596
    },
    "name": "Villa Mantero"
  },
  {
    "country": "AR",
    "id": 3427420,
    "coord": {
      "lat": -31.23101,
      "lon": -59.985001
    },
    "name": "Villa Hernandarias"
  },
  {
    "country": "AR",
    "id": 3427439,
    "coord": {
      "lat": -26.622089,
      "lon": -58.671341
    },
    "name": "Villa Escolar"
  },
  {
    "country": "AR",
    "id": 3427443,
    "coord": {
      "lat": -32.1632,
      "lon": -58.400822
    },
    "name": "Villa Elisa"
  },
  {
    "country": "AR",
    "id": 3427535,
    "coord": {
      "lat": -27.41667,
      "lon": -54.666672
    },
    "name": "Departamento de Veinticinco de Mayo"
  },
  {
    "country": "AR",
    "id": 3427537,
    "coord": {
      "lat": -27.376789,
      "lon": -54.743118
    },
    "name": "Veinticinco de Mayo"
  },
  {
    "country": "AR",
    "id": 3427593,
    "coord": {
      "lat": -31.793579,
      "lon": -58.313499
    },
    "name": "Ubajay"
  },
  {
    "country": "AR",
    "id": 3427659,
    "coord": {
      "lat": -28.006411,
      "lon": -55.60471
    },
    "name": "Tres Capones"
  },
  {
    "country": "AR",
    "id": 3427885,
    "coord": {
      "lat": -31.80135,
      "lon": -59.934769
    },
    "name": "Tabossi"
  },
  {
    "country": "AR",
    "id": 3427994,
    "coord": {
      "lat": -31.23794,
      "lon": -59.218719
    },
    "name": "Sauce de Luna"
  },
  {
    "country": "AR",
    "id": 3428079,
    "coord": {
      "lat": -27.141319,
      "lon": -55.408669
    },
    "name": "Santo Pipo"
  },
  {
    "country": "AR",
    "id": 3428182,
    "coord": {
      "lat": -28.26318,
      "lon": -58.118912
    },
    "name": "Santa Rosa"
  },
  {
    "country": "AR",
    "id": 3428264,
    "coord": {
      "lat": -27.903561,
      "lon": -55.38541
    },
    "name": "Santa Maria"
  },
  {
    "country": "AR",
    "id": 3428424,
    "coord": {
      "lat": -32.174759,
      "lon": -58.786221
    },
    "name": "Santa Anita"
  },
  {
    "country": "AR",
    "id": 3428453,
    "coord": {
      "lat": -30.90004,
      "lon": -57.931622
    },
    "name": "Santa Ana"
  },
  {
    "country": "AR",
    "id": 3428638,
    "coord": {
      "lat": -27.91667,
      "lon": -57.5
    },
    "name": "Departamento de San Miguel"
  },
  {
    "country": "AR",
    "id": 3428644,
    "coord": {
      "lat": -27.99585,
      "lon": -57.589642
    },
    "name": "San Miguel"
  },
  {
    "country": "AR",
    "id": 3428776,
    "coord": {
      "lat": -32.446541,
      "lon": -58.435692
    },
    "name": "San Justo"
  },
  {
    "country": "AR",
    "id": 3428928,
    "coord": {
      "lat": -27.769791,
      "lon": -55.7826
    },
    "name": "San Jose"
  },
  {
    "country": "AR",
    "id": 3429054,
    "coord": {
      "lat": -26.24262,
      "lon": -58.63039
    },
    "name": "San Francisco de Laishi"
  },
  {
    "country": "AR",
    "id": 3429210,
    "coord": {
      "lat": -27.745859,
      "lon": -55.897301
    },
    "name": "San Carlos"
  },
  {
    "country": "AR",
    "id": 3429426,
    "coord": {
      "lat": -26.98333,
      "lon": -55.049999
    },
    "name": "Ruiz de Montoya"
  },
  {
    "country": "AR",
    "id": 3429560,
    "coord": {
      "lat": -27.577539,
      "lon": -58.739449
    },
    "name": "Riachuelo"
  },
  {
    "country": "AR",
    "id": 3429710,
    "coord": {
      "lat": -31.53713,
      "lon": -58.01527
    },
    "name": "Puerto Yerua"
  },
  {
    "country": "AR",
    "id": 3429764,
    "coord": {
      "lat": -25.91641,
      "lon": -54.620892
    },
    "name": "Puerto Libertad"
  },
  {
    "country": "AR",
    "id": 3429765,
    "coord": {
      "lat": -26.96069,
      "lon": -55.165699
    },
    "name": "Puerto Leoni"
  },
  {
    "country": "AR",
    "id": 3429820,
    "coord": {
      "lat": -30.220869,
      "lon": -59.389809
    },
    "name": "Pueblo Libertador"
  },
  {
    "country": "AR",
    "id": 3429843,
    "coord": {
      "lat": -32.346169,
      "lon": -58.432869
    },
    "name": "Pronunciamiento"
  },
  {
    "country": "AR",
    "id": 3429864,
    "coord": {
      "lat": -26.1409,
      "lon": -59.595409
    },
    "name": "Presidencia Roca"
  },
  {
    "country": "AR",
    "id": 3429971,
    "coord": {
      "lat": -37.107941,
      "lon": -56.861401
    },
    "name": "Pinamar"
  },
  {
    "country": "AR",
    "id": 3429996,
    "coord": {
      "lat": -31.18623,
      "lon": -59.959572
    },
    "name": "Piedras Blancas"
  },
  {
    "country": "AR",
    "id": 3430029,
    "coord": {
      "lat": -29.34132,
      "lon": -58.610592
    },
    "name": "Perugorria"
  },
  {
    "country": "AR",
    "id": 3430064,
    "coord": {
      "lat": -28.750971,
      "lon": -58.65583
    },
    "name": "Pedro R. Fernandez"
  },
  {
    "country": "AR",
    "id": 3430105,
    "coord": {
      "lat": -27.316759,
      "lon": -58.571972
    },
    "name": "Paso de la Patria"
  },
  {
    "country": "AR",
    "id": 3430182,
    "coord": {
      "lat": -26.700001,
      "lon": -59.133331
    },
    "name": "Pampa Almiron"
  },
  {
    "country": "AR",
    "id": 3430186,
    "coord": {
      "lat": -25.56332,
      "lon": -59.337811
    },
    "name": "Palo Santo"
  },
  {
    "country": "AR",
    "id": 3430219,
    "coord": {
      "lat": -27.94195,
      "lon": -57.90057
    },
    "name": "Palmar Grande"
  },
  {
    "country": "AR",
    "id": 3430383,
    "coord": {
      "lat": -28.840509,
      "lon": -58.8265
    },
    "name": "Nueve de Julio"
  },
  {
    "country": "AR",
    "id": 3430402,
    "coord": {
      "lat": -27.750719,
      "lon": -57.620731
    },
    "name": "Nuestra Senora del Rosario de Caa Cati"
  },
  {
    "country": "AR",
    "id": 3430631,
    "coord": {
      "lat": -27.711639,
      "lon": -55.156311
    },
    "name": "Mojon Grande"
  },
  {
    "country": "AR",
    "id": 3430759,
    "coord": {
      "lat": -28,
      "lon": -58.25
    },
    "name": "Departamento de Mburucuyá"
  },
  {
    "country": "AR",
    "id": 3430760,
    "coord": {
      "lat": -28.045389,
      "lon": -58.224491
    },
    "name": "Mburucuya"
  },
  {
    "country": "AR",
    "id": 3430798,
    "coord": {
      "lat": -27.433331,
      "lon": -55.383331
    },
    "name": "Martires"
  },
  {
    "country": "AR",
    "id": 3430836,
    "coord": {
      "lat": -29.37668,
      "lon": -58.194359
    },
    "name": "Mariano I. Loza"
  },
  {
    "country": "AR",
    "id": 3431161,
    "coord": {
      "lat": -27.5576,
      "lon": -55.076832
    },
    "name": "Los Helechos"
  },
  {
    "country": "AR",
    "id": 3431184,
    "coord": {
      "lat": -30.590799,
      "lon": -58.467731
    },
    "name": "Los Conquistadores"
  },
  {
    "country": "AR",
    "id": 3431188,
    "coord": {
      "lat": -31.17548,
      "lon": -58.18774
    },
    "name": "Los Charruas"
  },
  {
    "country": "AR",
    "id": 3431244,
    "coord": {
      "lat": -27.768339,
      "lon": -57.275311
    },
    "name": "Loreto"
  },
  {
    "country": "AR",
    "id": 3431245,
    "coord": {
      "lat": -27.336349,
      "lon": -55.522251
    },
    "name": "Loreto"
  },
  {
    "country": "AR",
    "id": 3431272,
    "coord": {
      "lat": -27.73501,
      "lon": -57.918499
    },
    "name": "Lomas de Vallejos"
  },
  {
    "country": "AR",
    "id": 3431367,
    "coord": {
      "lat": -30.042999,
      "lon": -57.820202
    },
    "name": "Libertad"
  },
  {
    "country": "AR",
    "id": 3431460,
    "coord": {
      "lat": -27.126341,
      "lon": -59.37352
    },
    "name": "La Verde"
  },
  {
    "country": "AR",
    "id": 3431777,
    "coord": {
      "lat": -26.58333,
      "lon": -59.799999
    },
    "name": "Las Garcitas"
  },
  {
    "country": "AR",
    "id": 3431916,
    "coord": {
      "lat": -33.03595,
      "lon": -59.001251
    },
    "name": "Larroque"
  },
  {
    "country": "AR",
    "id": 3432122,
    "coord": {
      "lat": -27.159981,
      "lon": -59.38604
    },
    "name": "Lapachito"
  },
  {
    "country": "AR",
    "id": 3432463,
    "coord": {
      "lat": -25.24769,
      "lon": -58.09383
    },
    "name": "Laguna Naick-Neck"
  },
  {
    "country": "AR",
    "id": 3432466,
    "coord": {
      "lat": -26.495649,
      "lon": -59.680828
    },
    "name": "Laguna Limpia"
  },
  {
    "country": "AR",
    "id": 3432653,
    "coord": {
      "lat": -27.107241,
      "lon": -59.447842
    },
    "name": "La Escondida"
  },
  {
    "country": "AR",
    "id": 3432707,
    "coord": {
      "lat": -26.85545,
      "lon": -59.06842
    },
    "name": "La Eduvigis"
  },
  {
    "country": "AR",
    "id": 3432760,
    "coord": {
      "lat": -29.174431,
      "lon": -56.643261
    },
    "name": "La Cruz"
  },
  {
    "country": "AR",
    "id": 3432768,
    "coord": {
      "lat": -31.269039,
      "lon": -58.105579
    },
    "name": "La Criolla"
  },
  {
    "country": "AR",
    "id": 3433291,
    "coord": {
      "lat": -30.41873,
      "lon": -57.856121
    },
    "name": "Juan Pujol"
  },
  {
    "country": "AR",
    "id": 3433373,
    "coord": {
      "lat": -27.42573,
      "lon": -57.337582
    },
    "name": "Ita Ibate"
  },
  {
    "country": "AR",
    "id": 3433513,
    "coord": {
      "lat": -25.21438,
      "lon": -59.858509
    },
    "name": "Ibarreta"
  },
  {
    "country": "AR",
    "id": 3433567,
    "coord": {
      "lat": -26.487049,
      "lon": -58.311981
    },
    "name": "Herradura"
  },
  {
    "country": "AR",
    "id": 3433575,
    "coord": {
      "lat": -27.565161,
      "lon": -58.255569
    },
    "name": "Herlitzka"
  },
  {
    "country": "AR",
    "id": 3433743,
    "coord": {
      "lat": -27.186359,
      "lon": -55.464329
    },
    "name": "Gobernador Roca"
  },
  {
    "country": "AR",
    "id": 3433747,
    "coord": {
      "lat": -32.544529,
      "lon": -59.354801
    },
    "name": "Gobernador Mansilla"
  },
  {
    "country": "AR",
    "id": 3433751,
    "coord": {
      "lat": -28.917049,
      "lon": -58.932919
    },
    "name": "Gobernador Juan E. Martinez"
  },
  {
    "country": "AR",
    "id": 3433773,
    "coord": {
      "lat": -26.933821,
      "lon": -58.6604
    },
    "name": "General Vedia"
  },
  {
    "country": "AR",
    "id": 3433809,
    "coord": {
      "lat": -32.720341,
      "lon": -59.396149
    },
    "name": "General Galarza"
  },
  {
    "country": "AR",
    "id": 3433815,
    "coord": {
      "lat": -31.523109,
      "lon": -58.4049
    },
    "name": "General Campos"
  },
  {
    "country": "AR",
    "id": 3433820,
    "coord": {
      "lat": -27.433331,
      "lon": -55.166672
    },
    "name": "General Alvear"
  },
  {
    "country": "AR",
    "id": 3433839,
    "coord": {
      "lat": -26.81768,
      "lon": -54.956638
    },
    "name": "Garuhape"
  },
  {
    "country": "AR",
    "id": 3433842,
    "coord": {
      "lat": -28.185141,
      "lon": -55.639469
    },
    "name": "Garruchos"
  },
  {
    "country": "AR",
    "id": 3433919,
    "coord": {
      "lat": -27.566669,
      "lon": -55.133331
    },
    "name": "Florentino Ameghino"
  },
  {
    "country": "AR",
    "id": 3433944,
    "coord": {
      "lat": -29.102261,
      "lon": -58.337719
    },
    "name": "Felipe Yofre"
  },
  {
    "country": "AR",
    "id": 3434932,
    "coord": {
      "lat": -26.71459,
      "lon": -54.815231
    },
    "name": "El Alcazar"
  },
  {
    "country": "AR",
    "id": 3434995,
    "coord": {
      "lat": -27.02277,
      "lon": -54.686691
    },
    "name": "Dos de Mayo"
  },
  {
    "country": "AR",
    "id": 3434997,
    "coord": {
      "lat": -27.70784,
      "lon": -55.233639
    },
    "name": "Dos Arroyos"
  },
  {
    "country": "AR",
    "id": 3435030,
    "coord": {
      "lat": -31.987101,
      "lon": -58.961971
    },
    "name": "Dominguez"
  },
  {
    "country": "AR",
    "id": 3435178,
    "coord": {
      "lat": -28.83646,
      "lon": -59.004761
    },
    "name": "Cruz de los Milagros"
  },
  {
    "country": "AR",
    "id": 3435196,
    "coord": {
      "lat": -27.5,
      "lon": -59.599998
    },
    "name": "Cote-Lai"
  },
  {
    "country": "AR",
    "id": 3435258,
    "coord": {
      "lat": -31.04837,
      "lon": -59.084351
    },
    "name": "Conscripto Bernardi"
  },
  {
    "country": "AR",
    "id": 3435269,
    "coord": {
      "lat": -28.33333,
      "lon": -58
    },
    "name": "Departamento de Concepción"
  },
  {
    "country": "AR",
    "id": 3435273,
    "coord": {
      "lat": -28.39175,
      "lon": -57.887772
    },
    "name": "Concepcion"
  },
  {
    "country": "AR",
    "id": 3435283,
    "coord": {
      "lat": -25.33453,
      "lon": -59.682121
    },
    "name": "Comandante Fontana"
  },
  {
    "country": "AR",
    "id": 3435290,
    "coord": {
      "lat": -25.974079,
      "lon": -54.428059
    },
    "name": "Colonia Wanda"
  },
  {
    "country": "AR",
    "id": 3435295,
    "coord": {
      "lat": -26.69825,
      "lon": -59.631538
    },
    "name": "Colonias Unidas"
  },
  {
    "country": "AR",
    "id": 3435330,
    "coord": {
      "lat": -26.93041,
      "lon": -59.518608
    },
    "name": "Colonia Elisa"
  },
  {
    "country": "AR",
    "id": 3435331,
    "coord": {
      "lat": -32.666248,
      "lon": -58.32148
    },
    "name": "Colonia Elia"
  },
  {
    "country": "AR",
    "id": 3435344,
    "coord": {
      "lat": -27.474279,
      "lon": -54.524979
    },
    "name": "Colonia Aurora"
  },
  {
    "country": "AR",
    "id": 3435399,
    "coord": {
      "lat": -26.58041,
      "lon": -59.630939
    },
    "name": "Ciervo Petiso"
  },
  {
    "country": "AR",
    "id": 3435444,
    "coord": {
      "lat": -28.95488,
      "lon": -58.572769
    },
    "name": "Chavarria"
  },
  {
    "country": "AR",
    "id": 3435453,
    "coord": {
      "lat": -27.633329,
      "lon": -59.900002
    },
    "name": "Charadai"
  },
  {
    "country": "AR",
    "id": 3435570,
    "coord": {
      "lat": -33.433331,
      "lon": -58.75
    },
    "name": "Ceibas"
  },
  {
    "country": "AR",
    "id": 3435612,
    "coord": {
      "lat": -32.463249,
      "lon": -58.478722
    },
    "name": "Caseros"
  },
  {
    "country": "AR",
    "id": 3435679,
    "coord": {
      "lat": -26.605869,
      "lon": -54.78093
    },
    "name": "Caraguatay"
  },
  {
    "country": "AR",
    "id": 3435688,
    "coord": {
      "lat": -26.802151,
      "lon": -59.56089
    },
    "name": "Capitan Solari"
  },
  {
    "country": "AR",
    "id": 3435701,
    "coord": {
      "lat": -26.929979,
      "lon": -55.060841
    },
    "name": "Capiovi"
  },
  {
    "country": "AR",
    "id": 3435789,
    "coord": {
      "lat": -27.207701,
      "lon": -54.979771
    },
    "name": "Campo Grande"
  },
  {
    "country": "AR",
    "id": 3435988,
    "coord": {
      "lat": -29.823971,
      "lon": -57.431461
    },
    "name": "Bonpland"
  },
  {
    "country": "AR",
    "id": 3435989,
    "coord": {
      "lat": -27.48218,
      "lon": -55.477558
    },
    "name": "Bonpland"
  },
  {
    "country": "AR",
    "id": 3436100,
    "coord": {
      "lat": -27.866671,
      "lon": -59.299999
    },
    "name": "Basail"
  },
  {
    "country": "AR",
    "id": 3436205,
    "coord": {
      "lat": -28.0616,
      "lon": -55.677971
    },
    "name": "Azara"
  },
  {
    "country": "AR",
    "id": 3436267,
    "coord": {
      "lat": -27.700001,
      "lon": -55.416672
    },
    "name": "Arroyo del Medio"
  },
  {
    "country": "AR",
    "id": 3436370,
    "coord": {
      "lat": -29.09683,
      "lon": -56.55043
    },
    "name": "Alvear"
  },
  {
    "country": "AR",
    "id": 3436398,
    "coord": {
      "lat": -27.50518,
      "lon": -55.39497
    },
    "name": "Almafuerte"
  },
  {
    "country": "AR",
    "id": 3436433,
    "coord": {
      "lat": -32.62376,
      "lon": -58.703331
    },
    "name": "Aldea San Antonio"
  },
  {
    "country": "AR",
    "id": 3436448,
    "coord": {
      "lat": -27.56978,
      "lon": -54.682621
    },
    "name": "Alba Posse"
  },
  {
    "country": "AR",
    "id": 3480740,
    "coord": {
      "lat": -34.917221,
      "lon": -58.38694
    },
    "name": "Guernica"
  },
  {
    "country": "AR",
    "id": 3832189,
    "coord": {
      "lat": -23.643419,
      "lon": -64.471939
    },
    "name": "Yuto"
  },
  {
    "country": "AR",
    "id": 3832398,
    "coord": {
      "lat": -33.173031,
      "lon": -62.770779
    },
    "name": "Wenceslao Escalante"
  },
  {
    "country": "AR",
    "id": 3832518,
    "coord": {
      "lat": -38.75,
      "lon": -68.183327
    },
    "name": "Vista Alegre"
  },
  {
    "country": "AR",
    "id": 3832560,
    "coord": {
      "lat": -28.75964,
      "lon": -68.206917
    },
    "name": "Vinchina"
  },
  {
    "country": "AR",
    "id": 3832602,
    "coord": {
      "lat": -34.340931,
      "lon": -64.920303
    },
    "name": "Villa Valeria"
  },
  {
    "country": "AR",
    "id": 3832603,
    "coord": {
      "lat": -31.64731,
      "lon": -60.374802
    },
    "name": "Villa Urquiza"
  },
  {
    "country": "AR",
    "id": 3832648,
    "coord": {
      "lat": -33.20105,
      "lon": -63.862339
    },
    "name": "Villa Reduccion"
  },
  {
    "country": "AR",
    "id": 3832658,
    "coord": {
      "lat": -29.500031,
      "lon": -63.693771
    },
    "name": "Villa Ojo de Agua"
  },
  {
    "country": "AR",
    "id": 3832705,
    "coord": {
      "lat": -31.950211,
      "lon": -65.053543
    },
    "name": "Villa Las Rosas"
  },
  {
    "country": "AR",
    "id": 3832733,
    "coord": {
      "lat": -29.143101,
      "lon": -62.652481
    },
    "name": "Villa General Mitre"
  },
  {
    "country": "AR",
    "id": 3832769,
    "coord": {
      "lat": -32.17667,
      "lon": -64.455429
    },
    "name": "Villa del Dique"
  },
  {
    "country": "AR",
    "id": 3832773,
    "coord": {
      "lat": -31.70578,
      "lon": -65.01796
    },
    "name": "Villa Cura Brochero"
  },
  {
    "country": "AR",
    "id": 3832779,
    "coord": {
      "lat": -31.32259,
      "lon": -62.813541
    },
    "name": "Villa Concepcion del Tio"
  },
  {
    "country": "AR",
    "id": 3832795,
    "coord": {
      "lat": -29.28356,
      "lon": -67.022491
    },
    "name": "Villa Bustos"
  },
  {
    "country": "AR",
    "id": 3832917,
    "coord": {
      "lat": -33.919651,
      "lon": -64.392151
    },
    "name": "Vicuna Mackenna"
  },
  {
    "country": "AR",
    "id": 3832957,
    "coord": {
      "lat": -33.746471,
      "lon": -63.097641
    },
    "name": "Viamonte"
  },
  {
    "country": "AR",
    "id": 3833283,
    "coord": {
      "lat": -40.700001,
      "lon": -66.150002
    },
    "name": "Valcheta"
  },
  {
    "country": "AR",
    "id": 3833391,
    "coord": {
      "lat": -36.506821,
      "lon": -63.862259
    },
    "name": "Uriburu"
  },
  {
    "country": "AR",
    "id": 3833424,
    "coord": {
      "lat": -35.152821,
      "lon": -65.946022
    },
    "name": "Union"
  },
  {
    "country": "AR",
    "id": 3834251,
    "coord": {
      "lat": -31.55574,
      "lon": -64.009468
    },
    "name": "Toledo"
  },
  {
    "country": "AR",
    "id": 3834352,
    "coord": {
      "lat": -27.033331,
      "lon": -62.716671
    },
    "name": "Tintina"
  },
  {
    "country": "AR",
    "id": 3834361,
    "coord": {
      "lat": -28.06319,
      "lon": -67.56488
    },
    "name": "Tinogasta"
  },
  {
    "country": "AR",
    "id": 3834402,
    "coord": {
      "lat": -23.5,
      "lon": -65.333328
    },
    "name": "Departamento de Tilcara"
  },
  {
    "country": "AR",
    "id": 3834542,
    "coord": {
      "lat": -36.26429,
      "lon": -65.510178
    },
    "name": "Telen"
  },
  {
    "country": "AR",
    "id": 3834961,
    "coord": {
      "lat": -27.933571,
      "lon": -63.429379
    },
    "name": "Suncho Corral"
  },
  {
    "country": "AR",
    "id": 3834985,
    "coord": {
      "lat": -29.384701,
      "lon": -63.469059
    },
    "name": "Sumampa"
  },
  {
    "country": "AR",
    "id": 3835304,
    "coord": {
      "lat": -40.584869,
      "lon": -67.756737
    },
    "name": "Sierra Colorada"
  },
  {
    "country": "AR",
    "id": 3835348,
    "coord": {
      "lat": -30.637609,
      "lon": -65.386917
    },
    "name": "Serrezuela"
  },
  {
    "country": "AR",
    "id": 3835582,
    "coord": {
      "lat": -30.161051,
      "lon": -63.593601
    },
    "name": "Sebastian Elcano"
  },
  {
    "country": "AR",
    "id": 3835691,
    "coord": {
      "lat": -31.702869,
      "lon": -62.482021
    },
    "name": "Saturnino M. Laspiur"
  },
  {
    "country": "AR",
    "id": 3835937,
    "coord": {
      "lat": -24.45166,
      "lon": -65.974518
    },
    "name": "Santa Rosa de Tastil"
  },
  {
    "country": "AR",
    "id": 3835941,
    "coord": {
      "lat": -32.342861,
      "lon": -65.203232
    },
    "name": "Santa Rosa del Conlara"
  },
  {
    "country": "AR",
    "id": 3836238,
    "coord": {
      "lat": -36.227242,
      "lon": -66.942398
    },
    "name": "Santa Isabel"
  },
  {
    "country": "AR",
    "id": 3836284,
    "coord": {
      "lat": -33.176579,
      "lon": -63.28281
    },
    "name": "Santa Eufemia"
  },
  {
    "country": "AR",
    "id": 3836407,
    "coord": {
      "lat": -24.30921,
      "lon": -64.662529
    },
    "name": "Santa Clara"
  },
  {
    "country": "AR",
    "id": 3854499,
    "coord": {
      "lat": -28,
      "lon": -64.833328
    },
    "name": "Departamento de Guasayán"
  },
  {
    "country": "AR",
    "id": 3836769,
    "coord": {
      "lat": -27.953859,
      "lon": -65.166496
    },
    "name": "San Pedro"
  },
  {
    "country": "AR",
    "id": 3836985,
    "coord": {
      "lat": -31.5,
      "lon": -68.25
    },
    "name": "Departamento de San Martín"
  },
  {
    "country": "AR",
    "id": 3836993,
    "coord": {
      "lat": -31.515989,
      "lon": -68.35273
    },
    "name": "San Martin"
  },
  {
    "country": "AR",
    "id": 3837239,
    "coord": {
      "lat": -30.354401,
      "lon": -63.948719
    },
    "name": "San Jose de la Dormida"
  },
  {
    "country": "AR",
    "id": 3837625,
    "coord": {
      "lat": -29.789909,
      "lon": -63.93861
    },
    "name": "San Francisco del Chanar"
  },
  {
    "country": "AR",
    "id": 3837821,
    "coord": {
      "lat": -30.33333,
      "lon": -61.333328
    },
    "name": "Departamento de San Cristóbal"
  },
  {
    "country": "AR",
    "id": 3844209,
    "coord": {
      "lat": -31,
      "lon": -65.333328
    },
    "name": "Departamento de Minas"
  },
  {
    "country": "AR",
    "id": 3837893,
    "coord": {
      "lat": -31.17761,
      "lon": -65.102448
    },
    "name": "San Carlos"
  },
  {
    "country": "AR",
    "id": 3837943,
    "coord": {
      "lat": -27.287821,
      "lon": -60.712521
    },
    "name": "San Bernardo"
  },
  {
    "country": "AR",
    "id": 3837985,
    "coord": {
      "lat": -24.21804,
      "lon": -66.318771
    },
    "name": "San Antonio de los Cobres"
  },
  {
    "country": "AR",
    "id": 3842418,
    "coord": {
      "lat": -28.08333,
      "lon": -65.666672
    },
    "name": "Departamento de Paclín"
  },
  {
    "country": "AR",
    "id": 3838057,
    "coord": {
      "lat": -28.00927,
      "lon": -65.712181
    },
    "name": "San Antonio"
  },
  {
    "country": "AR",
    "id": 3838158,
    "coord": {
      "lat": -30.63353,
      "lon": -67.468208
    },
    "name": "San Agustin de Valle Fertil"
  },
  {
    "country": "AR",
    "id": 3838174,
    "coord": {
      "lat": -31.97681,
      "lon": -64.374001
    },
    "name": "San Agustin"
  },
  {
    "country": "AR",
    "id": 3838194,
    "coord": {
      "lat": -27.52116,
      "lon": -60.39167
    },
    "name": "Samuhu"
  },
  {
    "country": "AR",
    "id": 3838235,
    "coord": {
      "lat": -31.137239,
      "lon": -64.295891
    },
    "name": "Salsipuedes"
  },
  {
    "country": "AR",
    "id": 3838237,
    "coord": {
      "lat": -31.31649,
      "lon": -65.085289
    },
    "name": "Salsacate"
  },
  {
    "country": "AR",
    "id": 3838460,
    "coord": {
      "lat": -31.663,
      "lon": -63.045052
    },
    "name": "Sacanta"
  },
  {
    "country": "AR",
    "id": 3838826,
    "coord": {
      "lat": -44.179039,
      "lon": -71.368469
    },
    "name": "Rio Pico"
  },
  {
    "country": "AR",
    "id": 3839381,
    "coord": {
      "lat": -35.068619,
      "lon": -64.681068
    },
    "name": "Rancul"
  },
  {
    "country": "AR",
    "id": 3839482,
    "coord": {
      "lat": -45.933331,
      "lon": -67.533333
    },
    "name": "Rada Tilly"
  },
  {
    "country": "AR",
    "id": 3840159,
    "coord": {
      "lat": -27.23,
      "lon": -66.936348
    },
    "name": "Puerta de Corral Quemado"
  },
  {
    "country": "AR",
    "id": 3840432,
    "coord": {
      "lat": -24.89682,
      "lon": -60.323589
    },
    "name": "Pozo del Tigre"
  },
  {
    "country": "AR",
    "id": 3840470,
    "coord": {
      "lat": -32.0186,
      "lon": -62.919842
    },
    "name": "Pozo del Molle"
  },
  {
    "country": "AR",
    "id": 3840808,
    "coord": {
      "lat": -28.25,
      "lon": -66.416672
    },
    "name": "Departamento de Pomán"
  },
  {
    "country": "AR",
    "id": 3840809,
    "coord": {
      "lat": -28.39455,
      "lon": -66.22052
    },
    "name": "Poman"
  },
  {
    "country": "AR",
    "id": 3841035,
    "coord": {
      "lat": -31.30158,
      "lon": -63.757881
    },
    "name": "Piquillin"
  },
  {
    "country": "AR",
    "id": 3841143,
    "coord": {
      "lat": -41.118809,
      "lon": -70.729141
    },
    "name": "Pilcaniyeu"
  },
  {
    "country": "AR",
    "id": 3841149,
    "coord": {
      "lat": -31.6789,
      "lon": -63.879639
    },
    "name": "Pilar"
  },
  {
    "country": "AR",
    "id": 3841232,
    "coord": {
      "lat": -40.048111,
      "lon": -70.074097
    },
    "name": "Piedra del Aguila"
  },
  {
    "country": "AR",
    "id": 3841912,
    "coord": {
      "lat": -33.1255,
      "lon": -63.04084
    },
    "name": "Pascanas"
  },
  {
    "country": "AR",
    "id": 3842140,
    "coord": {
      "lat": -26.23333,
      "lon": -61.849998
    },
    "name": "Pampa de los Guanacos"
  },
  {
    "country": "AR",
    "id": 3842142,
    "coord": {
      "lat": -26.505171,
      "lon": -61.174358
    },
    "name": "Pampa del Infierno"
  },
  {
    "country": "AR",
    "id": 3842268,
    "coord": {
      "lat": -23.96336,
      "lon": -64.298721
    },
    "name": "Palma Sola"
  },
  {
    "country": "AR",
    "id": 3842593,
    "coord": {
      "lat": -32.840569,
      "lon": -62.86552
    },
    "name": "Ordonez"
  },
  {
    "country": "AR",
    "id": 3842662,
    "coord": {
      "lat": -32.04158,
      "lon": -63.569778
    },
    "name": "Oliva"
  },
  {
    "country": "AR",
    "id": 3842876,
    "coord": {
      "lat": -31.66667,
      "lon": -68.416672
    },
    "name": "Departamento de Nueve de Julio"
  },
  {
    "country": "AR",
    "id": 3842882,
    "coord": {
      "lat": -31.66914,
      "lon": -68.390228
    },
    "name": "Nueve de Julio"
  },
  {
    "country": "AR",
    "id": 3843407,
    "coord": {
      "lat": -32.916561,
      "lon": -65.375351
    },
    "name": "Naschel"
  },
  {
    "country": "AR",
    "id": 3843647,
    "coord": {
      "lat": -32.594799,
      "lon": -62.834549
    },
    "name": "Morrison"
  },
  {
    "country": "AR",
    "id": 3860201,
    "coord": {
      "lat": -38.833328,
      "lon": -61.833328
    },
    "name": "Partido de Coronel Rosales"
  },
  {
    "country": "AR",
    "id": 3843843,
    "coord": {
      "lat": -38.982498,
      "lon": -61.29472
    },
    "name": "Monte Hermoso"
  },
  {
    "country": "AR",
    "id": 3844159,
    "coord": {
      "lat": -30.918579,
      "lon": -62.678139
    },
    "name": "Miramar"
  },
  {
    "country": "AR",
    "id": 3844377,
    "coord": {
      "lat": -32.34288,
      "lon": -65.013962
    },
    "name": "Merlo"
  },
  {
    "country": "AR",
    "id": 3844832,
    "coord": {
      "lat": -38.75029,
      "lon": -70.023666
    },
    "name": "Mariano Moreno"
  },
  {
    "country": "AR",
    "id": 3845073,
    "coord": {
      "lat": -31.383329,
      "lon": -64.066673
    },
    "name": "Malvinas Argentinas"
  },
  {
    "country": "AR",
    "id": 3845254,
    "coord": {
      "lat": -23.62392,
      "lon": -65.407967
    },
    "name": "Maimara"
  },
  {
    "country": "AR",
    "id": 3845398,
    "coord": {
      "lat": -32.375702,
      "lon": -65.929604
    },
    "name": "Lujan"
  },
  {
    "country": "AR",
    "id": 3845549,
    "coord": {
      "lat": -28.984791,
      "lon": -63.448891
    },
    "name": "Los Telares"
  },
  {
    "country": "AR",
    "id": 3845977,
    "coord": {
      "lat": -40.844021,
      "lon": -68.087181
    },
    "name": "Los Menucos"
  },
  {
    "country": "AR",
    "id": 3846175,
    "coord": {
      "lat": -26.4077,
      "lon": -61.413681
    },
    "name": "Los Frentones"
  },
  {
    "country": "AR",
    "id": 3846514,
    "coord": {
      "lat": -28.04845,
      "lon": -65.499458
    },
    "name": "Los Altos"
  },
  {
    "country": "AR",
    "id": 3846610,
    "coord": {
      "lat": -36.465462,
      "lon": -63.62429
    },
    "name": "Lonquimay"
  },
  {
    "country": "AR",
    "id": 3846616,
    "coord": {
      "lat": -27.71439,
      "lon": -67.133492
    },
    "name": "Londres"
  },
  {
    "country": "AR",
    "id": 3846632,
    "coord": {
      "lat": -38.083328,
      "lon": -70.333328
    },
    "name": "Departamento de Loncopué"
  },
  {
    "country": "AR",
    "id": 3846634,
    "coord": {
      "lat": -38.072842,
      "lon": -70.616089
    },
    "name": "Loncopue"
  },
  {
    "country": "AR",
    "id": 3847482,
    "coord": {
      "lat": -33.052582,
      "lon": -65.623848
    },
    "name": "La Toma"
  },
  {
    "country": "AR",
    "id": 3847516,
    "coord": {
      "lat": -27.109961,
      "lon": -60.587189
    },
    "name": "La Tigra"
  },
  {
    "country": "AR",
    "id": 3847836,
    "coord": {
      "lat": -32.476608,
      "lon": -61.58041
    },
    "name": "Las Rosas"
  },
  {
    "country": "AR",
    "id": 3847933,
    "coord": {
      "lat": -32.68478,
      "lon": -61.516369
    },
    "name": "Las Parejas"
  },
  {
    "country": "AR",
    "id": 3847971,
    "coord": {
      "lat": -36.988811,
      "lon": -70.749908
    },
    "name": "Las Ovejas"
  },
  {
    "country": "AR",
    "id": 3848209,
    "coord": {
      "lat": -24.683331,
      "lon": -64.25
    },
    "name": "Las Lajitas"
  },
  {
    "country": "AR",
    "id": 3848216,
    "coord": {
      "lat": -38.52322,
      "lon": -70.367439
    },
    "name": "Las Lajas"
  },
  {
    "country": "AR",
    "id": 3848242,
    "coord": {
      "lat": -31.831249,
      "lon": -63.450161
    },
    "name": "Las Junturas"
  },
  {
    "country": "AR",
    "id": 3849196,
    "coord": {
      "lat": -27.549999,
      "lon": -67.01667
    },
    "name": "La Puerta de San Jose"
  },
  {
    "country": "AR",
    "id": 3849388,
    "coord": {
      "lat": -32.100021,
      "lon": -63.03088
    },
    "name": "La Playosa"
  },
  {
    "country": "AR",
    "id": 3849557,
    "coord": {
      "lat": -30.894159,
      "lon": -63.001068
    },
    "name": "La Para"
  },
  {
    "country": "AR",
    "id": 3850888,
    "coord": {
      "lat": -24.25391,
      "lon": -61.244659
    },
    "name": "Laguna Yema"
  },
  {
    "country": "AR",
    "id": 3851072,
    "coord": {
      "lat": -31.00919,
      "lon": -64.268692
    },
    "name": "La Granja"
  },
  {
    "country": "AR",
    "id": 3851798,
    "coord": {
      "lat": -30.98201,
      "lon": -64.491386
    },
    "name": "La Cumbre"
  },
  {
    "country": "AR",
    "id": 3851985,
    "coord": {
      "lat": -27.77729,
      "lon": -65.570351
    },
    "name": "La Cocha"
  },
  {
    "country": "AR",
    "id": 3851993,
    "coord": {
      "lat": -27.133329,
      "lon": -60.666672
    },
    "name": "La Clotilde"
  },
  {
    "country": "AR",
    "id": 3853479,
    "coord": {
      "lat": -44.05032,
      "lon": -70.469673
    },
    "name": "Jose de San Martin"
  },
  {
    "country": "AR",
    "id": 3853767,
    "coord": {
      "lat": -24.22554,
      "lon": -64.838959
    },
    "name": "Ingenio La Esperanza"
  },
  {
    "country": "AR",
    "id": 3853782,
    "coord": {
      "lat": -39.083328,
      "lon": -67.23333
    },
    "name": "Ingeniero Luis A. Huergo"
  },
  {
    "country": "AR",
    "id": 3853788,
    "coord": {
      "lat": -23.9,
      "lon": -61.849998
    },
    "name": "Ingeniero Guillermo N. Juarez"
  },
  {
    "country": "AR",
    "id": 3853935,
    "coord": {
      "lat": -28.91934,
      "lon": -65.328171
    },
    "name": "Icano"
  },
  {
    "country": "AR",
    "id": 3853966,
    "coord": {
      "lat": -23.08333,
      "lon": -65.333328
    },
    "name": "Departamento de Humahuaca"
  },
  {
    "country": "AR",
    "id": 3853967,
    "coord": {
      "lat": -23.205441,
      "lon": -65.350479
    },
    "name": "Humahuaca"
  },
  {
    "country": "AR",
    "id": 3853981,
    "coord": {
      "lat": -28.72533,
      "lon": -65.978699
    },
    "name": "Huillapima"
  },
  {
    "country": "AR",
    "id": 3854093,
    "coord": {
      "lat": -33.666519,
      "lon": -63.637009
    },
    "name": "Huanchillas"
  },
  {
    "country": "AR",
    "id": 3854102,
    "coord": {
      "lat": -27.22896,
      "lon": -66.831306
    },
    "name": "Hualfin"
  },
  {
    "country": "AR",
    "id": 3854153,
    "coord": {
      "lat": -42.071892,
      "lon": -71.50811
    },
    "name": "Hoyo de Epuyen"
  },
  {
    "country": "AR",
    "id": 3854318,
    "coord": {
      "lat": -30.004471,
      "lon": -61.840801
    },
    "name": "Hersilia"
  },
  {
    "country": "AR",
    "id": 3854336,
    "coord": {
      "lat": -27.60816,
      "lon": -61.34441
    },
    "name": "Hermoso Campo"
  },
  {
    "country": "AR",
    "id": 3854988,
    "coord": {
      "lat": -44.049919,
      "lon": -70.597977
    },
    "name": "Gobernador Costa"
  },
  {
    "country": "AR",
    "id": 3855092,
    "coord": {
      "lat": -37.460251,
      "lon": -63.585369
    },
    "name": "General Manuel J. Campos"
  },
  {
    "country": "AR",
    "id": 3855115,
    "coord": {
      "lat": -23.216669,
      "lon": -62.299999
    },
    "name": "General Enrique Mosconi"
  },
  {
    "country": "AR",
    "id": 3855117,
    "coord": {
      "lat": -39.083328,
      "lon": -67.150002
    },
    "name": "General Enrique Godoy"
  },
  {
    "country": "AR",
    "id": 3855121,
    "coord": {
      "lat": -40.099998,
      "lon": -64.433327
    },
    "name": "General Conesa"
  },
  {
    "country": "AR",
    "id": 3855237,
    "coord": {
      "lat": -27.490379,
      "lon": -61.675709
    },
    "name": "Gancedo"
  },
  {
    "country": "AR",
    "id": 3855370,
    "coord": {
      "lat": -32.791222,
      "lon": -60.728191
    },
    "name": "Fray Luis A. Beltran"
  },
  {
    "country": "AR",
    "id": 3855588,
    "coord": {
      "lat": -27.68705,
      "lon": -67.614899
    },
    "name": "Fiambala"
  },
  {
    "country": "AR",
    "id": 3855763,
    "coord": {
      "lat": -25.05504,
      "lon": -60.092178
    },
    "name": "Estanislao del Campo"
  },
  {
    "country": "AR",
    "id": 3856236,
    "coord": {
      "lat": -35.38633,
      "lon": -64.280922
    },
    "name": "Embajador Martini"
  },
  {
    "country": "AR",
    "id": 3856496,
    "coord": {
      "lat": -31.38357,
      "lon": -62.82938
    },
    "name": "El Tio"
  },
  {
    "country": "AR",
    "id": 3856776,
    "coord": {
      "lat": -28.215179,
      "lon": -65.874199
    },
    "name": "El Rodeo"
  },
  {
    "country": "AR",
    "id": 3857879,
    "coord": {
      "lat": -37.645222,
      "lon": -70.580063
    },
    "name": "El Huecu"
  },
  {
    "country": "AR",
    "id": 3857974,
    "coord": {
      "lat": -25.38069,
      "lon": -64.652588
    },
    "name": "El Galpon"
  },
  {
    "country": "AR",
    "id": 3858088,
    "coord": {
      "lat": -32.572048,
      "lon": -64.394814
    },
    "name": "Elena"
  },
  {
    "country": "AR",
    "id": 3858553,
    "coord": {
      "lat": -25.0741,
      "lon": -65.491737
    },
    "name": "El Carril"
  },
  {
    "country": "AR",
    "id": 3859000,
    "coord": {
      "lat": -23.225821,
      "lon": -65.692131
    },
    "name": "El Aguilar"
  },
  {
    "country": "AR",
    "id": 3859296,
    "coord": {
      "lat": -37.14967,
      "lon": -64.011833
    },
    "name": "Doblas"
  },
  {
    "country": "AR",
    "id": 3859521,
    "coord": {
      "lat": -39.200001,
      "lon": -65.76667
    },
    "name": "Darwin"
  },
  {
    "country": "AR",
    "id": 3859974,
    "coord": {
      "lat": -26.953739,
      "lon": -60.96928
    },
    "name": "Corzuela"
  },
  {
    "country": "AR",
    "id": 3860079,
    "coord": {
      "lat": -32.02462,
      "lon": -64.192162
    },
    "name": "Corralito"
  },
  {
    "country": "AR",
    "id": 3860178,
    "coord": {
      "lat": -33.6227,
      "lon": -64.597107
    },
    "name": "Coronel Moldes"
  },
  {
    "country": "AR",
    "id": 3860206,
    "coord": {
      "lat": -39.183331,
      "lon": -65.98333
    },
    "name": "Coronel Belisle"
  },
  {
    "country": "AR",
    "id": 3860475,
    "coord": {
      "lat": -41.02993,
      "lon": -70.267838
    },
    "name": "Comallo"
  },
  {
    "country": "AR",
    "id": 3860730,
    "coord": {
      "lat": -31.5278,
      "lon": -62.724361
    },
    "name": "Colonia San Bartolome"
  },
  {
    "country": "AR",
    "id": 3860791,
    "coord": {
      "lat": -28.6,
      "lon": -62.950001
    },
    "name": "Colonia Dora"
  },
  {
    "country": "AR",
    "id": 3861262,
    "coord": {
      "lat": -37.37809,
      "lon": -70.270851
    },
    "name": "Chos Malal"
  },
  {
    "country": "AR",
    "id": 3861297,
    "coord": {
      "lat": -27.915779,
      "lon": -61.399818
    },
    "name": "Chorotis"
  },
  {
    "country": "AR",
    "id": 3861405,
    "coord": {
      "lat": -39.164822,
      "lon": -66.142357
    },
    "name": "Chimpay"
  },
  {
    "country": "AR",
    "id": 3862293,
    "coord": {
      "lat": -30.579519,
      "lon": -65.726959
    },
    "name": "Castro Barros"
  },
  {
    "country": "AR",
    "id": 3862515,
    "coord": {
      "lat": -31.872959,
      "lon": -63.117161
    },
    "name": "Carrilobo"
  },
  {
    "country": "AR",
    "id": 3862771,
    "coord": {
      "lat": -28.83333,
      "lon": -66
    },
    "name": "Departamento de Capayán"
  },
  {
    "country": "AR",
    "id": 3862772,
    "coord": {
      "lat": -28.761049,
      "lon": -66.05024
    },
    "name": "Capayan"
  },
  {
    "country": "AR",
    "id": 3862832,
    "coord": {
      "lat": -32.06036,
      "lon": -65.824768
    },
    "name": "Candelaria"
  },
  {
    "country": "AR",
    "id": 3862971,
    "coord": {
      "lat": -30.73341,
      "lon": -63.723759
    },
    "name": "Canada de Luque"
  },
  {
    "country": "AR",
    "id": 3863095,
    "coord": {
      "lat": -26.80077,
      "lon": -60.842152
    },
    "name": "Campo Largo"
  },
  {
    "country": "AR",
    "id": 3863136,
    "coord": {
      "lat": -26.58333,
      "lon": -62.849998
    },
    "name": "Campo Gallo"
  },
  {
    "country": "AR",
    "id": 3863327,
    "coord": {
      "lat": -44.797089,
      "lon": -65.709938
    },
    "name": "Camarones"
  },
  {
    "country": "AR",
    "id": 3863366,
    "coord": {
      "lat": -23.77368,
      "lon": -64.77002
    },
    "name": "Calilegua"
  },
  {
    "country": "AR",
    "id": 3863491,
    "coord": {
      "lat": -23.7407,
      "lon": -64.593697
    },
    "name": "Caimancito"
  },
  {
    "country": "AR",
    "id": 3863554,
    "coord": {
      "lat": -25.09741,
      "lon": -66.185417
    },
    "name": "Departamento de Cachí"
  },
  {
    "country": "AR",
    "id": 3863557,
    "coord": {
      "lat": -25.120331,
      "lon": -66.165192
    },
    "name": "Cachi"
  },
  {
    "country": "AR",
    "id": 3863663,
    "coord": {
      "lat": -37.052219,
      "lon": -69.877129
    },
    "name": "Buta Ranquil"
  },
  {
    "country": "AR",
    "id": 3863700,
    "coord": {
      "lat": -26.5,
      "lon": -64.916672
    },
    "name": "Departamento de Burruyacú"
  },
  {
    "country": "AR",
    "id": 3863701,
    "coord": {
      "lat": -26.49918,
      "lon": -64.742058
    },
    "name": "Burruyacu"
  },
  {
    "country": "AR",
    "id": 3863814,
    "coord": {
      "lat": -34.75647,
      "lon": -65.253799
    },
    "name": "Buena Esperanza"
  },
  {
    "country": "AR",
    "id": 3863821,
    "coord": {
      "lat": -34.72263,
      "lon": -63.509201
    },
    "name": "Buchardo"
  },
  {
    "country": "AR",
    "id": 3864283,
    "coord": {
      "lat": -37.904591,
      "lon": -63.742401
    },
    "name": "Bernasconi"
  },
  {
    "country": "AR",
    "id": 3864729,
    "coord": {
      "lat": -36.816669,
      "lon": -69.916672
    },
    "name": "Barrancas"
  },
  {
    "country": "AR",
    "id": 3865186,
    "coord": {
      "lat": -26.68532,
      "lon": -60.729198
    },
    "name": "Avia Terai"
  },
  {
    "country": "AR",
    "id": 3865578,
    "coord": {
      "lat": -28.5,
      "lon": -66.833328
    },
    "name": "Departamento de Arauco"
  },
  {
    "country": "AR",
    "id": 3865579,
    "coord": {
      "lat": -28.5805,
      "lon": -66.79438
    },
    "name": "Arauco"
  },
  {
    "country": "AR",
    "id": 3865580,
    "coord": {
      "lat": -35.63895,
      "lon": -64.356209
    },
    "name": "Arata"
  },
  {
    "country": "AR",
    "id": 3865585,
    "coord": {
      "lat": -32.242519,
      "lon": -60.161072
    },
    "name": "Aranguren"
  },
  {
    "country": "AR",
    "id": 3865605,
    "coord": {
      "lat": -24.43276,
      "lon": -63.99535
    },
    "name": "Apolinario Saravia"
  },
  {
    "country": "AR",
    "id": 3865801,
    "coord": {
      "lat": -27.58333,
      "lon": -66.466667
    },
    "name": "Departamento de Andalgalá"
  },
  {
    "country": "AR",
    "id": 3865802,
    "coord": {
      "lat": -27.581949,
      "lon": -66.31646
    },
    "name": "Andalgala"
  },
  {
    "country": "AR",
    "id": 3865803,
    "coord": {
      "lat": -37.179451,
      "lon": -70.669121
    },
    "name": "Andacollo"
  },
  {
    "country": "AR",
    "id": 3865829,
    "coord": {
      "lat": -29,
      "lon": -65.5
    },
    "name": "Departamento de Ancasti"
  },
  {
    "country": "AR",
    "id": 3865830,
    "coord": {
      "lat": -28.812469,
      "lon": -65.50145
    },
    "name": "Ancasti"
  },
  {
    "country": "AR",
    "id": 3866028,
    "coord": {
      "lat": -30.9559,
      "lon": -62.337269
    },
    "name": "Altos de Chipion"
  },
  {
    "country": "AR",
    "id": 3866161,
    "coord": {
      "lat": -35.3335,
      "lon": -64.11496
    },
    "name": "Alta Italia"
  },
  {
    "country": "AR",
    "id": 3866353,
    "coord": {
      "lat": -33.60643,
      "lon": -62.623039
    },
    "name": "Alejo Ledesma"
  },
  {
    "country": "AR",
    "id": 3867009,
    "coord": {
      "lat": -22.72049,
      "lon": -65.696968
    },
    "name": "Abra Pampa"
  },
  {
    "country": "AR",
    "id": 6942842,
    "coord": {
      "lat": -31.27268,
      "lon": -61.423962
    },
    "name": "Bella Italia"
  },
  {
    "country": "AR",
    "id": 7116865,
    "coord": {
      "lat": -37.165241,
      "lon": -56.891331
    },
    "name": "Carilo"
  },
  {
    "country": "AR",
    "id": 7284819,
    "coord": {
      "lat": -33.183681,
      "lon": -66.312698
    },
    "name": "La Punta"
  },
  {
    "country": "AR",
    "id": 7304381,
    "coord": {
      "lat": -31.90321,
      "lon": -64.756508
    },
    "name": "Villa Berna"
  },
  {
    "country": "AR",
    "id": 7304383,
    "coord": {
      "lat": -31.48658,
      "lon": -64.571503
    },
    "name": "Cuesta Blanca"
  },
  {
    "country": "AR",
    "id": 8015350,
    "coord": {
      "lat": -34.383751,
      "lon": -58.70673
    },
    "name": "Santa Catalina - Dique Lujan"
  },
  {
    "country": "AR",
    "id": 3433974,
    "coord": {
      "lat": -34.748489,
      "lon": -58.230782
    },
    "name": "Ezpeleta"
  },
  {
    "country": "AR",
    "id": 3430550,
    "coord": {
      "lat": -34.634899,
      "lon": -58.790588
    },
    "name": "Partido de Moreno"
  },
  {
    "country": "AR",
    "id": 7778796,
    "coord": {
      "lat": -34.63401,
      "lon": -58.791382
    },
    "name": "Moreno"
  },
  {
    "country": "AR",
    "id": 3838231,
    "coord": {
      "lat": -24.75806,
      "lon": -65.43457
    },
    "name": "Provincia de Salta"
  },
  {
    "country": "AR",
    "id": 3428569,
    "coord": {
      "lat": -26.66667,
      "lon": -54
    },
    "name": "Departamento de San Pedro"
  },
  {
    "country": "AR",
    "id": 3429948,
    "coord": {
      "lat": -25.66667,
      "lon": -59.166672
    },
    "name": "Departamento de Pirané"
  },
  {
    "country": "AR",
    "id": 3837122,
    "coord": {
      "lat": -30.66667,
      "lon": -60.5
    },
    "name": "Departamento de San Justo"
  },
  {
    "country": "AR",
    "id": 3837980,
    "coord": {
      "lat": -40.73193,
      "lon": -64.947693
    },
    "name": "San Antonio Oeste"
  },
  {
    "country": "AR",
    "id": 3838873,
    "coord": {
      "lat": -33.333328,
      "lon": -64.5
    },
    "name": "Departamento de Río Cuarto"
  },
  {
    "country": "AR",
    "id": 3866424,
    "coord": {
      "lat": -31.283331,
      "lon": -68.416672
    },
    "name": "Departamento de Albardón"
  },
  {
    "country": "AR",
    "id": 3865483,
    "coord": {
      "lat": -34,
      "lon": -64
    },
    "name": "Argentine Republic"
  },
  {
    "country": "AR",
    "id": 3834450,
    "coord": {
      "lat": -54.5,
      "lon": -67
    },
    "name": "Provincia de Tierra del Fuego, Antártida e Islas del Atlántico Sur"
  },
  {
    "country": "AR",
    "id": 3838854,
    "coord": {
      "lat": -53.787689,
      "lon": -67.709457
    },
    "name": "Río Grande"
  },
  {
    "country": "AR",
    "id": 3861244,
    "coord": {
      "lat": -44,
      "lon": -69
    },
    "name": "Provincia del Chubut"
  },
  {
    "country": "AR",
    "id": 3841892,
    "coord": {
      "lat": -44,
      "lon": -68.833328
    },
    "name": "Departamento de Paso de Indios"
  },
  {
    "country": "AR",
    "id": 3841894,
    "coord": {
      "lat": -43.862251,
      "lon": -69.046021
    },
    "name": "Paso de Indios"
  },
  {
    "country": "AR",
    "id": 3854956,
    "coord": {
      "lat": -42.029202,
      "lon": -71.52095
    },
    "name": "Golondrinas"
  },
  {
    "country": "AR",
    "id": 3838830,
    "coord": {
      "lat": -40,
      "lon": -67
    },
    "name": "Provincia de Río Negro"
  },
  {
    "country": "AR",
    "id": 3859279,
    "coord": {
      "lat": -40.73333,
      "lon": -65.033333
    },
    "name": "Doctor Rogelio Cortizo"
  },
  {
    "country": "AR",
    "id": 3840224,
    "coord": {
      "lat": -39.01667,
      "lon": -64.033333
    },
    "name": "Pueblo Buena Parada"
  },
  {
    "country": "AR",
    "id": 3435907,
    "coord": {
      "lat": -36,
      "lon": -60
    },
    "name": "Provincia de Buenos Aires"
  },
  {
    "country": "AR",
    "id": 3839982,
    "coord": {
      "lat": -38.875881,
      "lon": -62.073589
    },
    "name": "Punta Alta"
  },
  {
    "country": "AR",
    "id": 3435189,
    "coord": {
      "lat": -38.647781,
      "lon": -59.604549
    },
    "name": "Cristiano Muerto"
  },
  {
    "country": "AR",
    "id": 3430443,
    "coord": {
      "lat": -38.54726,
      "lon": -58.736752
    },
    "name": "Necochea"
  },
  {
    "country": "AR",
    "id": 3430668,
    "coord": {
      "lat": -38.268761,
      "lon": -57.836689
    },
    "name": "Miramar"
  },
  {
    "country": "AR",
    "id": 3427840,
    "coord": {
      "lat": -38.204819,
      "lon": -58.740608
    },
    "name": "Tamangueyú"
  },
  {
    "country": "AR",
    "id": 3862372,
    "coord": {
      "lat": -37.293571,
      "lon": -62.299671
    },
    "name": "Cascada"
  },
  {
    "country": "AR",
    "id": 3435857,
    "coord": {
      "lat": -36.380299,
      "lon": -59.501961
    },
    "name": "Cacharí"
  },
  {
    "country": "AR",
    "id": 3435032,
    "coord": {
      "lat": -36.416672,
      "lon": -57.666672
    },
    "name": "Partido de Dolores"
  },
  {
    "country": "AR",
    "id": 3435038,
    "coord": {
      "lat": -36.313221,
      "lon": -57.67918
    },
    "name": "Dolores"
  },
  {
    "country": "AR",
    "id": 3844828,
    "coord": {
      "lat": -36.133331,
      "lon": -61.01667
    },
    "name": "Mariano Unzué"
  },
  {
    "country": "AR",
    "id": 3427473,
    "coord": {
      "lat": -34.52647,
      "lon": -58.746559
    },
    "name": "Villa Altube"
  },
  {
    "country": "AR",
    "id": 3860255,
    "coord": {
      "lat": -32,
      "lon": -64
    },
    "name": "Provincia de Córdoba"
  },
  {
    "country": "AR",
    "id": 3838596,
    "coord": {
      "lat": -34.173458,
      "lon": -63.153099
    },
    "name": "Rosales"
  },
  {
    "country": "AR",
    "id": 3844419,
    "coord": {
      "lat": -34.5,
      "lon": -68.5
    },
    "name": "Provincia de Mendoza"
  },
  {
    "country": "AR",
    "id": 3832120,
    "coord": {
      "lat": -33.479801,
      "lon": -68.97905
    },
    "name": "Zapata"
  },
  {
    "country": "AR",
    "id": 3866062,
    "coord": {
      "lat": -33.033329,
      "lon": -68.366669
    },
    "name": "Alto del Salvador"
  },
  {
    "country": "AR",
    "id": 3838445,
    "coord": {
      "lat": -32.408218,
      "lon": -62.10244
    },
    "name": "Saira"
  },
  {
    "country": "AR",
    "id": 3834499,
    "coord": {
      "lat": -32.527382,
      "lon": -69.015892
    },
    "name": "Termas Villavicencio"
  },
  {
    "country": "AR",
    "id": 3434137,
    "coord": {
      "lat": -32,
      "lon": -59
    },
    "name": "Provincia de Entre Ríos"
  },
  {
    "country": "AR",
    "id": 3430634,
    "coord": {
      "lat": -31.509741,
      "lon": -59.201801
    },
    "name": "Mojones Norte"
  },
  {
    "country": "AR",
    "id": 3841689,
    "coord": {
      "lat": -31.3706,
      "lon": -63.530842
    },
    "name": "Pedro E. Vivas"
  },
  {
    "country": "AR",
    "id": 3848949,
    "coord": {
      "lat": -30,
      "lon": -67.5
    },
    "name": "Provincia de La Rioja"
  },
  {
    "country": "AR",
    "id": 3859437,
    "coord": {
      "lat": -31.21154,
      "lon": -66.315483
    },
    "name": "Desiderio Tello"
  },
  {
    "country": "AR",
    "id": 3861824,
    "coord": {
      "lat": -30.36002,
      "lon": -66.313988
    },
    "name": "Chamical"
  },
  {
    "country": "AR",
    "id": 3837152,
    "coord": {
      "lat": -31,
      "lon": -69
    },
    "name": "Provincia de San Juan"
  },
  {
    "country": "AR",
    "id": 3854137,
    "coord": {
      "lat": -30.15,
      "lon": -68.51667
    },
    "name": "Huaco"
  },
  {
    "country": "AR",
    "id": 3835868,
    "coord": {
      "lat": -28,
      "lon": -63.5
    },
    "name": "Provincia de Santiago del Estero"
  },
  {
    "country": "AR",
    "id": 3839792,
    "coord": {
      "lat": -29.33333,
      "lon": -63.333328
    },
    "name": "Departamento de Quebrachos"
  },
  {
    "country": "AR",
    "id": 3836139,
    "coord": {
      "lat": -29.48333,
      "lon": -63.400002
    },
    "name": "Santa María"
  },
  {
    "country": "AR",
    "id": 3857886,
    "coord": {
      "lat": -29.16667,
      "lon": -67.099998
    },
    "name": "El Huaco"
  },
  {
    "country": "AR",
    "id": 3862286,
    "coord": {
      "lat": -27,
      "lon": -67
    },
    "name": "Provincia de Catamarca"
  },
  {
    "country": "AR",
    "id": 3849182,
    "coord": {
      "lat": -28.12044,
      "lon": -67.508774
    },
    "name": "La Puntilla"
  },
  {
    "country": "AR",
    "id": 3428071,
    "coord": {
      "lat": -28.549391,
      "lon": -56.040771
    },
    "name": "Santo Tome"
  },
  {
    "country": "AR",
    "id": 3859512,
    "coord": {
      "lat": -30.420361,
      "lon": -64.349838
    },
    "name": "Dean Funes"
  },
  {
    "country": "AR",
    "id": 3433955,
    "coord": {
      "lat": -34.599998,
      "lon": -58.450001
    },
    "name": "Ciudad Autónoma de Buenos Aires"
  },
  {
    "country": "AR",
    "id": 3430975,
    "coord": {
      "lat": -34.59256,
      "lon": -58.524929
    },
    "name": "Lynch"
  },
  {
    "country": "AR",
    "id": 3427451,
    "coord": {
      "lat": -34.600639,
      "lon": -58.51231
    },
    "name": "Villa Devoto"
  },
  {
    "country": "AR",
    "id": 3433724,
    "coord": {
      "lat": -32.98333,
      "lon": -59.416672
    },
    "name": "González Calderón"
  },
  {
    "country": "AR",
    "id": 3836276,
    "coord": {
      "lat": -31,
      "lon": -61
    },
    "name": "Santa Fe Province"
  },
  {
    "country": "AR",
    "id": 3854895,
    "coord": {
      "lat": -32.856831,
      "lon": -60.717541
    },
    "name": "Granadero Baigorria"
  },
  {
    "country": "AR",
    "id": 3866418,
    "coord": {
      "lat": -32.88987,
      "lon": -60.690578
    },
    "name": "Alberdi"
  },
  {
    "country": "AR",
    "id": 3842670,
    "coord": {
      "lat": -36.892719,
      "lon": -60.32254
    },
    "name": "Olavarria"
  },
  {
    "country": "AR",
    "id": 3851241,
    "coord": {
      "lat": -32.876968,
      "lon": -60.690899
    },
    "name": "La Florida"
  },
  {
    "country": "AR",
    "id": 3427458,
    "coord": {
      "lat": -34.60001,
      "lon": -58.44735
    },
    "name": "Villa Crespo"
  },
  {
    "country": "AR",
    "id": 3857228,
    "coord": {
      "lat": -31.566669,
      "lon": -60.716671
    },
    "name": "El Piquete"
  },
  {
    "country": "AR",
    "id": 3853491,
    "coord": {
      "lat": -25.08333,
      "lon": -64.183327
    },
    "name": "Joaquin V. Gonzalez"
  },
  {
    "country": "AR",
    "id": 3840259,
    "coord": {
      "lat": -22.05011,
      "lon": -63.69128
    },
    "name": "Profesor Salvador Mazza"
  },
  {
    "country": "AR",
    "id": 3427414,
    "coord": {
      "lat": -34.612179,
      "lon": -58.678341
    },
    "name": "Villa Leloir"
  },
  {
    "country": "AR",
    "id": 3853404,
    "coord": {
      "lat": -23,
      "lon": -66
    },
    "name": "Provincia de Jujuy"
  },
  {
    "country": "AR",
    "id": 3836564,
    "coord": {
      "lat": -24.194559,
      "lon": -65.297119
    },
    "name": "San Salvador de Jujuy"
  },
  {
    "country": "AR",
    "id": 3832932,
    "coord": {
      "lat": -32.666672,
      "lon": -60.333328
    },
    "name": "Departamento de Victoria"
  },
  {
    "country": "AR",
    "id": 3832934,
    "coord": {
      "lat": -32.618408,
      "lon": -60.154781
    },
    "name": "Victoria"
  },
  {
    "country": "AR",
    "id": 3862744,
    "coord": {
      "lat": -31.41667,
      "lon": -64.199997
    },
    "name": "Departamento de Capital"
  },
  {
    "country": "AR",
    "id": 3860259,
    "coord": {
      "lat": -31.4135,
      "lon": -64.181053
    },
    "name": "Cordoba"
  },
  {
    "country": "AR",
    "id": 3866169,
    "coord": {
      "lat": -31.38945,
      "lon": -64.175659
    },
    "name": "Alta Córdoba"
  },
  {
    "country": "AR",
    "id": 3838574,
    "coord": {
      "lat": -33.166672,
      "lon": -60.75
    },
    "name": "Departamento de Rosario"
  },
  {
    "country": "AR",
    "id": 3864364,
    "coord": {
      "lat": -32.953918,
      "lon": -60.675301
    },
    "name": "Bella Vista"
  },
  {
    "country": "AR",
    "id": 3836277,
    "coord": {
      "lat": -31.633329,
      "lon": -60.700001
    },
    "name": "Santa Fe de la Vera Cruz"
  },
  {
    "country": "AR",
    "id": 3833578,
    "coord": {
      "lat": -27,
      "lon": -65.5
    },
    "name": "Provincia de Tucumán"
  },
  {
    "country": "AR",
    "id": 3836873,
    "coord": {
      "lat": -26.824141,
      "lon": -65.222603
    },
    "name": "San Miguel de Tucuman"
  },
  {
    "country": "AR",
    "id": 3435719,
    "coord": {
      "lat": -34.878342,
      "lon": -58.51054
    },
    "name": "Canning"
  },
  {
    "country": "AR",
    "id": 3837576,
    "coord": {
      "lat": -30.35976,
      "lon": -61.917881
    },
    "name": "San Guillermo"
  },
  {
    "country": "AR",
    "id": 3844421,
    "coord": {
      "lat": -32.890839,
      "lon": -68.827171
    },
    "name": "Mendoza"
  },
  {
    "country": "AR",
    "id": 3838902,
    "coord": {
      "lat": -31.16486,
      "lon": -64.322411
    },
    "name": "Rio Ceballos"
  },
  {
    "country": "AR",
    "id": 3430863,
    "coord": {
      "lat": -38.002281,
      "lon": -57.557541
    },
    "name": "Mar del Plata"
  },
  {
    "country": "AR",
    "id": 3837213,
    "coord": {
      "lat": -31.5375,
      "lon": -68.536392
    },
    "name": "San Juan"
  },
  {
    "country": "AR",
    "id": 3841956,
    "coord": {
      "lat": -31.73197,
      "lon": -60.5238
    },
    "name": "Parana"
  },
  {
    "country": "AR",
    "id": 3435214,
    "coord": {
      "lat": -29,
      "lon": -58
    },
    "name": "Provincia de Corrientes"
  },
  {
    "country": "AR",
    "id": 3435217,
    "coord": {
      "lat": -27.4806,
      "lon": -58.834099
    },
    "name": "Corrientes"
  },
  {
    "country": "AR",
    "id": 3433896,
    "coord": {
      "lat": -25,
      "lon": -60
    },
    "name": "Provincia de Formosa"
  },
  {
    "country": "AR",
    "id": 3433899,
    "coord": {
      "lat": -26.17753,
      "lon": -58.178139
    },
    "name": "Formosa"
  },
  {
    "country": "AR",
    "id": 3837029,
    "coord": {
      "lat": -34,
      "lon": -66
    },
    "name": "Provincia de San Luis"
  },
  {
    "country": "AR",
    "id": 3837056,
    "coord": {
      "lat": -33.29501,
      "lon": -66.335632
    },
    "name": "San Luis"
  },
  {
    "country": "AR",
    "id": 3838233,
    "coord": {
      "lat": -24.7859,
      "lon": -65.411659
    },
    "name": "Salta"
  },
  {
    "country": "AR",
    "id": 3832899,
    "coord": {
      "lat": -40.81345,
      "lon": -62.996681
    },
    "name": "Viedma"
  },
  {
    "country": "AR",
    "id": 3840092,
    "coord": {
      "lat": -42.769199,
      "lon": -65.038513
    },
    "name": "Puerto Madryn"
  },
  {
    "country": "AR",
    "id": 3861039,
    "coord": {
      "lat": -26.783331,
      "lon": -65.349998
    },
    "name": "Ciudad Universitaria"
  },
  {
    "country": "AR",
    "id": 3436033,
    "coord": {
      "lat": -34.707279,
      "lon": -58.271801
    },
    "name": "Bernal"
  },
  {
    "country": "AR",
    "id": 3432039,
    "coord": {
      "lat": -35,
      "lon": -58
    },
    "name": "Partido de La Plata"
  },
  {
    "country": "AR",
    "id": 3432043,
    "coord": {
      "lat": -34.921452,
      "lon": -57.954529
    },
    "name": "La Plata"
  },
  {
    "country": "AR",
    "id": 3853331,
    "coord": {
      "lat": -32.884109,
      "lon": -62.677879
    },
    "name": "Justiniano Posse"
  },
  {
    "country": "AR",
    "id": 3849574,
    "coord": {
      "lat": -37,
      "lon": -66
    },
    "name": "Provincia de La Pampa"
  },
  {
    "country": "AR",
    "id": 3835994,
    "coord": {
      "lat": -36.616669,
      "lon": -64.283333
    },
    "name": "Santa Rosa"
  },
  {
    "country": "AR",
    "id": 3427504,
    "coord": {
      "lat": -34.523529,
      "lon": -58.474388
    },
    "name": "Partido de Vicente López"
  },
  {
    "country": "AR",
    "id": 3427478,
    "coord": {
      "lat": -34.529751,
      "lon": -58.5476
    },
    "name": "Villa Adelina"
  },
  {
    "country": "AR",
    "id": 3833857,
    "coord": {
      "lat": -38.5,
      "lon": -60.25
    },
    "name": "Partido de Tres Arroyos"
  },
  {
    "country": "AR",
    "id": 3833859,
    "coord": {
      "lat": -38.37394,
      "lon": -60.279781
    },
    "name": "Tres Arroyos"
  },
  {
    "country": "AR",
    "id": 3435261,
    "coord": {
      "lat": -31.39296,
      "lon": -58.020889
    },
    "name": "Concordia"
  },
  {
    "country": "AR",
    "id": 3435087,
    "coord": {
      "lat": -34.45013,
      "lon": -58.787811
    },
    "name": "Del Viso"
  },
  {
    "country": "AR",
    "id": 3839479,
    "coord": {
      "lat": -31.25033,
      "lon": -61.486698
    },
    "name": "Rafaela"
  },
  {
    "country": "AR",
    "id": 3836992,
    "coord": {
      "lat": -33.081032,
      "lon": -68.46814
    },
    "name": "San Martin"
  },
  {
    "country": "AR",
    "id": 3845406,
    "coord": {
      "lat": -28.33588,
      "lon": -63.339821
    },
    "name": "Lugones"
  },
  {
    "country": "AR",
    "id": 3431270,
    "coord": {
      "lat": -34.75,
      "lon": -58.416672
    },
    "name": "Partido de Lomas de Zamora"
  },
  {
    "country": "AR",
    "id": 3431271,
    "coord": {
      "lat": -34.76088,
      "lon": -58.406319
    },
    "name": "Lomas de Zamora"
  },
  {
    "country": "AR",
    "id": 3427367,
    "coord": {
      "lat": -34.701248,
      "lon": -58.38319
    },
    "name": "Villa Sarmiento"
  },
  {
    "country": "AR",
    "id": 3861887,
    "coord": {
      "lat": -26,
      "lon": -60.5
    },
    "name": "Provincia del Chaco"
  },
  {
    "country": "AR",
    "id": 3840300,
    "coord": {
      "lat": -26.785219,
      "lon": -60.438759
    },
    "name": "Presidencia Roque Saenz Pena"
  },
  {
    "country": "AR",
    "id": 3838759,
    "coord": {
      "lat": -33.19051,
      "lon": -68.460808
    },
    "name": "Rivadavia"
  },
  {
    "country": "AR",
    "id": 3839281,
    "coord": {
      "lat": -35.25,
      "lon": -64.25
    },
    "name": "Departamento de Realicó"
  },
  {
    "country": "AR",
    "id": 3839282,
    "coord": {
      "lat": -35.036579,
      "lon": -64.244698
    },
    "name": "Realico"
  },
  {
    "country": "AR",
    "id": 3855061,
    "coord": {
      "lat": -38.5,
      "lon": -67.5
    },
    "name": "Departamento de General Roca"
  },
  {
    "country": "AR",
    "id": 3855065,
    "coord": {
      "lat": -39.033329,
      "lon": -67.583328
    },
    "name": "General Roca"
  },
  {
    "country": "AR",
    "id": 3855665,
    "coord": {
      "lat": -26.91667,
      "lon": -65.5
    },
    "name": "Departamento de Famaillá"
  },
  {
    "country": "AR",
    "id": 3855666,
    "coord": {
      "lat": -27.054131,
      "lon": -65.40329
    },
    "name": "Famailla"
  },
  {
    "country": "AR",
    "id": 3832822,
    "coord": {
      "lat": -31.65,
      "lon": -68.583328
    },
    "name": "Villa Aberastain"
  },
  {
    "country": "AR",
    "id": 3835869,
    "coord": {
      "lat": -27.795111,
      "lon": -64.26149
    },
    "name": "Santiago del Estero"
  },
  {
    "country": "AR",
    "id": 3436197,
    "coord": {
      "lat": -36.75,
      "lon": -59.666672
    },
    "name": "Partido de Azul"
  },
  {
    "country": "AR",
    "id": 3436199,
    "coord": {
      "lat": -36.776981,
      "lon": -59.85854
    },
    "name": "Azul"
  },
  {
    "country": "AR",
    "id": 3833883,
    "coord": {
      "lat": -43.248951,
      "lon": -65.305054
    },
    "name": "Trelew"
  },
  {
    "country": "AR",
    "id": 3836350,
    "coord": {
      "lat": -49,
      "lon": -70
    },
    "name": "Provincia de Santa Cruz"
  },
  {
    "country": "AR",
    "id": 3838859,
    "coord": {
      "lat": -51.622608,
      "lon": -69.218132
    },
    "name": "Rio Gallegos"
  },
  {
    "country": "AR",
    "id": 3854294,
    "coord": {
      "lat": -39.376598,
      "lon": -62.648151
    },
    "name": "Hilario Ascasubi"
  },
  {
    "country": "AR",
    "id": 3863938,
    "coord": {
      "lat": -37.803421,
      "lon": -63.041199
    },
    "name": "Bordenave"
  },
  {
    "country": "AR",
    "id": 3844994,
    "coord": {
      "lat": -31.844339,
      "lon": -63.747211
    },
    "name": "Manfredi"
  },
  {
    "country": "AR",
    "id": 3842653,
    "coord": {
      "lat": -32.575611,
      "lon": -60.85236
    },
    "name": "Oliveros"
  },
  {
    "country": "AR",
    "id": 3429594,
    "coord": {
      "lat": -29.15,
      "lon": -59.650002
    },
    "name": "Reconquista"
  },
  {
    "country": "AR",
    "id": 3841488,
    "coord": {
      "lat": -33.75,
      "lon": -60.583328
    },
    "name": "Partido de Pergamino"
  },
  {
    "country": "AR",
    "id": 3841490,
    "coord": {
      "lat": -33.88995,
      "lon": -60.57357
    },
    "name": "Pergamino"
  },
  {
    "country": "AR",
    "id": 3844899,
    "coord": {
      "lat": -32.6978,
      "lon": -62.10672
    },
    "name": "Marcos Juarez"
  },
  {
    "country": "AR",
    "id": 3436176,
    "coord": {
      "lat": -37.75,
      "lon": -58.25
    },
    "name": "Partido de Balcarce"
  },
  {
    "country": "AR",
    "id": 3436177,
    "coord": {
      "lat": -37.846161,
      "lon": -58.255219
    },
    "name": "Balcarce"
  },
  {
    "country": "AR",
    "id": 3859110,
    "coord": {
      "lat": -34.920391,
      "lon": -62.76582
    },
    "name": "Drabble"
  },
  {
    "country": "AR",
    "id": 3846484,
    "coord": {
      "lat": -46.549721,
      "lon": -71.630859
    },
    "name": "Los Antiguos"
  },
  {
    "country": "AR",
    "id": 3854296,
    "coord": {
      "lat": -31.48167,
      "lon": -69.407661
    },
    "name": "Hilario"
  },
  {
    "country": "AR",
    "id": 3841039,
    "coord": {
      "lat": -24.81922,
      "lon": -64.179169
    },
    "name": "Piquete Cabado"
  },
  {
    "country": "AR",
    "id": 3862738,
    "coord": {
      "lat": -32.82262,
      "lon": -60.718521
    },
    "name": "Capitan Bermudez"
  },
  {
    "country": "AR",
    "id": 3863881,
    "coord": {
      "lat": -35,
      "lon": -60.666672
    },
    "name": "Partido de Bragado"
  },
  {
    "country": "AR",
    "id": 3863882,
    "coord": {
      "lat": -35.119122,
      "lon": -60.489658
    },
    "name": "Bragado"
  },
  {
    "country": "AR",
    "id": 3860801,
    "coord": {
      "lat": -31.019779,
      "lon": -64.065193
    },
    "name": "Colonia Caroya"
  },
  {
    "country": "AR",
    "id": 3847328,
    "coord": {
      "lat": -28.19635,
      "lon": -65.108513
    },
    "name": "Lavalle"
  },
  {
    "country": "AR",
    "id": 3843122,
    "coord": {
      "lat": -39,
      "lon": -70
    },
    "name": "Provincia del Neuquén"
  },
  {
    "country": "AR",
    "id": 3843123,
    "coord": {
      "lat": -38.951611,
      "lon": -68.059097
    },
    "name": "Neuquen"
  },
  {
    "country": "AR",
    "id": 3855041,
    "coord": {
      "lat": -35.032848,
      "lon": -63.01252
    },
    "name": "General Villegas"
  },
  {
    "country": "AR",
    "id": 3861944,
    "coord": {
      "lat": -34.666672,
      "lon": -60.333328
    },
    "name": "Partido de Chacabuco"
  },
  {
    "country": "AR",
    "id": 3861953,
    "coord": {
      "lat": -34.64167,
      "lon": -60.473888
    },
    "name": "Chacabuco"
  },
  {
    "country": "AR",
    "id": 3838793,
    "coord": {
      "lat": -32.173012,
      "lon": -64.114059
    },
    "name": "Rio Tercero"
  },
  {
    "country": "AR",
    "id": 7932535,
    "coord": {
      "lat": -33.010281,
      "lon": -58.51416
    },
    "name": "Pueblo General Belgrano"
  },
  {
    "country": "AR",
    "id": 3429088,
    "coord": {
      "lat": -34.445419,
      "lon": -58.542019
    },
    "name": "Partido de San Fernando"
  },
  {
    "country": "AR",
    "id": 3429095,
    "coord": {
      "lat": -34.44104,
      "lon": -58.56279
    },
    "name": "San Fernando"
  },
  {
    "country": "AR",
    "id": 3841610,
    "coord": {
      "lat": -36.333328,
      "lon": -63
    },
    "name": "Partido de Pellegrini"
  },
  {
    "country": "AR",
    "id": 3841614,
    "coord": {
      "lat": -36.265839,
      "lon": -63.165501
    },
    "name": "Pellegrini"
  },
  {
    "country": "AR",
    "id": 3433424,
    "coord": {
      "lat": -34.699329,
      "lon": -58.590408
    },
    "name": "Isidro Casanova"
  },
  {
    "country": "AR",
    "id": 3836846,
    "coord": {
      "lat": -33.335781,
      "lon": -60.225231
    },
    "name": "San Nicolas de los Arroyos"
  },
  {
    "country": "AR",
    "id": 3435809,
    "coord": {
      "lat": -34.166672,
      "lon": -58.916672
    },
    "name": "Partido de Campana"
  },
  {
    "country": "AR",
    "id": 3435810,
    "coord": {
      "lat": -34.168739,
      "lon": -58.959141
    },
    "name": "Campana"
  },
  {
    "country": "AR",
    "id": 3434261,
    "coord": {
      "lat": -34.470901,
      "lon": -58.65086
    },
    "name": "El Talar"
  },
  {
    "country": "AR",
    "id": 3837607,
    "coord": {
      "lat": -32.369572,
      "lon": -61.356812
    },
    "name": "San Genaro"
  },
  {
    "country": "AR",
    "id": 3840403,
    "coord": {
      "lat": -28.3873,
      "lon": -62.345829
    },
    "name": "Pozo Herrera"
  },
  {
    "country": "AR",
    "id": 3430867,
    "coord": {
      "lat": -34.833328,
      "lon": -58.833328
    },
    "name": "Partido de Marcos Paz"
  },
  {
    "country": "AR",
    "id": 3430868,
    "coord": {
      "lat": -34.780628,
      "lon": -58.837399
    },
    "name": "Marcos Paz"
  },
  {
    "country": "AR",
    "id": 3848355,
    "coord": {
      "lat": -31.566669,
      "lon": -63.916672
    },
    "name": "Las Heras"
  },
  {
    "country": "AR",
    "id": 3429577,
    "coord": {
      "lat": -27.46056,
      "lon": -58.983891
    },
    "name": "Resistencia"
  },
  {
    "country": "AR",
    "id": 3833367,
    "coord": {
      "lat": -54.799999,
      "lon": -68.300003
    },
    "name": "Ushuaia"
  },
  {
    "country": "AR",
    "id": 3434003,
    "coord": {
      "lat": -34.819172,
      "lon": -58.465832
    },
    "name": "Partido de Esteban Echeverría"
  },
  {
    "country": "AR",
    "id": 3480738,
    "coord": {
      "lat": -34.813332,
      "lon": -58.475281
    },
    "name": "Barrio Esteban Echeverría"
  },
  {
    "country": "AR",
    "id": 3863379,
    "coord": {
      "lat": -46.439289,
      "lon": -67.528137
    },
    "name": "Caleta Olivia"
  },
  {
    "country": "AR",
    "id": 3834826,
    "coord": {
      "lat": -34.211491,
      "lon": -60.308559
    },
    "name": "Tacuarí"
  },
  {
    "country": "AR",
    "id": 3838880,
    "coord": {
      "lat": -38.99176,
      "lon": -64.093842
    },
    "name": "Río Colorado"
  },
  {
    "country": "AR",
    "id": 3427896,
    "coord": {
      "lat": -34.75,
      "lon": -59.75
    },
    "name": "Partido de Suipacha"
  },
  {
    "country": "AR",
    "id": 3427897,
    "coord": {
      "lat": -34.770039,
      "lon": -59.689579
    },
    "name": "Suipacha"
  },
  {
    "country": "AR",
    "id": 3430992,
    "coord": {
      "lat": -34.79882,
      "lon": -58.449471
    },
    "name": "Luis Guillón"
  },
  {
    "country": "AR",
    "id": 3431366,
    "coord": {
      "lat": -34.688911,
      "lon": -58.680099
    },
    "name": "Libertad"
  },
  {
    "country": "AR",
    "id": 3429244,
    "coord": {
      "lat": -34.664459,
      "lon": -58.707691
    },
    "name": "San Antonio de Padua"
  },
  {
    "country": "AR",
    "id": 3832640,
    "coord": {
      "lat": -39,
      "lon": -62.75
    },
    "name": "Partido de Villarino"
  },
  {
    "country": "AR",
    "id": 3949834,
    "coord": {
      "lat": -38.816669,
      "lon": -62.683331
    },
    "name": "Médanos"
  },
  {
    "country": "AR",
    "id": 3864639,
    "coord": {
      "lat": -38.884571,
      "lon": -62.092789
    },
    "name": "Barrio Comandante Piedrabuena"
  },
  {
    "country": "AR",
    "id": 3833874,
    "coord": {
      "lat": -36,
      "lon": -62.666672
    },
    "name": "Partido de Trenque Lauquen"
  },
  {
    "country": "AR",
    "id": 3833875,
    "coord": {
      "lat": -35.970348,
      "lon": -62.734322
    },
    "name": "Trenque Lauquen"
  },
  {
    "country": "AR",
    "id": 3435486,
    "coord": {
      "lat": -30.750481,
      "lon": -57.979622
    },
    "name": "Chajari"
  },
  {
    "country": "AR",
    "id": 3848950,
    "coord": {
      "lat": -29.411051,
      "lon": -66.85067
    },
    "name": "La Rioja"
  },
  {
    "country": "AR",
    "id": 3433708,
    "coord": {
      "lat": -34.482361,
      "lon": -58.72913
    },
    "name": "Grand Bourg"
  },
  {
    "country": "AR",
    "id": 3833062,
    "coord": {
      "lat": -33.74556,
      "lon": -61.968842
    },
    "name": "Venado Tuerto"
  },
  {
    "country": "AR",
    "id": 3863430,
    "coord": {
      "lat": -32.25,
      "lon": -64.583328
    },
    "name": "Departamento de Calamuchita"
  },
  {
    "country": "AR",
    "id": 3856235,
    "coord": {
      "lat": -32.18,
      "lon": -64.418091
    },
    "name": "Embalse"
  },
  {
    "country": "AR",
    "id": 3838300,
    "coord": {
      "lat": -28.91667,
      "lon": -63.299999
    },
    "name": "Departamento de Salavina"
  },
  {
    "country": "AR",
    "id": 3836198,
    "coord": {
      "lat": -28.725731,
      "lon": -63.51329
    },
    "name": "Santa Lucía"
  },
  {
    "country": "AR",
    "id": 3433787,
    "coord": {
      "lat": -34.448818,
      "lon": -58.64296
    },
    "name": "General Pacheco"
  },
  {
    "country": "AR",
    "id": 3433715,
    "coord": {
      "lat": -29.14003,
      "lon": -59.262562
    },
    "name": "Goya"
  },
  {
    "country": "AR",
    "id": 3430657,
    "coord": {
      "lat": -27,
      "lon": -55
    },
    "name": "Provincia de Misiones"
  },
  {
    "country": "AR",
    "id": 3427365,
    "coord": {
      "lat": -27.48617,
      "lon": -55.146332
    },
    "name": "Villa Svea"
  },
  {
    "country": "AR",
    "id": 3855302,
    "coord": {
      "lat": -32.91568,
      "lon": -60.809952
    },
    "name": "Funes"
  },
  {
    "country": "AR",
    "id": 3429886,
    "coord": {
      "lat": -27.367081,
      "lon": -55.89608
    },
    "name": "Posadas"
  },
  {
    "country": "AR",
    "id": 3433756,
    "coord": {
      "lat": -33.65802,
      "lon": -59.867802
    },
    "name": "Gobernador Castro"
  },
  {
    "country": "AR",
    "id": 3866935,
    "coord": {
      "lat": -33.631519,
      "lon": -64.020973
    },
    "name": "Adelia Maria"
  },
  {
    "country": "AR",
    "id": 3845575,
    "coord": {
      "lat": -32.984539,
      "lon": -62.021912
    },
    "name": "Los Surgentes"
  },
  {
    "country": "AR",
    "id": 3858133,
    "coord": {
      "lat": -34.650379,
      "lon": -61.58252
    },
    "name": "El Dorado"
  },
  {
    "country": "AR",
    "id": 3859904,
    "coord": {
      "lat": -32.028728,
      "lon": -60.30658
    },
    "name": "Crespo"
  },
  {
    "country": "AR",
    "id": 3855353,
    "coord": {
      "lat": -28.635929,
      "lon": -65.13102
    },
    "name": "Frías"
  },
  {
    "country": "AR",
    "id": 3436309,
    "coord": {
      "lat": -27.91667,
      "lon": -55.75
    },
    "name": "Departamento de Apóstoles"
  },
  {
    "country": "AR",
    "id": 3436311,
    "coord": {
      "lat": -27.914209,
      "lon": -55.753551
    },
    "name": "Apostoles"
  },
  {
    "country": "AR",
    "id": 3428983,
    "coord": {
      "lat": -34.5,
      "lon": -58.583328
    },
    "name": "Partido de San Isidro"
  },
  {
    "country": "AR",
    "id": 3436508,
    "coord": {
      "lat": -34.477058,
      "lon": -58.50177
    },
    "name": "Acassuso"
  },
  {
    "country": "AR",
    "id": 3861329,
    "coord": {
      "lat": -39.26667,
      "lon": -65.683327
    },
    "name": "Choele Choel"
  },
  {
    "country": "AR",
    "id": 3436091,
    "coord": {
      "lat": -38.008499,
      "lon": -57.709671
    },
    "name": "Batán"
  },
  {
    "country": "AR",
    "id": 3430310,
    "coord": {
      "lat": -34.507469,
      "lon": -58.487019
    },
    "name": "Olivos"
  },
  {
    "country": "AR",
    "id": 3427212,
    "coord": {
      "lat": -34,
      "lon": -59.166672
    },
    "name": "Partido de Zárate"
  },
  {
    "country": "AR",
    "id": 3427213,
    "coord": {
      "lat": -34.098141,
      "lon": -59.02858
    },
    "name": "Zarate"
  },
  {
    "country": "AR",
    "id": 3429168,
    "coord": {
      "lat": -38.416672,
      "lon": -59.666672
    },
    "name": "Partido de San Cayetano"
  },
  {
    "country": "AR",
    "id": 3429171,
    "coord": {
      "lat": -38.346531,
      "lon": -59.609539
    },
    "name": "San Cayetano"
  },
  {
    "country": "AR",
    "id": 3838646,
    "coord": {
      "lat": -34.25,
      "lon": -60.75
    },
    "name": "Partido de Rojas"
  },
  {
    "country": "AR",
    "id": 3838650,
    "coord": {
      "lat": -34.195278,
      "lon": -60.735001
    },
    "name": "Rojas"
  },
  {
    "country": "AR",
    "id": 3433816,
    "coord": {
      "lat": -35.75,
      "lon": -58.75
    },
    "name": "Partido de General Belgrano"
  },
  {
    "country": "AR",
    "id": 3433817,
    "coord": {
      "lat": -35.76952,
      "lon": -58.493408
    },
    "name": "General Belgrano"
  },
  {
    "country": "AR",
    "id": 3860129,
    "coord": {
      "lat": -33.282051,
      "lon": -62.184631
    },
    "name": "Corral de Bustos"
  },
  {
    "country": "AR",
    "id": 3837855,
    "coord": {
      "lat": -36.25,
      "lon": -61.099998
    },
    "name": "San Carlos de Bolívar"
  },
  {
    "country": "AR",
    "id": 3865084,
    "coord": {
      "lat": -38.666672,
      "lon": -62.333328
    },
    "name": "Partido de Bahía Blanca"
  },
  {
    "country": "AR",
    "id": 3865086,
    "coord": {
      "lat": -38.719601,
      "lon": -62.27243
    },
    "name": "Bahia Blanca"
  },
  {
    "country": "AR",
    "id": 3856047,
    "coord": {
      "lat": -31.61689,
      "lon": -61.93256
    },
    "name": "Esmeralda"
  },
  {
    "country": "AR",
    "id": 3845359,
    "coord": {
      "lat": -36.633331,
      "lon": -62.133331
    },
    "name": "Luro"
  },
  {
    "country": "AR",
    "id": 3860443,
    "coord": {
      "lat": -45.866669,
      "lon": -67.5
    },
    "name": "Comodoro Rivadavia"
  },
  {
    "country": "AR",
    "id": 3857887,
    "coord": {
      "lat": -27.028721,
      "lon": -63.231972
    },
    "name": "El Hoyo"
  },
  {
    "country": "AR",
    "id": 3834971,
    "coord": {
      "lat": -30.94404,
      "lon": -61.561481
    },
    "name": "Sunchales"
  },
  {
    "country": "AR",
    "id": 3837125,
    "coord": {
      "lat": -28.15,
      "lon": -64.73333
    },
    "name": "San Justo"
  },
  {
    "country": "AR",
    "id": 8050985,
    "coord": {
      "lat": -33.28944,
      "lon": -66.265282
    },
    "name": "Juana Koslay"
  },
  {
    "country": "AR",
    "id": 3848687,
    "coord": {
      "lat": -27.089661,
      "lon": -61.081612
    },
    "name": "Las Brenas"
  },
  {
    "country": "AR",
    "id": 3864692,
    "coord": {
      "lat": -32.90559,
      "lon": -68.831177
    },
    "name": "Barraquero"
  },
  {
    "country": "AR",
    "id": 3436219,
    "coord": {
      "lat": -37,
      "lon": -58.5
    },
    "name": "Partido de Ayacucho"
  },
  {
    "country": "AR",
    "id": 3436221,
    "coord": {
      "lat": -37.151852,
      "lon": -58.486912
    },
    "name": "Ayacucho"
  },
  {
    "country": "AR",
    "id": 3435976,
    "coord": {
      "lat": -37.64703,
      "lon": -58.243622
    },
    "name": "Bosch"
  },
  {
    "country": "AR",
    "id": 3436521,
    "coord": {
      "lat": -34.985149,
      "lon": -58.089218
    },
    "name": "Abasto"
  },
  {
    "country": "AR",
    "id": 3847911,
    "coord": {
      "lat": -32.697941,
      "lon": -63.706341
    },
    "name": "Las Perdices"
  },
  {
    "country": "AR",
    "id": 3862351,
    "coord": {
      "lat": -33.04417,
      "lon": -61.16806
    },
    "name": "Casilda"
  },
  {
    "country": "AR",
    "id": 3860822,
    "coord": {
      "lat": -33.833328,
      "lon": -61
    },
    "name": "Partido de Colón"
  },
  {
    "country": "AR",
    "id": 3860828,
    "coord": {
      "lat": -33.895119,
      "lon": -61.101101
    },
    "name": "Colón"
  },
  {
    "country": "AR",
    "id": 3859429,
    "coord": {
      "lat": -31.816259,
      "lon": -64.289886
    },
    "name": "Despenaderos"
  },
  {
    "country": "AR",
    "id": 3838222,
    "coord": {
      "lat": -34.25,
      "lon": -60.25
    },
    "name": "Partido de Salto"
  },
  {
    "country": "AR",
    "id": 3838227,
    "coord": {
      "lat": -34.292919,
      "lon": -60.254551
    },
    "name": "Salto"
  },
  {
    "country": "AR",
    "id": 3853351,
    "coord": {
      "lat": -34.5,
      "lon": -61
    },
    "name": "Partido de Junín"
  },
  {
    "country": "AR",
    "id": 3853354,
    "coord": {
      "lat": -34.58382,
      "lon": -60.943321
    },
    "name": "Junin"
  },
  {
    "country": "AR",
    "id": 3841159,
    "coord": {
      "lat": -37.605091,
      "lon": -62.403332
    },
    "name": "Pigüé"
  },
  {
    "country": "AR",
    "id": 3431309,
    "coord": {
      "lat": -35.25,
      "lon": -59.166672
    },
    "name": "Partido de Lobos"
  },
  {
    "country": "AR",
    "id": 3431313,
    "coord": {
      "lat": -35.182861,
      "lon": -59.089748
    },
    "name": "Lobos"
  },
  {
    "country": "AR",
    "id": 3841612,
    "coord": {
      "lat": -26.16667,
      "lon": -64.25
    },
    "name": "Departamento de Pellegrini"
  },
  {
    "country": "AR",
    "id": 3864419,
    "coord": {
      "lat": -25.883329,
      "lon": -63.933331
    },
    "name": "Belgrano"
  },
  {
    "country": "AR",
    "id": 3436388,
    "coord": {
      "lat": -33.908981,
      "lon": -59.38866
    },
    "name": "Alsina"
  },
  {
    "country": "AR",
    "id": 3427326,
    "coord": {
      "lat": -34.694672,
      "lon": -58.31287
    },
    "name": "Wilde"
  },
  {
    "country": "AR",
    "id": 3864851,
    "coord": {
      "lat": -26.83333,
      "lon": -65.166672
    },
    "name": "Banda del Río Salí"
  },
  {
    "country": "AR",
    "id": 3435010,
    "coord": {
      "lat": -34.496738,
      "lon": -58.639149
    },
    "name": "Don Torcuato"
  },
  {
    "country": "AR",
    "id": 3430876,
    "coord": {
      "lat": -34.484619,
      "lon": -58.868252
    },
    "name": "Manzone"
  },
  {
    "country": "AR",
    "id": 3865884,
    "coord": {
      "lat": -34.133228,
      "lon": -62.421452
    },
    "name": "Amenábar"
  },
  {
    "country": "AR",
    "id": 3430813,
    "coord": {
      "lat": -34.493969,
      "lon": -58.516788
    },
    "name": "Martínez"
  },
  {
    "country": "AR",
    "id": 3841493,
    "coord": {
      "lat": -33.76936,
      "lon": -60.094158
    },
    "name": "Pérez Millán"
  },
  {
    "country": "AR",
    "id": 3859522,
    "coord": {
      "lat": -37.688919,
      "lon": -63.160759
    },
    "name": "Darregueira"
  },
  {
    "country": "AR",
    "id": 3427453,
    "coord": {
      "lat": -34.504719,
      "lon": -58.67952
    },
    "name": "Villa de Mayo"
  },
  {
    "country": "AR",
    "id": 3866417,
    "coord": {
      "lat": -26.5,
      "lon": -62.75
    },
    "name": "Departamento de Alberdi"
  },
  {
    "country": "AR",
    "id": 3832666,
    "coord": {
      "lat": -26.549999,
      "lon": -63.666672
    },
    "name": "Villa Nueva"
  },
  {
    "country": "AR",
    "id": 3836669,
    "coord": {
      "lat": -34.617722,
      "lon": -68.33007
    },
    "name": "San Rafael"
  },
  {
    "country": "AR",
    "id": 3840762,
    "coord": {
      "lat": -31.01391,
      "lon": -62.066502
    },
    "name": "Portena"
  },
  {
    "country": "AR",
    "id": 3862254,
    "coord": {
      "lat": -37.87907,
      "lon": -67.795601
    },
    "name": "Catriel"
  },
  {
    "country": "AR",
    "id": 3860431,
    "coord": {
      "lat": -32.560089,
      "lon": -65.242699
    },
    "name": "Concaran"
  },
  {
    "country": "AR",
    "id": 3433910,
    "coord": {
      "lat": -34.63335,
      "lon": -58.46619
    },
    "name": "Floresta"
  },
  {
    "country": "AR",
    "id": 3428609,
    "coord": {
      "lat": -35.439621,
      "lon": -58.806751
    },
    "name": "San Miguel del Monte"
  },
  {
    "country": "AR",
    "id": 3841684,
    "coord": {
      "lat": -39.502541,
      "lon": -62.68169
    },
    "name": "Pedro Luro"
  },
  {
    "country": "AR",
    "id": 3430102,
    "coord": {
      "lat": -34.656219,
      "lon": -58.75898
    },
    "name": "Paso del Rey"
  },
  {
    "country": "AR",
    "id": 3843392,
    "coord": {
      "lat": -29.179609,
      "lon": -63.220119
    },
    "name": "Navarro"
  },
  {
    "country": "AR",
    "id": 3840253,
    "coord": {
      "lat": -37.545761,
      "lon": -62.767231
    },
    "name": "Puan"
  },
  {
    "country": "AR",
    "id": 3855607,
    "coord": {
      "lat": -27.92038,
      "lon": -63.89349
    },
    "name": "Fernández"
  },
  {
    "country": "AR",
    "id": 3862599,
    "coord": {
      "lat": -35.416672,
      "lon": -62.416672
    },
    "name": "Partido de Carlos Tejedor"
  },
  {
    "country": "AR",
    "id": 3862600,
    "coord": {
      "lat": -35.392651,
      "lon": -62.421459
    },
    "name": "Carlos Tejedor"
  },
  {
    "country": "AR",
    "id": 3427753,
    "coord": {
      "lat": -34.420582,
      "lon": -58.58279
    },
    "name": "Partido de Tigre"
  },
  {
    "country": "AR",
    "id": 3427761,
    "coord": {
      "lat": -34.426029,
      "lon": -58.57962
    },
    "name": "Tigre"
  },
  {
    "country": "AR",
    "id": 3859910,
    "coord": {
      "lat": -33.699951,
      "lon": -65.357368
    },
    "name": "Crámer"
  },
  {
    "country": "AR",
    "id": 3863395,
    "coord": {
      "lat": -38.72271,
      "lon": -62.054909
    },
    "name": "Calderón"
  },
  {
    "country": "AR",
    "id": 3433661,
    "coord": {
      "lat": -33,
      "lon": -59.583328
    },
    "name": "Departamento de Gualeguay"
  },
  {
    "country": "AR",
    "id": 3433663,
    "coord": {
      "lat": -33.14156,
      "lon": -59.309662
    },
    "name": "Gualeguay"
  },
  {
    "country": "AR",
    "id": 3861056,
    "coord": {
      "lat": -38.933922,
      "lon": -67.990318
    },
    "name": "Cipolletti"
  },
  {
    "country": "AR",
    "id": 3837441,
    "coord": {
      "lat": -31.896179,
      "lon": -61.85984
    },
    "name": "San Jorge"
  },
  {
    "country": "AR",
    "id": 3427426,
    "coord": {
      "lat": -31.58333,
      "lon": -59
    },
    "name": "Departamento de Villaguay"
  },
  {
    "country": "AR",
    "id": 3427428,
    "coord": {
      "lat": -31.865299,
      "lon": -59.02689
    },
    "name": "Villaguay"
  },
  {
    "country": "AR",
    "id": 3855974,
    "coord": {
      "lat": -42.900002,
      "lon": -71.316673
    },
    "name": "Esquel"
  },
  {
    "country": "AR",
    "id": 3838506,
    "coord": {
      "lat": -34.268269,
      "lon": -62.71262
    },
    "name": "Rufino"
  },
  {
    "country": "AR",
    "id": 3860163,
    "coord": {
      "lat": -37.5,
      "lon": -61.833328
    },
    "name": "Partido de Coronel Suárez"
  },
  {
    "country": "AR",
    "id": 3860164,
    "coord": {
      "lat": -37.45467,
      "lon": -61.93343
    },
    "name": "Coronel Suarez"
  },
  {
    "country": "AR",
    "id": 3435971,
    "coord": {
      "lat": -34.50732,
      "lon": -58.565811
    },
    "name": "Boulogne"
  },
  {
    "country": "AR",
    "id": 3434146,
    "coord": {
      "lat": -38.558601,
      "lon": -59.35519
    },
    "name": "Energía"
  },
  {
    "country": "AR",
    "id": 3427430,
    "coord": {
      "lat": -34.80336,
      "lon": -58.209499
    },
    "name": "Villa Giambruno"
  },
  {
    "country": "AR",
    "id": 3433975,
    "coord": {
      "lat": -34.84787,
      "lon": -58.52869
    },
    "name": "Ezeiza"
  },
  {
    "country": "AR",
    "id": 3434509,
    "coord": {
      "lat": -34.541672,
      "lon": -58.61528
    },
    "name": "El Palomar"
  },
  {
    "country": "AR",
    "id": 3436022,
    "coord": {
      "lat": -34.579762,
      "lon": -58.58559
    },
    "name": "Billinghurst"
  },
  {
    "country": "AR",
    "id": 3436080,
    "coord": {
      "lat": -34.46312,
      "lon": -58.534809
    },
    "name": "Beccar"
  },
  {
    "country": "AR",
    "id": 3427413,
    "coord": {
      "lat": -34.631969,
      "lon": -58.702599
    },
    "name": "Villa León"
  },
  {
    "country": "AR",
    "id": 3429316,
    "coord": {
      "lat": -34.563091,
      "lon": -58.545292
    },
    "name": "San Andrés"
  },