[

  {
    "country": "AT",
    "id": 7871309,
    "coord": {
      "lat": 48.16082,
      "lon": 14.02164
    },
    "name": "Wels(Stadt)"
  },
  {
    "country": "AT",
    "id": 2760380,
    "coord": {
      "lat": 46.804169,
      "lon": 13.58056
    },
    "name": "Millstatt"
  },
  {
    "country": "AT",
    "id": 2760523,
    "coord": {
      "lat": 47.283329,
      "lon": 11.23333
    },
    "name": "Zirl"
  },
  {
    "country": "AT",
    "id": 2760704,
    "coord": {
      "lat": 47.150002,
      "lon": 13.5
    },
    "name": "Zederhaus"
  },
  {
    "country": "AT",
    "id": 2760797,
    "coord": {
      "lat": 48.254971,
      "lon": 15.86031
    },
    "name": "Wurmla"
  },
  {
    "country": "AT",
    "id": 2760814,
    "coord": {
      "lat": 46.926392,
      "lon": 15.45111
    },
    "name": "Wundschuh"
  },
  {
    "country": "AT",
    "id": 2760839,
    "coord": {
      "lat": 47.200001,
      "lon": 16.066669
    },
    "name": "Worth an der Lafnitz"
  },
  {
    "country": "AT",
    "id": 2760906,
    "coord": {
      "lat": 46.843891,
      "lon": 15.65889
    },
    "name": "Wolfsberg im Schwarzautal"
  },
  {
    "country": "AT",
    "id": 2761615,
    "coord": {
      "lat": 47.982109,
      "lon": 16.039351
    },
    "name": "Weissenbach an der Triesting"
  },
  {
    "country": "AT",
    "id": 2761689,
    "coord": {
      "lat": 47.51667,
      "lon": 16.366671
    },
    "name": "Weingraben"
  },
  {
    "country": "AT",
    "id": 2768118,
    "coord": {
      "lat": 46.75,
      "lon": 15.85
    },
    "name": "Politischer Bezirk Radkersburg"
  },
  {
    "country": "AT",
    "id": 2761697,
    "coord": {
      "lat": 46.753609,
      "lon": 15.72111
    },
    "name": "Weinburg am Sassbach"
  },
  {
    "country": "AT",
    "id": 2761772,
    "coord": {
      "lat": 46.942501,
      "lon": 16.1875
    },
    "name": "Weichselbaum"
  },
  {
    "country": "AT",
    "id": 7873628,
    "coord": {
      "lat": 47.206909,
      "lon": 11.62618
    },
    "name": "Wattenberg"
  },
  {
    "country": "AT",
    "id": 7873700,
    "coord": {
      "lat": 47.487701,
      "lon": 10.66587
    },
    "name": "Wängle"
  },
  {
    "country": "AT",
    "id": 2763118,
    "coord": {
      "lat": 46.865559,
      "lon": 15.77028
    },
    "name": "Unterauersbach"
  },
  {
    "country": "AT",
    "id": 7873332,
    "coord": {
      "lat": 47.63969,
      "lon": 12.68151
    },
    "name": "Unken"
  },
  {
    "country": "AT",
    "id": 7873305,
    "coord": {
      "lat": 47.848572,
      "lon": 13.25171
    },
    "name": "Thalgau"
  },
  {
    "country": "AT",
    "id": 7872827,
    "coord": {
      "lat": 48.14954,
      "lon": 14.64814
    },
    "name": "Strengberg"
  },
  {
    "country": "AT",
    "id": 7873697,
    "coord": {
      "lat": 47.23756,
      "lon": 10.24982
    },
    "name": "Steeg"
  },
  {
    "country": "AT",
    "id": 2764625,
    "coord": {
      "lat": 47.133331,
      "lon": 15.41667
    },
    "name": "Stattegg"
  },
  {
    "country": "AT",
    "id": 7872462,
    "coord": {
      "lat": 47.605782,
      "lon": 15.78324
    },
    "name": "Spital am Semmering"
  },
  {
    "country": "AT",
    "id": 7871793,
    "coord": {
      "lat": 48.372162,
      "lon": 16.264481
    },
    "name": "Spillern"
  },
  {
    "country": "AT",
    "id": 2764797,
    "coord": {
      "lat": 48.383331,
      "lon": 16.25
    },
    "name": "Spillern"
  },
  {
    "country": "AT",
    "id": 2764806,
    "coord": {
      "lat": 46.705559,
      "lon": 15.63722
    },
    "name": "Spielfeld"
  },
  {
    "country": "AT",
    "id": 7873657,
    "coord": {
      "lat": 47.50407,
      "lon": 12.20422
    },
    "name": "Söll"
  },
  {
    "country": "AT",
    "id": 2764988,
    "coord": {
      "lat": 46.544441,
      "lon": 14.60583
    },
    "name": "Sittersdorf"
  },
  {
    "country": "AT",
    "id": 7872710,
    "coord": {
      "lat": 47.65868,
      "lon": 16.387939
    },
    "name": "Sieggraben"
  },
  {
    "country": "AT",
    "id": 7873440,
    "coord": {
      "lat": 47.21376,
      "lon": 15.7932
    },
    "name": "Siegersdorf bei Herberstein"
  },
  {
    "country": "AT",
    "id": 7872367,
    "coord": {
      "lat": 47.191299,
      "lon": 16.00522
    },
    "name": "Sebersdorf"
  },
  {
    "country": "AT",
    "id": 2765338,
    "coord": {
      "lat": 47.200001,
      "lon": 15.98333
    },
    "name": "Sebersdorf"
  },
  {
    "country": "AT",
    "id": 7872572,
    "coord": {
      "lat": 47.53714,
      "lon": 12.15178
    },
    "name": "Schwoich"
  },
  {
    "country": "AT",
    "id": 7873642,
    "coord": {
      "lat": 47.614689,
      "lon": 12.39171
    },
    "name": "Schwendt"
  },
  {
    "country": "AT",
    "id": 7872892,
    "coord": {
      "lat": 48.740009,
      "lon": 15.89765
    },
    "name": "Schrattenthal"
  },
  {
    "country": "AT",
    "id": 2766084,
    "coord": {
      "lat": 47.52943,
      "lon": 12.25139
    },
    "name": "Scheffau am Wilden Kaiser"
  },
  {
    "country": "AT",
    "id": 2766143,
    "coord": {
      "lat": 48.083328,
      "lon": 16.783331
    },
    "name": "Scharndorf"
  },
  {
    "country": "AT",
    "id": 7872755,
    "coord": {
      "lat": 47.23402,
      "lon": 16.42375
    },
    "name": "Schandorf"
  },
  {
    "country": "AT",
    "id": 7873594,
    "coord": {
      "lat": 47.201881,
      "lon": 10.85456
    },
    "name": "Sautens"
  },
  {
    "country": "AT",
    "id": 2766357,
    "coord": {
      "lat": 48.043201,
      "lon": 15.66942
    },
    "name": "Sankt Veit an der Golsen"
  },
  {
    "country": "AT",
    "id": 2766372,
    "coord": {
      "lat": 48.021851,
      "lon": 14.42419
    },
    "name": "Sankt Ulrich bei Steyr"
  },
  {
    "country": "AT",
    "id": 7872430,
    "coord": {
      "lat": 47.295929,
      "lon": 15.00455
    },
    "name": "Sankt Stefan ob Leoben"
  },
  {
    "country": "AT",
    "id": 7873527,
    "coord": {
      "lat": 47.201809,
      "lon": 14.18306
    },
    "name": "Sankt Peter am Kammersberg"
  },
  {
    "country": "AT",
    "id": 2766444,
    "coord": {
      "lat": 47.183331,
      "lon": 14.18333
    },
    "name": "Sankt Peter am Kammersberg"
  },
  {
    "country": "AT",
    "id": 7872343,
    "coord": {
      "lat": 47.088921,
      "lon": 15.29907
    },
    "name": "Sankt Oswald bei Plankenwarth"
  },
  {
    "country": "AT",
    "id": 7872418,
    "coord": {
      "lat": 46.801819,
      "lon": 15.66296
    },
    "name": "Sankt Nikolai ob Draßling"
  },
  {
    "country": "AT",
    "id": 7872417,
    "coord": {
      "lat": 46.823872,
      "lon": 15.44996
    },
    "name": "Sankt Nikolai im Sausal"
  },
  {
    "country": "AT",
    "id": 7872428,
    "coord": {
      "lat": 47.3125,
      "lon": 15.05883
    },
    "name": "Sankt Michael in Obersteiermark"
  },
  {
    "country": "AT",
    "id": 7873322,
    "coord": {
      "lat": 47.106091,
      "lon": 13.61442
    },
    "name": "Sankt Michael im Lungau"
  },
  {
    "country": "AT",
    "id": 7872697,
    "coord": {
      "lat": 47.12516,
      "lon": 16.26557
    },
    "name": "Sankt Michael im Burgenland"
  },
  {
    "country": "AT",
    "id": 7872272,
    "coord": {
      "lat": 46.763111,
      "lon": 15.29627
    },
    "name": "Sankt Martin im Sulmtal"
  },
  {
    "country": "AT",
    "id": 7872704,
    "coord": {
      "lat": 46.90802,
      "lon": 16.122549
    },
    "name": "Sankt Martin an der Raab"
  },
  {
    "country": "AT",
    "id": 7872450,
    "coord": {
      "lat": 47.491119,
      "lon": 13.96173
    },
    "name": "Sankt Martin am Grimming"
  },
  {
    "country": "AT",
    "id": 2766551,
    "coord": {
      "lat": 47.216671,
      "lon": 14.86667
    },
    "name": "Sankt Margarethen bei Knittelfeld"
  },
  {
    "country": "AT",
    "id": 2766563,
    "coord": {
      "lat": 47.066669,
      "lon": 14.41667
    },
    "name": "Sankt Marein bei Neumarkt"
  },
  {
    "country": "AT",
    "id": 7872397,
    "coord": {
      "lat": 47.315399,
      "lon": 14.84398
    },
    "name": "Sankt Marein bei Knittelfeld"
  },
  {
    "country": "AT",
    "id": 7873412,
    "coord": {
      "lat": 47.01886,
      "lon": 15.69616
    },
    "name": "Sankt Marein bei Graz"
  },
  {
    "country": "AT",
    "id": 7872415,
    "coord": {
      "lat": 46.878319,
      "lon": 15.59152
    },
    "name": "Sankt Georgen an der Stiefing"
  },
  {
    "country": "AT",
    "id": 2766699,
    "coord": {
      "lat": 46.873329,
      "lon": 15.57972
    },
    "name": "Sankt Georgen an der Stiefing"
  },
  {
    "country": "AT",
    "id": 2766725,
    "coord": {
      "lat": 47.683331,
      "lon": 14.6
    },
    "name": "Sankt Gallen"
  },
  {
    "country": "AT",
    "id": 7872997,
    "coord": {
      "lat": 47.577549,
      "lon": 16.000549
    },
    "name": "Sankt Corona am Wechsel"
  },
  {
    "country": "AT",
    "id": 2766757,
    "coord": {
      "lat": 47.127499,
      "lon": 10.26372
    },
    "name": "Sankt Anton am Arlberg"
  },
  {
    "country": "AT",
    "id": 2766905,
    "coord": {
      "lat": 46.82917,
      "lon": 13.355
    },
    "name": "Sachsenburg"
  },
  {
    "country": "AT",
    "id": 2767005,
    "coord": {
      "lat": 46.658329,
      "lon": 14.77639
    },
    "name": "Ruden"
  },
  {
    "country": "AT",
    "id": 2767074,
    "coord": {
      "lat": 47.29332,
      "lon": 9.65484
    },
    "name": "Rothis"
  },
  {
    "country": "AT",
    "id": 7873060,
    "coord": {
      "lat": 47.885422,
      "lon": 15.73702
    },
    "name": "Rohr im Gebirge"
  },
  {
    "country": "AT",
    "id": 7872901,
    "coord": {
      "lat": 48.662849,
      "lon": 15.49357
    },
    "name": "Röhrenbach"
  },
  {
    "country": "AT",
    "id": 2767681,
    "coord": {
      "lat": 48,
      "lon": 16.51667
    },
    "name": "Reisenberg"
  },
  {
    "country": "AT",
    "id": 7873032,
    "coord": {
      "lat": 47.992119,
      "lon": 15.08148
    },
    "name": "Reinsberg"
  },
  {
    "country": "AT",
    "id": 2767696,
    "coord": {
      "lat": 47.985668,
      "lon": 15.07067
    },
    "name": "Reinsberg"
  },
  {
    "country": "AT",
    "id": 2767907,
    "coord": {
      "lat": 46.742222,
      "lon": 15.81583
    },
    "name": "Ratschendorf"
  },
  {
    "country": "AT",
    "id": 2767987,
    "coord": {
      "lat": 48.011978,
      "lon": 14.97334
    },
    "name": "Randegg"
  },
  {
    "country": "AT",
    "id": 2768007,
    "coord": {
      "lat": 47.203831,
      "lon": 11.87545
    },
    "name": "Ramsau im Zillertal"
  },
  {
    "country": "AT",
    "id": 7872307,
    "coord": {
      "lat": 46.962189,
      "lon": 15.91384
    },
    "name": "Raabau"
  },
  {
    "country": "AT",
    "id": 7872889,
    "coord": {
      "lat": 48.709671,
      "lon": 15.86013
    },
    "name": "Pulkau"
  },
  {
    "country": "AT",
    "id": 2768263,
    "coord": {
      "lat": 48.033329,
      "lon": 13.71667
    },
    "name": "Puhret"
  },
  {
    "country": "AT",
    "id": 7873575,
    "coord": {
      "lat": 47.220139,
      "lon": 15.72771
    },
    "name": "Puch bei Weiz"
  },
  {
    "country": "AT",
    "id": 7872200,
    "coord": {
      "lat": 47.734241,
      "lon": 13.12168
    },
    "name": "Puch bei Hallein"
  },
  {
    "country": "AT",
    "id": 7873668,
    "coord": {
      "lat": 47.077621,
      "lon": 10.67599
    },
    "name": "Prutz"
  },
  {
    "country": "AT",
    "id": 2768295,
    "coord": {
      "lat": 47.416672,
      "lon": 13.86667
    },
    "name": "Pruggern"
  },
  {
    "country": "AT",
    "id": 2768316,
    "coord": {
      "lat": 48.200001,
      "lon": 15.51667
    },
    "name": "Prinzersdorf"
  },
  {
    "country": "AT",
    "id": 7871679,
    "coord": {
      "lat": 46.948711,
      "lon": 14.94735
    },
    "name": "Preitenegg"
  },
  {
    "country": "AT",
    "id": 7872765,
    "coord": {
      "lat": 46.66243,
      "lon": 14.47562
    },
    "name": "Poggersdorf"
  },
  {
    "country": "AT",
    "id": 7873666,
    "coord": {
      "lat": 46.948799,
      "lon": 10.58164
    },
    "name": "Pfunds"
  },
  {
    "country": "AT",
    "id": 7872115,
    "coord": {
      "lat": 48.50375,
      "lon": 13.82664
    },
    "name": "Pfarrkirchen im Mühlkreis"
  },
  {
    "country": "AT",
    "id": 7872144,
    "coord": {
      "lat": 48.019562,
      "lon": 14.19189
    },
    "name": "Pfarrkirchen bei Bad Hall"
  },
  {
    "country": "AT",
    "id": 2769344,
    "coord": {
      "lat": 48.46632,
      "lon": 14.38471
    },
    "name": "Ottenschlag im Muhlkreis"
  },
  {
    "country": "AT",
    "id": 7873276,
    "coord": {
      "lat": 48.153259,
      "lon": 13.84551
    },
    "name": "Offenhausen"
  },
  {
    "country": "AT",
    "id": 7873502,
    "coord": {
      "lat": 47.42738,
      "lon": 14.02492
    },
    "name": "Öblarn"
  },
  {
    "country": "AT",
    "id": 7872409,
    "coord": {
      "lat": 46.745682,
      "lon": 15.58618
    },
    "name": "Obervogau"
  },
  {
    "country": "AT",
    "id": 7871655,
    "coord": {
      "lat": 46.93309,
      "lon": 13.19738
    },
    "name": "Obervellach"
  },
  {
    "country": "AT",
    "id": 7872164,
    "coord": {
      "lat": 48.0606,
      "lon": 13.75406
    },
    "name": "Oberndorf bei Schwanenstadt"
  },
  {
    "country": "AT",
    "id": 7873301,
    "coord": {
      "lat": 47.940189,
      "lon": 12.94163
    },
    "name": "Oberndorf bei Salzburg"
  },
  {
    "country": "AT",
    "id": 7871614,
    "coord": {
      "lat": 47.442249,
      "lon": 16.498171
    },
    "name": "Oberloisdorf"
  },
  {
    "country": "AT",
    "id": 7872599,
    "coord": {
      "lat": 46.850788,
      "lon": 12.70049
    },
    "name": "Oberlienz"
  },
  {
    "country": "AT",
    "id": 2769994,
    "coord": {
      "lat": 47.23333,
      "lon": 14.58333
    },
    "name": "Oberkurzheim"
  },
  {
    "country": "AT",
    "id": 7873612,
    "coord": {
      "lat": 47.273251,
      "lon": 11.0973
    },
    "name": "Oberhofen im Inntal"
  },
  {
    "country": "AT",
    "id": 2770041,
    "coord": {
      "lat": 47.299999,
      "lon": 11.08333
    },
    "name": "Oberhofen im Inntal"
  },
  {
    "country": "AT",
    "id": 2770042,
    "coord": {
      "lat": 47.950001,
      "lon": 13.3
    },
    "name": "Oberhofen am Irrsee"
  },
  {
    "country": "AT",
    "id": 7872408,
    "coord": {
      "lat": 46.679409,
      "lon": 15.35343
    },
    "name": "Oberhaag"
  },
  {
    "country": "AT",
    "id": 2770086,
    "coord": {
      "lat": 46.686901,
      "lon": 15.33202
    },
    "name": "Oberhaag"
  },
  {
    "country": "AT",
    "id": 2770472,
    "coord": {
      "lat": 48.224331,
      "lon": 14.98123
    },
    "name": "Nochling"
  },
  {
    "country": "AT",
    "id": 2770482,
    "coord": {
      "lat": 47.383331,
      "lon": 15.15
    },
    "name": "Niklasdorf"
  },
  {
    "country": "AT",
    "id": 7872753,
    "coord": {
      "lat": 47.362961,
      "lon": 16.03647
    },
    "name": "Neustift an der Lafnitz"
  },
  {
    "country": "AT",
    "id": 2770772,
    "coord": {
      "lat": 46.87056,
      "lon": 16.028891
    },
    "name": "Neuhaus am Klausenbach"
  },
  {
    "country": "AT",
    "id": 7871536,
    "coord": {
      "lat": 47.863708,
      "lon": 16.375071
    },
    "name": "Neufeld an der Leitha"
  },
  {
    "country": "AT",
    "id": 2770897,
    "coord": {
      "lat": 47.599998,
      "lon": 16.549999
    },
    "name": "Neckenmarkt"
  },
  {
    "country": "AT",
    "id": 2770910,
    "coord": {
      "lat": 46.883331,
      "lon": 10.51667
    },
    "name": "Nauders"
  },
  {
    "country": "AT",
    "id": 7873691,
    "coord": {
      "lat": 47.359879,
      "lon": 10.6651
    },
    "name": "Namlos"
  },
  {
    "country": "AT",
    "id": 2771207,
    "coord": {
      "lat": 47.200001,
      "lon": 15.56667
    },
    "name": "Mortantsch"
  },
  {
    "country": "AT",
    "id": 7872243,
    "coord": {
      "lat": 47.234741,
      "lon": 12.48588
    },
    "name": "Mittersill"
  },
  {
    "country": "AT",
    "id": 2771533,
    "coord": {
      "lat": 47.3237,
      "lon": 10.15463
    },
    "name": "Mittelberg"
  },
  {
    "country": "AT",
    "id": 7872299,
    "coord": {
      "lat": 46.850731,
      "lon": 15.9116
    },
    "name": "Merkendorf"
  },
  {
    "country": "AT",
    "id": 2771764,
    "coord": {
      "lat": 47.13451,
      "lon": 13.67884
    },
    "name": "Mauterndorf"
  },
  {
    "country": "AT",
    "id": 7873073,
    "coord": {
      "lat": 48.252949,
      "lon": 16.172501
    },
    "name": "Mauerbach"
  },
  {
    "country": "AT",
    "id": 7873609,
    "coord": {
      "lat": 47.128521,
      "lon": 11.45222
    },
    "name": "Matrei am Brenner"
  },
  {
    "country": "AT",
    "id": 7871739,
    "coord": {
      "lat": 48.281181,
      "lon": 16.63883
    },
    "name": "Markgrafneusiedl"
  },
  {
    "country": "AT",
    "id": 7871820,
    "coord": {
      "lat": 48.235229,
      "lon": 15.15958
    },
    "name": "Maria Taferl"
  },
  {
    "country": "AT",
    "id": 2771940,
    "coord": {
      "lat": 48.099998,
      "lon": 16.283331
    },
    "name": "Maria Enzersdorf"
  },
  {
    "country": "AT",
    "id": 2771949,
    "coord": {
      "lat": 48.190121,
      "lon": 15.93155
    },
    "name": "Maria-Anzbach"
  },
  {
    "country": "AT",
    "id": 2772058,
    "coord": {
      "lat": 48.566669,
      "lon": 15.81667
    },
    "name": "Maissau"
  },
  {
    "country": "AT",
    "id": 7872242,
    "coord": {
      "lat": 47.366131,
      "lon": 12.80358
    },
    "name": "Maishofen"
  },
  {
    "country": "AT",
    "id": 7873380,
    "coord": {
      "lat": 46.902229,
      "lon": 15.85394
    },
    "name": "Maierdorf"
  },
  {
    "country": "AT",
    "id": 7873072,
    "coord": {
      "lat": 48.10788,
      "lon": 16.39854
    },
    "name": "Leopoldsdorf"
  },
  {
    "country": "AT",
    "id": 2772645,
    "coord": {
      "lat": 47.927959,
      "lon": 16.216511
    },
    "name": "Leobersdorf"
  },
  {
    "country": "AT",
    "id": 2772653,
    "coord": {
      "lat": 47.973259,
      "lon": 13.60846
    },
    "name": "Lenzing"
  },
  {
    "country": "AT",
    "id": 7872618,
    "coord": {
      "lat": 47.497478,
      "lon": 10.69546
    },
    "name": "Lechaschau"
  },
  {
    "country": "AT",
    "id": 2772796,
    "coord": {
      "lat": 47.48333,
      "lon": 10.7
    },
    "name": "Lechaschau"
  },
  {
    "country": "AT",
    "id": 2772891,
    "coord": {
      "lat": 47.51667,
      "lon": 14.26667
    },
    "name": "Lassing"
  },
  {
    "country": "AT",
    "id": 7871736,
    "coord": {
      "lat": 48.233189,
      "lon": 16.82222
    },
    "name": "Lassee"
  },
  {
    "country": "AT",
    "id": 7871936,
    "coord": {
      "lat": 47.73888,
      "lon": 16.256689
    },
    "name": "Lanzenkirchen"
  },
  {
    "country": "AT",
    "id": 2776496,
    "coord": {
      "lat": 46.599998,
      "lon": 13.13333
    },
    "name": "Politischer Bezirk Hermagor"
  },
  {
    "country": "AT",
    "id": 7872756,
    "coord": {
      "lat": 46.638401,
      "lon": 13.1659
    },
    "name": "Kirchbach"
  },
  {
    "country": "AT",
    "id": 2775307,
    "coord": {
      "lat": 47.245041,
      "lon": 10.73974
    },
    "name": "Imst"
  },
  {
    "country": "AT",
    "id": 7872837,
    "coord": {
      "lat": 47.913319,
      "lon": 16.08
    },
    "name": "Hernstein"
  },
  {
    "country": "AT",
    "id": 2776485,
    "coord": {
      "lat": 47.89465,
      "lon": 16.10561
    },
    "name": "Hernstein"
  },
  {
    "country": "AT",
    "id": 2762077,
    "coord": {
      "lat": 47.960041,
      "lon": 14.77361
    },
    "name": "Waidhofen an der Ybbs"
  },
  {
    "country": "AT",
    "id": 2766080,
    "coord": {
      "lat": 48.004742,
      "lon": 15.16817
    },
    "name": "Scheibbs"
  },
  {
    "country": "AT",
    "id": 2768274,
    "coord": {
      "lat": 47.928188,
      "lon": 15.28748
    },
    "name": "Puchenstuben"
  },
  {
    "country": "AT",
    "id": 2771725,
    "coord": {
      "lat": 47.166672,
      "lon": 11.86667
    },
    "name": "Mayrhofen"
  },
  {
    "country": "AT",
    "id": 2771893,
    "coord": {
      "lat": 47.77306,
      "lon": 15.31639
    },
    "name": "Mariazell"
  },
  {
    "country": "AT",
    "id": 2766824,
    "coord": {
      "lat": 47.799412,
      "lon": 13.04399
    },
    "name": "Salzburg"
  },
  {
    "country": "AT",
    "id": 3335053,
    "coord": {
      "lat": 47.116669,
      "lon": 15.55
    },
    "name": "Greith"
  },
  {
    "country": "AT",
    "id": 2768273,
    "coord": {
      "lat": 47.116669,
      "lon": 14.43333
    },
    "name": "Puchfeld"
  },
  {
    "country": "AT",
    "id": 2768895,
    "coord": {
      "lat": 47.400002,
      "lon": 15.18333
    },
    "name": "Picheldorf"
  },
  {
    "country": "AT",
    "id": 2762809,
    "coord": {
      "lat": 48.183331,
      "lon": 14.03333
    },
    "name": "Unterleithen"
  },
  {
    "country": "AT",
    "id": 7871967,
    "coord": {
      "lat": 48.203911,
      "lon": 13.10051
    },
    "name": "Burgkirchen"
  },
  {
    "country": "AT",
    "id": 2775260,
    "coord": {
      "lat": 48.209061,
      "lon": 16.371349
    },
    "name": "Innere Stadt"
  },
  {
    "country": "AT",
    "id": 2779225,
    "coord": {
      "lat": 48.301868,
      "lon": 14.24558
    },
    "name": "Friesenegg"
  },
  {
    "country": "AT",
    "id": 2761377,
    "coord": {
      "lat": 48.75,
      "lon": 14.93333
    },
    "name": "Wielands"
  },
  {
    "country": "AT",
    "id": 2773064,
    "coord": {
      "lat": 48.416672,
      "lon": 15.63333
    },
    "name": "Landersdorf"
  },
  {
    "country": "AT",
    "id": 2764178,
    "coord": {
      "lat": 47.033329,
      "lon": 15.4
    },
    "name": "Strassgang"
  },
  {
    "country": "AT",
    "id": 2772062,
    "coord": {
      "lat": 48.5,
      "lon": 16.299999
    },
    "name": "Maisbirbaum"
  },
  {
    "country": "AT",
    "id": 2601501,
    "coord": {
      "lat": 48.022541,
      "lon": 16.23539
    },
    "name": "Einöde"
  },
  {
    "country": "AT",
    "id": 7872673,
    "coord": {
      "lat": 47.375118,
      "lon": 9.77234
    },
    "name": "Dornbirn"
  },
  {
    "country": "AT",
    "id": 7871492,
    "coord": {
      "lat": 46.612541,
      "lon": 13.8529
    },
    "name": "Villach"
  },
  {
    "country": "AT",
    "id": 2773536,
    "coord": {
      "lat": 48.416672,
      "lon": 15.6
    },
    "name": "Kremsthal"
  },
  {
    "country": "AT",
    "id": 2774321,
    "coord": {
      "lat": 46.633331,
      "lon": 14.3
    },
    "name": "Klagenfurt am Wörthersee"
  },
  {
    "country": "AT",
    "id": 7871497,
    "coord": {
      "lat": 46.638729,
      "lon": 14.2973
    },
    "name": "Klagenfurt"
  },
  {
    "country": "AT",
    "id": 6949518,
    "coord": {
      "lat": 47.2672,
      "lon": 11.3928
    },
    "name": "Innsbruck (Innenstadt)"
  },
  {
    "country": "AT",
    "id": 2781680,
    "coord": {
      "lat": 47.149719,
      "lon": 9.81667
    },
    "name": "Bludenz"
  },
  {
    "country": "AT",
    "id": 2776950,
    "coord": {
      "lat": 47.599998,
      "lon": 13.3
    },
    "name": "Politischer Bezirk Hallein"
  },
  {
    "country": "AT",
    "id": 2772444,
    "coord": {
      "lat": 47.91151,
      "lon": 16.16947
    },
    "name": "Lindabrunn"
  },
  {
    "country": "AT",
    "id": 2765028,
    "coord": {
      "lat": 48.183331,
      "lon": 16.433331
    },
    "name": "Simmering"
  },
  {
    "country": "AT",
    "id": 7871844,
    "coord": {
      "lat": 48.57795,
      "lon": 16.577909
    },
    "name": "Mistelbach"
  },
  {
    "country": "AT",
    "id": 2762343,
    "coord": {
      "lat": 48.01667,
      "lon": 13.65
    },
    "name": "Vocklabruck"
  },
  {
    "country": "AT",
    "id": 2773886,
    "coord": {
      "lat": 47.25,
      "lon": 14.8
    },
    "name": "Politischer Bezirk Knittelfeld"
  },
  {
    "country": "AT",
    "id": 7873694,
    "coord": {
      "lat": 47.465778,
      "lon": 10.75792
    },
    "name": "Reutte"
  },
  {
    "country": "AT",
    "id": 2769105,
    "coord": {
      "lat": 48.25,
      "lon": 14.63333
    },
    "name": "Perg"
  },
  {
    "country": "AT",
    "id": 7872153,
    "coord": {
      "lat": 48.475609,
      "lon": 14.21401
    },
    "name": "Oberneukirchen"
  },
  {
    "country": "AT",
    "id": 2762619,
    "coord": {
      "lat": 47.299999,
      "lon": 13.5
    },
    "name": "Untertauern"
  },
  {
    "country": "AT",
    "id": 2764347,
    "coord": {
      "lat": 48.033329,
      "lon": 14.41667
    },
    "name": "Steyr Stadt"
  },
  {
    "country": "AT",
    "id": 7871503,
    "coord": {
      "lat": 48.053841,
      "lon": 14.42301
    },
    "name": "Steyr"
  },
  {
    "country": "AT",
    "id": 7872249,
    "coord": {
      "lat": 47.426559,
      "lon": 12.84807
    },
    "name": "Saalfelden am Steinernen Meer"
  },
  {
    "country": "AT",
    "id": 7871496,
    "coord": {
      "lat": 48.40855,
      "lon": 15.61944
    },
    "name": "Krems an der Donau"
  },
  {
    "country": "AT",
    "id": 7872257,
    "coord": {
      "lat": 47.453991,
      "lon": 15.27019
    },
    "name": "Kapfenberg"
  },
  {
    "country": "AT",
    "id": 2774773,
    "coord": {
      "lat": 47.44458,
      "lon": 15.29331
    },
    "name": "Kapfenberg"
  },
  {
    "country": "AT",
    "id": 2606026,
    "coord": {
      "lat": 47.277248,
      "lon": 13.31955
    },
    "name": "Kleinarl"
  },
  {
    "country": "AT",
    "id": 7872286,
    "coord": {
      "lat": 46.972759,
      "lon": 15.63051
    },
    "name": "Edelstauden"
  },
  {
    "country": "AT",
    "id": 2607522,
    "coord": {
      "lat": 46.98333,
      "lon": 15.61667
    },
    "name": "Edelstauden"
  },
  {
    "country": "AT",
    "id": 7871568,
    "coord": {
      "lat": 46.857841,
      "lon": 16.03261
    },
    "name": "Neuhaus am Klausenbach"
  },
  {
    "country": "AT",
    "id": 2608246,
    "coord": {
      "lat": 46.866669,
      "lon": 16.033331
    },
    "name": "Neuhaus am Klausenbach"
  },
  {
    "country": "AT",
    "id": 7872784,
    "coord": {
      "lat": 46.822948,
      "lon": 13.60447
    },
    "name": "Millstatt"
  },
  {
    "country": "AT",
    "id": 7871955,
    "coord": {
      "lat": 48.105991,
      "lon": 16.478741
    },
    "name": "Zwölfaxing"
  },
  {
    "country": "AT",
    "id": 2760388,
    "coord": {
      "lat": 48.109901,
      "lon": 16.462669
    },
    "name": "Zwolfaxing"
  },
  {
    "country": "AT",
    "id": 2760415,
    "coord": {
      "lat": 48.616669,
      "lon": 15.2
    },
    "name": "Zwettl Stift"
  },
  {
    "country": "AT",
    "id": 7873250,
    "coord": {
      "lat": 48.466091,
      "lon": 14.27012
    },
    "name": "Zwettl an der Rodl"
  },
  {
    "country": "AT",
    "id": 2760420,
    "coord": {
      "lat": 48.465519,
      "lon": 14.27133
    },
    "name": "Zwettl an der Rodl"
  },
  {
    "country": "AT",
    "id": 2770682,
    "coord": {
      "lat": 47.849998,
      "lon": 17
    },
    "name": "Politischer Bezirk Neusiedl am See"
  },
  {
    "country": "AT",
    "id": 7871595,
    "coord": {
      "lat": 47.974201,
      "lon": 16.9981
    },
    "name": "Zurndorf"
  },
  {
    "country": "AT",
    "id": 2760449,
    "coord": {
      "lat": 47.983139,
      "lon": 17.003151
    },
    "name": "Zurndorf"
  },
  {
    "country": "AT",
    "id": 7873702,
    "coord": {
      "lat": 47.505138,
      "lon": 10.47162
    },
    "name": "Zöblen"
  },
  {
    "country": "AT",
    "id": 2760485,
    "coord": {
      "lat": 47.5,
      "lon": 10.48333
    },
    "name": "Zoblen"
  },
  {
    "country": "AT",
    "id": 7871748,
    "coord": {
      "lat": 48.535851,
      "lon": 16.75613
    },
    "name": "Zistersdorf"
  },
  {
    "country": "AT",
    "id": 2760510,
    "coord": {
      "lat": 48.533329,
      "lon": 16.75
    },
    "name": "Zistersdorf"
  },
  {
    "country": "AT",
    "id": 7872555,
    "coord": {
      "lat": 47.302792,
      "lon": 11.27445
    },
    "name": "Zirl"
  },
  {
    "country": "AT",
    "id": 2780189,
    "coord": {
      "lat": 47.833328,
      "lon": 16.58333
    },
    "name": "Politischer Bezirk Eisenstadt"
  },
  {
    "country": "AT",
    "id": 7872690,
    "coord": {
      "lat": 47.813911,
      "lon": 16.407249
    },
    "name": "Zillingtal"
  },
  {
    "country": "AT",
    "id": 2760563,
    "coord": {
      "lat": 47.816669,
      "lon": 16.4
    },
    "name": "Zillingtal"
  },
  {
    "country": "AT",
    "id": 7873067,
    "coord": {
      "lat": 47.844341,
      "lon": 16.35323
    },
    "name": "Zillingdorf"
  },
  {
    "country": "AT",
    "id": 2760564,
    "coord": {
      "lat": 47.849998,
      "lon": 16.33333
    },
    "name": "Zillingdorf"
  },
  {
    "country": "AT",
    "id": 7872894,
    "coord": {
      "lat": 48.531139,
      "lon": 15.93681
    },
    "name": "Ziersdorf"
  },
  {
    "country": "AT",
    "id": 2760575,
    "coord": {
      "lat": 48.51667,
      "lon": 15.91667
    },
    "name": "Ziersdorf"
  },
  {
    "country": "AT",
    "id": 7872483,
    "coord": {
      "lat": 47.062489,
      "lon": 14.36066
    },
    "name": "Zeutschach"
  },
  {
    "country": "AT",
    "id": 2760590,
    "coord": {
      "lat": 47.066669,
      "lon": 14.36667
    },
    "name": "Zeutschach"
  },
  {
    "country": "AT",
    "id": 7872351,
    "coord": {
      "lat": 46.955608,
      "lon": 15.42988
    },
    "name": "Zettling"
  },
  {
    "country": "AT",
    "id": 2760592,
    "coord": {
      "lat": 46.950001,
      "lon": 15.41667
    },
    "name": "Zettling"
  },
  {
    "country": "AT",
    "id": 7872313,
    "coord": {
      "lat": 46.956322,
      "lon": 15.66355
    },
    "name": "Zerlach"
  },
  {
    "country": "AT",
    "id": 2760597,
    "coord": {
      "lat": 46.933331,
      "lon": 15.65
    },
    "name": "Zerlach"
  },
  {
    "country": "AT",
    "id": 7871772,
    "coord": {
      "lat": 48.688271,
      "lon": 15.96189
    },
    "name": "Zellerndorf"
  },
  {
    "country": "AT",
    "id": 2760622,
    "coord": {
      "lat": 48.683331,
      "lon": 15.95
    },
    "name": "Zellerndorf"
  },
  {
    "country": "AT",
    "id": 7873714,
    "coord": {
      "lat": 47.242611,
      "lon": 11.85722
    },
    "name": "Zellberg"
  },
  {
    "country": "AT",
    "id": 2760627,
    "coord": {
      "lat": 47.23333,
      "lon": 11.85
    },
    "name": "Zellberg"
  },
  {
    "country": "AT",
    "id": 7873713,
    "coord": {
      "lat": 47.22982,
      "lon": 11.88535
    },
    "name": "Zell am Ziller"
  },
  {
    "country": "AT",
    "id": 2760632,
    "coord": {
      "lat": 47.23333,
      "lon": 11.88333
    },
    "name": "Zell am Ziller"
  },
  {
    "country": "AT",
    "id": 7873334,
    "coord": {
      "lat": 47.32489,
      "lon": 12.8185
    },
    "name": "Zell am See"
  },
  {
    "country": "AT",
    "id": 2760634,
    "coord": {
      "lat": 47.325562,
      "lon": 12.79444
    },
    "name": "Zell am See"
  },
  {
    "country": "AT",
    "id": 2760635,
    "coord": {
      "lat": 48.066669,
      "lon": 13.58333
    },
    "name": "Zell am Pettenfirst"
  },
  {
    "country": "AT",
    "id": 7872180,
    "coord": {
      "lat": 47.91428,
      "lon": 13.34757
    },
    "name": "Zell am Moos"
  },
  {
    "country": "AT",
    "id": 2760636,
    "coord": {
      "lat": 47.900002,
      "lon": 13.31667
    },
    "name": "Zell am Moos"
  },
  {
    "country": "AT",
    "id": 7872832,
    "coord": {
      "lat": 48.130219,
      "lon": 14.78468
    },
    "name": "Zeillern"
  },
  {
    "country": "AT",
    "id": 2760669,
    "coord": {
      "lat": 48.116669,
      "lon": 14.8
    },
    "name": "Zeillern"
  },
  {
    "country": "AT",
    "id": 2763928,
    "coord": {
      "lat": 47.150002,
      "lon": 13.7
    },
    "name": "Politischer Bezirk Tamsweg"
  },
  {
    "country": "AT",
    "id": 7873325,
    "coord": {
      "lat": 47.16634,
      "lon": 13.45691
    },
    "name": "Zederhaus"
  },
  {
    "country": "AT",
    "id": 7873673,
    "coord": {
      "lat": 47.195499,
      "lon": 10.54578
    },
    "name": "Zams"
  },
  {
    "country": "AT",
    "id": 2760749,
    "coord": {
      "lat": 47.15844,
      "lon": 10.5897
    },
    "name": "Zams"
  },
  {
    "country": "AT",
    "id": 7871547,
    "coord": {
      "lat": 47.75983,
      "lon": 16.52002
    },
    "name": "Zagersdorf"
  },
  {
    "country": "AT",
    "id": 2760762,
    "coord": {
      "lat": 47.76667,
      "lon": 16.51667
    },
    "name": "Zagersdorf"
  },
  {
    "country": "AT",
    "id": 7872831,
    "coord": {
      "lat": 47.924229,
      "lon": 14.90534
    },
    "name": "Ybbsitz"
  },
  {
    "country": "AT",
    "id": 2760770,
    "coord": {
      "lat": 47.933331,
      "lon": 14.88333
    },
    "name": "Ybbsitz"
  },
  {
    "country": "AT",
    "id": 7871831,
    "coord": {
      "lat": 48.177052,
      "lon": 15.07832
    },
    "name": "Ybbs an der Donau"
  },
  {
    "country": "AT",
    "id": 2760772,
    "coord": {
      "lat": 48.166672,
      "lon": 15.08333
    },
    "name": "Ybbs an der Donau"
  },
  {
    "country": "AT",
    "id": 2763265,
    "coord": {
      "lat": 48.299999,
      "lon": 16
    },
    "name": "Politischer Bezirk Tulln"
  },
  {
    "country": "AT",
    "id": 7873040,
    "coord": {
      "lat": 48.25576,
      "lon": 15.86225
    },
    "name": "Würmla"
  },
  {
    "country": "AT",
    "id": 7871878,
    "coord": {
      "lat": 47.770061,
      "lon": 16.04108
    },
    "name": "Würflach"
  },
  {
    "country": "AT",
    "id": 2760806,
    "coord": {
      "lat": 47.776482,
      "lon": 16.05463
    },
    "name": "Wurflach"
  },
  {
    "country": "AT",
    "id": 7872350,
    "coord": {
      "lat": 46.92939,
      "lon": 15.45137
    },
    "name": "Wundschuh"
  },
  {
    "country": "AT",
    "id": 7872893,
    "coord": {
      "lat": 48.634991,
      "lon": 16.11669
    },
    "name": "Wullersdorf"
  },
  {
    "country": "AT",
    "id": 2760824,
    "coord": {
      "lat": 48.616669,
      "lon": 16.1
    },
    "name": "Wullersdorf"
  },
  {
    "country": "AT",
    "id": 7871545,
    "coord": {
      "lat": 47.797291,
      "lon": 16.494101
    },
    "name": "Wulkaprodersdorf"
  },
  {
    "country": "AT",
    "id": 2760825,
    "coord": {
      "lat": 47.799999,
      "lon": 16.5
    },
    "name": "Wulkaprodersdorf"
  },
  {
    "country": "AT",
    "id": 7872373,
    "coord": {
      "lat": 47.211319,
      "lon": 16.07168
    },
    "name": "Wörth an der Lafnitz"
  },
  {
    "country": "AT",
    "id": 7871557,
    "coord": {
      "lat": 47.217369,
      "lon": 16.09609
    },
    "name": "Wörterberg"
  },
  {
    "country": "AT",
    "id": 2760846,
    "coord": {
      "lat": 47.216671,
      "lon": 16.1
    },
    "name": "Worterberg"
  },
  {
    "country": "AT",
    "id": 7873513,
    "coord": {
      "lat": 47.586681,
      "lon": 14.14736
    },
    "name": "Wörschach"
  },
  {
    "country": "AT",
    "id": 2760847,
    "coord": {
      "lat": 47.549999,
      "lon": 14.15
    },
    "name": "Worschach"
  },
  {
    "country": "AT",
    "id": 7872574,
    "coord": {
      "lat": 47.47905,
      "lon": 12.08048
    },
    "name": "Wörgl"
  },
  {
    "country": "AT",
    "id": 2760854,
    "coord": {
      "lat": 47.48333,
      "lon": 12.06667
    },
    "name": "Worgl"
  },
  {
    "country": "AT",
    "id": 2760855,
    "coord": {
      "lat": 48.334,
      "lon": 16.210159
    },
    "name": "Wordern"
  },
  {
    "country": "AT",
    "id": 2760887,
    "coord": {
      "lat": 48.383331,
      "lon": 16.51667
    },
    "name": "Wolkersdorf"
  },
  {
    "country": "AT",
    "id": 2781502,
    "coord": {
      "lat": 47.450001,
      "lon": 9.91667
    },
    "name": "Politischer Bezirk Bregenz"
  },
  {
    "country": "AT",
    "id": 7872672,
    "coord": {
      "lat": 47.464722,
      "lon": 9.75131
    },
    "name": "Wolfurt"
  },
  {
    "country": "AT",
    "id": 2760894,
    "coord": {
      "lat": 47.466671,
      "lon": 9.75
    },
    "name": "Wolfurt"
  },
  {
    "country": "AT",
    "id": 7872854,
    "coord": {
      "lat": 48.13089,
      "lon": 17.016859
    },
    "name": "Wolfsthal"
  },
  {
    "country": "AT",
    "id": 2760895,
    "coord": {
      "lat": 48.133331,
      "lon": 17
    },
    "name": "Wolfsthal"
  },
  {
    "country": "AT",
    "id": 7871954,
    "coord": {
      "lat": 48.151031,
      "lon": 16.112431
    },
    "name": "Wolfsgraben"
  },
  {
    "country": "AT",
    "id": 2760902,
    "coord": {
      "lat": 48.158699,
      "lon": 16.120979
    },
    "name": "Wolfsgraben"
  },
  {
    "country": "AT",
    "id": 7873271,
    "coord": {
      "lat": 48.10907,
      "lon": 13.68652
    },
    "name": "Wolfsegg am Hausruck"
  },
  {
    "country": "AT",
    "id": 2760903,
    "coord": {
      "lat": 48.106689,
      "lon": 13.67274
    },
    "name": "Wolfsegg am Hausruck"
  },
  {
    "country": "AT",
    "id": 7873480,
    "coord": {
      "lat": 46.844742,
      "lon": 15.67025
    },
    "name": "Wolfsberg im Schwarzautal"
  },
  {
    "country": "AT",
    "id": 7872830,
    "coord": {
      "lat": 48.085258,
      "lon": 14.66517
    },
    "name": "Wolfsbach"
  },
  {
    "country": "AT",
    "id": 2760915,
    "coord": {
      "lat": 48.066669,
      "lon": 14.66667
    },
    "name": "Wolfsbach"
  },
  {
    "country": "AT",
    "id": 7873036,
    "coord": {
      "lat": 48.095959,
      "lon": 15.07134
    },
    "name": "Wolfpassing"
  },
  {
    "country": "AT",
    "id": 2760920,
    "coord": {
      "lat": 48.066669,
      "lon": 15.05
    },
    "name": "Wolfpassing"
  },
  {
    "country": "AT",
    "id": 7872752,
    "coord": {
      "lat": 47.252289,
      "lon": 16.105459
    },
    "name": "Wolfau"
  },
  {
    "country": "AT",
    "id": 2760943,
    "coord": {
      "lat": 47.25,
      "lon": 16.1
    },
    "name": "Wolfau"
  },
  {
    "country": "AT",
    "id": 7872482,
    "coord": {
      "lat": 47.253899,
      "lon": 14.20868
    },
    "name": "Winklern bei Oberwölz"
  },
  {
    "country": "AT",
    "id": 2761037,
    "coord": {
      "lat": 47.200001,
      "lon": 14.23333
    },
    "name": "Winklern bei Oberwolz"
  },
  {
    "country": "AT",
    "id": 7872794,
    "coord": {
      "lat": 46.881538,
      "lon": 12.86619
    },
    "name": "Winklern"
  },
  {
    "country": "AT",
    "id": 2761039,
    "coord": {
      "lat": 46.873611,
      "lon": 12.87472
    },
    "name": "Winklern"
  },
  {
    "country": "AT",
    "id": 7872829,
    "coord": {
      "lat": 48.09256,
      "lon": 14.86649
    },
    "name": "Winklarn"
  },
  {
    "country": "AT",
    "id": 2761049,
    "coord": {
      "lat": 48.083328,
      "lon": 14.83333
    },
    "name": "Winklarn"
  },
  {
    "country": "AT",
    "id": 7873052,
    "coord": {
      "lat": 48.76778,
      "lon": 15.28188
    },
    "name": "Windigsteig"
  },
  {
    "country": "AT",
    "id": 2761105,
    "coord": {
      "lat": 48.76667,
      "lon": 15.28333
    },
    "name": "Windigsteig"
  },
  {
    "country": "AT",
    "id": 7871594,
    "coord": {
      "lat": 47.95232,
      "lon": 16.761049
    },
    "name": "Winden am See"
  },
  {
    "country": "AT",
    "id": 2761123,
    "coord": {
      "lat": 47.950001,
      "lon": 16.75
    },
    "name": "Winden am See"
  },
  {
    "country": "AT",
    "id": 7871544,
    "coord": {
      "lat": 47.91153,
      "lon": 16.44273
    },
    "name": "Wimpassing an der Leitha"
  },
  {
    "country": "AT",
    "id": 2761147,
    "coord": {
      "lat": 47.916672,
      "lon": 16.433331
    },
    "name": "Wimpassing an der Leitha"
  },
  {
    "country": "AT",
    "id": 7871877,
    "coord": {
      "lat": 47.699692,
      "lon": 16.034361
    },
    "name": "Wimpassing im Schwarzatale"
  },
  {
    "country": "AT",
    "id": 2761149,
    "coord": {
      "lat": 47.70295,
      "lon": 16.03334
    },
    "name": "Wimpassing im Schwarzatale"
  },
  {
    "country": "AT",
    "id": 7871876,
    "coord": {
      "lat": 47.79446,
      "lon": 16.062981
    },
    "name": "Willendorf"
  },
  {
    "country": "AT",
    "id": 2761178,
    "coord": {
      "lat": 47.789291,
      "lon": 16.05686
    },
    "name": "Willendorf am Steinfelde"
  },
  {
    "country": "AT",
    "id": 7871897,
    "coord": {
      "lat": 48.096909,
      "lon": 15.61266
    },
    "name": "Wilhelmsburg"
  },
  {
    "country": "AT",
    "id": 2761186,
    "coord": {
      "lat": 48.105709,
      "lon": 15.60539
    },
    "name": "Wilhelmsburg"
  },
  {
    "country": "AT",
    "id": 7872972,
    "coord": {
      "lat": 48.59515,
      "lon": 16.661949
    },
    "name": "Wilfersdorf"
  },
  {
    "country": "AT",
    "id": 2761194,
    "coord": {
      "lat": 48.583328,
      "lon": 16.633329
    },
    "name": "Wilfersdorf"
  },
  {
    "country": "AT",
    "id": 7873479,
    "coord": {
      "lat": 46.883179,
      "lon": 15.5146
    },
    "name": "Wildon"
  },
  {
    "country": "AT",
    "id": 2761208,
    "coord": {
      "lat": 46.883331,
      "lon": 15.51667
    },
    "name": "Wildon"
  },
  {
    "country": "AT",
    "id": 7873630,
    "coord": {
      "lat": 47.34967,
      "lon": 11.02204
    },
    "name": "Wildermieming"
  },
  {
    "country": "AT",
    "id": 2761229,
    "coord": {
      "lat": 47.316669,
      "lon": 11.01667
    },
    "name": "Wildermieming"
  },
  {
    "country": "AT",
    "id": 7872454,
    "coord": {
      "lat": 47.674831,
      "lon": 14.99716
    },
    "name": "Wildalpen"
  },
  {
    "country": "AT",
    "id": 2761261,
    "coord": {
      "lat": 47.650002,
      "lon": 14.98333
    },
    "name": "Wildalpen"
  },
  {
    "country": "AT",
    "id": 7873065,
    "coord": {
      "lat": 47.609791,
      "lon": 16.294941
    },
    "name": "Wiesmath"
  },
  {
    "country": "AT",
    "id": 2761272,
    "coord": {
      "lat": 47.616669,
      "lon": 16.283331
    },
    "name": "Wiesmath"
  },
  {
    "country": "AT",
    "id": 7872641,
    "coord": {
      "lat": 47.411152,
      "lon": 11.79219
    },
    "name": "Wiesing"
  },
  {
    "country": "AT",
    "id": 2761278,
    "coord": {
      "lat": 47.404861,
      "lon": 11.79708
    },
    "name": "Wiesing"
  },
  {
    "country": "AT",
    "id": 7872751,
    "coord": {
      "lat": 47.39373,
      "lon": 16.15336
    },
    "name": "Wiesfleck"
  },
  {
    "country": "AT",
    "id": 2761281,
    "coord": {
      "lat": 47.383331,
      "lon": 16.133329
    },
    "name": "Wiesfleck"
  },
  {
    "country": "AT",
    "id": 7871580,
    "coord": {
      "lat": 47.744019,
      "lon": 16.32431
    },
    "name": "Wiesen"
  },
  {
    "country": "AT",
    "id": 2761306,
    "coord": {
      "lat": 47.73333,
      "lon": 16.33333
    },
    "name": "Wiesen"
  },
  {
    "country": "AT",
    "id": 7873035,
    "coord": {
      "lat": 48.12793,
      "lon": 15.14667
    },
    "name": "Wieselburg"
  },
  {
    "country": "AT",
    "id": 2761314,
    "coord": {
      "lat": 48.133331,
      "lon": 15.13333
    },
    "name": "Wieselburg"
  },
  {
    "country": "AT",
    "id": 7873364,
    "coord": {
      "lat": 46.719398,
      "lon": 15.25155
    },
    "name": "Wies"
  },
  {
    "country": "AT",
    "id": 2761326,
    "coord": {
      "lat": 46.72028,
      "lon": 15.27194
    },
    "name": "Wies"
  },
  {
    "country": "AT",
    "id": 7872984,
    "coord": {
      "lat": 48.084949,
      "lon": 16.32136
    },
    "name": "Wiener Neudorf"
  },
  {
    "country": "AT",
    "id": 2761354,
    "coord": {
      "lat": 48.082779,
      "lon": 16.313841
    },
    "name": "Wiener Neudorf"
  },
  {
    "country": "AT",
    "id": 7873363,
    "coord": {
      "lat": 46.830799,
      "lon": 15.38494
    },
    "name": "Wettmannstätten"
  },
  {
    "country": "AT",
    "id": 2761442,
    "coord": {
      "lat": 46.830559,
      "lon": 15.38722
    },
    "name": "Wettmannstatten"
  },
  {
    "country": "AT",
    "id": 7872563,
    "coord": {
      "lat": 47.37698,
      "lon": 12.21548
    },
    "name": "Westendorf"
  },
  {
    "country": "AT",
    "id": 2761457,
    "coord": {
      "lat": 47.433331,
      "lon": 12.21667
    },
    "name": "Westendorf"
  },
  {
    "country": "AT",
    "id": 7872280,
    "coord": {
      "lat": 46.713779,
      "lon": 15.19381
    },
    "name": "Wernersdorf"
  },
  {
    "country": "AT",
    "id": 2761473,
    "coord": {
      "lat": 46.716671,
      "lon": 15.2
    },
    "name": "Wernersdorf"
  },
  {
    "country": "AT",
    "id": 7872349,
    "coord": {
      "lat": 46.92823,
      "lon": 15.4867
    },
    "name": "Werndorf"
  },
  {
    "country": "AT",
    "id": 2761474,
    "coord": {
      "lat": 46.924171,
      "lon": 15.49083
    },
    "name": "Werndorf"
  },
  {
    "country": "AT",
    "id": 7871670,
    "coord": {
      "lat": 46.623291,
      "lon": 13.9607
    },
    "name": "Wernberg"
  },
  {
    "country": "AT",
    "id": 2761475,
    "coord": {
      "lat": 46.616669,
      "lon": 13.93333
    },
    "name": "Wernberg"
  },
  {
    "country": "AT",
    "id": 7873318,
    "coord": {
      "lat": 47.48428,
      "lon": 13.27264
    },
    "name": "Werfenweng"
  },
  {
    "country": "AT",
    "id": 2761476,
    "coord": {
      "lat": 47.466671,
      "lon": 13.25
    },
    "name": "Werfenweng"
  },
  {
    "country": "AT",
    "id": 7873317,
    "coord": {
      "lat": 47.476871,
      "lon": 13.12087
    },
    "name": "Werfen"
  },
  {
    "country": "AT",
    "id": 2761479,
    "coord": {
      "lat": 47.466671,
      "lon": 13.18333
    },
    "name": "Werfen"
  },
  {
    "country": "AT",
    "id": 7872735,
    "coord": {
      "lat": 47.600288,
      "lon": 16.420509
    },
    "name": "Weppersdorf"
  },
  {
    "country": "AT",
    "id": 2761482,
    "coord": {
      "lat": 47.583328,
      "lon": 16.433331
    },
    "name": "Weppersdorf"
  },
  {
    "country": "AT",
    "id": 7873598,
    "coord": {
      "lat": 47.152031,
      "lon": 10.71902
    },
    "name": "Wenns"
  },
  {
    "country": "AT",
    "id": 2761488,
    "coord": {
      "lat": 47.166672,
      "lon": 10.73333
    },
    "name": "Wenns"
  },
  {
    "country": "AT",
    "id": 7873583,
    "coord": {
      "lat": 47.214249,
      "lon": 15.6278
    },
    "name": "Weiz"
  },
  {
    "country": "AT",
    "id": 2761531,
    "coord": {
      "lat": 47.216671,
      "lon": 15.61667
    },
    "name": "Weiz"
  },
  {
    "country": "AT",
    "id": 2778438,
    "coord": {
      "lat": 48.75,
      "lon": 15.08333
    },
    "name": "Politischer Bezirk Gmünd"
  },
  {
    "country": "AT",
    "id": 7871762,
    "coord": {
      "lat": 48.690941,
      "lon": 14.90005
    },
    "name": "Weitra"
  },
  {
    "country": "AT",
    "id": 2761538,
    "coord": {
      "lat": 48.700001,
      "lon": 14.88333
    },
    "name": "Weitra"
  },
  {
    "country": "AT",
    "id": 2775515,
    "coord": {
      "lat": 48.75,
      "lon": 15.7
    },
    "name": "Politischer Bezirk Horn"
  },
  {
    "country": "AT",
    "id": 7871783,
    "coord": {
      "lat": 48.776718,
      "lon": 15.79064
    },
    "name": "Weitersfeld"
  },
  {
    "country": "AT",
    "id": 2761543,
    "coord": {
      "lat": 48.76667,
      "lon": 15.8
    },
    "name": "Weitersfeld"
  },
  {
    "country": "AT",
    "id": 7872421,
    "coord": {
      "lat": 46.892609,
      "lon": 15.47146
    },
    "name": "Weitendorf"
  },
  {
    "country": "AT",
    "id": 2761551,
    "coord": {
      "lat": 46.896111,
      "lon": 15.46694
    },
    "name": "Weitendorf"
  },
  {
    "country": "AT",
    "id": 7871830,
    "coord": {
      "lat": 48.290798,
      "lon": 15.25585
    },
    "name": "Weiten"
  },
  {
    "country": "AT",
    "id": 2761557,
    "coord": {
      "lat": 48.283329,
      "lon": 15.25
    },
    "name": "Weiten"
  },
  {
    "country": "AT",
    "id": 7871701,
    "coord": {
      "lat": 48.04594,
      "lon": 14.57052
    },
    "name": "Weistrach"
  },
  {
    "country": "AT",
    "id": 2761558,
    "coord": {
      "lat": 48.049999,
      "lon": 14.58333
    },
    "name": "Weistrach"
  },
  {
    "country": "AT",
    "id": 7873448,
    "coord": {
      "lat": 47.153011,
      "lon": 14.74045
    },
    "name": "Weißkirchen in Steiermark"
  },
  {
    "country": "AT",
    "id": 2761571,
    "coord": {
      "lat": 47.150002,
      "lon": 14.73333
    },
    "name": "Weisskirchen in Steiermark"
  },
  {
    "country": "AT",
    "id": 7873511,
    "coord": {
      "lat": 47.602798,
      "lon": 14.1938
    },
    "name": "Weißenbach bei Liezen"
  },
  {
    "country": "AT",
    "id": 2761614,
    "coord": {
      "lat": 47.566669,
      "lon": 14.21667
    },
    "name": "Weissenbach bei Liezen"
  },
  {
    "country": "AT",
    "id": 7872847,
    "coord": {
      "lat": 47.994999,
      "lon": 16.05991
    },
    "name": "Weissenbach an der Triesting"
  },
  {
    "country": "AT",
    "id": 7871806,
    "coord": {
      "lat": 48.42878,
      "lon": 15.42523
    },
    "name": "Weinzierl am Walde"
  },
  {
    "country": "AT",
    "id": 2761670,
    "coord": {
      "lat": 48.416672,
      "lon": 15.43333
    },
    "name": "Weinzierl am Walde"
  },
  {
    "country": "AT",
    "id": 7871613,
    "coord": {
      "lat": 47.523788,
      "lon": 16.35535
    },
    "name": "Weingraben"
  },
  {
    "country": "AT",
    "id": 7873539,
    "coord": {
      "lat": 46.756351,
      "lon": 15.70834
    },
    "name": "Weinburg am Saßbach"
  },
  {
    "country": "AT",
    "id": 7871895,
    "coord": {
      "lat": 48.11504,
      "lon": 15.5325
    },
    "name": "Weinburg"
  },
  {
    "country": "AT",
    "id": 2761698,
    "coord": {
      "lat": 48.11351,
      "lon": 15.53295
    },
    "name": "Weinburg"
  },
  {
    "country": "AT",
    "id": 7872683,
    "coord": {
      "lat": 47.304329,
      "lon": 9.65571
    },
    "name": "Weiler"
  },
  {
    "country": "AT",
    "id": 2761712,
    "coord": {
      "lat": 47.299721,
      "lon": 9.65
    },
    "name": "Weiler"
  },
  {
    "country": "AT",
    "id": 7873064,
    "coord": {
      "lat": 47.798382,
      "lon": 16.160709
    },
    "name": "Weikersdorf am Steinfelde"
  },
  {
    "country": "AT",
    "id": 2761720,
    "coord": {
      "lat": 47.806122,
      "lon": 16.14389
    },
    "name": "Weikersdorf am Steinfelde"
  },
  {
    "country": "AT",
    "id": 7871747,
    "coord": {
      "lat": 48.337158,
      "lon": 16.771061
    },
    "name": "Weikendorf"
  },
  {
    "country": "AT",
    "id": 2761723,
    "coord": {
      "lat": 48.344379,
      "lon": 16.76651
    },
    "name": "Weikendorf"
  },
  {
    "country": "AT",
    "id": 7872750,
    "coord": {
      "lat": 47.30917,
      "lon": 16.3424
    },
    "name": "Weiden bei Rechnitz"
  },
  {
    "country": "AT",
    "id": 2761754,
    "coord": {
      "lat": 47.299999,
      "lon": 16.35
    },
    "name": "Weiden bei Rechnitz"
  },
  {
    "country": "AT",
    "id": 7872724,
    "coord": {
      "lat": 47.91975,
      "lon": 16.86813
    },
    "name": "Weiden am See"
  },
  {
    "country": "AT",
    "id": 2761758,
    "coord": {
      "lat": 47.92532,
      "lon": 16.86899
    },
    "name": "Weiden am See"
  },
  {
    "country": "AT",
    "id": 7871570,
    "coord": {
      "lat": 46.961811,
      "lon": 16.19335
    },
    "name": "Weichselbaum"
  },
  {
    "country": "AT",
    "id": 7872640,
    "coord": {
      "lat": 47.309929,
      "lon": 11.65597
    },
    "name": "Weer"
  },
  {
    "country": "AT",
    "id": 2761796,
    "coord": {
      "lat": 47.299999,
      "lon": 11.63333
    },
    "name": "Weer"
  },
  {
    "country": "AT",
    "id": 7873629,
    "coord": {
      "lat": 47.272202,
      "lon": 11.59926
    },
    "name": "Wattens"
  },
  {
    "country": "AT",
    "id": 2761834,
    "coord": {
      "lat": 47.283329,
      "lon": 11.6
    },
    "name": "Wattens"
  },
  {
    "country": "AT",
    "id": 2761835,
    "coord": {
      "lat": 47.283329,
      "lon": 11.6
    },
    "name": "Wattenberg"
  },
  {
    "country": "AT",
    "id": 7871875,
    "coord": {
      "lat": 47.681519,
      "lon": 16.075809
    },
    "name": "Wartmannstetten"
  },
  {
    "country": "AT",
    "id": 2761865,
    "coord": {
      "lat": 47.693588,
      "lon": 16.07506
    },
    "name": "Wartmannstetten"
  },
  {
    "country": "AT",
    "id": 7873004,
    "coord": {
      "lat": 47.6422,
      "lon": 16.082741
    },
    "name": "Warth"
  },
  {
    "country": "AT",
    "id": 2761869,
    "coord": {
      "lat": 47.650002,
      "lon": 16.116671
    },
    "name": "Warth"
  },
  {
    "country": "AT",
    "id": 7872671,
    "coord": {
      "lat": 47.260078,
      "lon": 10.16332
    },
    "name": "Warth"
  },
  {
    "country": "AT",
    "id": 2761870,
    "coord": {
      "lat": 47.25,
      "lon": 10.18333
    },
    "name": "Warth"
  },
  {
    "country": "AT",
    "id": 2761907,
    "coord": {
      "lat": 47.48333,
      "lon": 10.68333
    },
    "name": "Wangle"
  },
  {
    "country": "AT",
    "id": 7873034,
    "coord": {
      "lat": 48.047379,
      "lon": 15.00909
    },
    "name": "Wang"
  },
  {
    "country": "AT",
    "id": 2761914,
    "coord": {
      "lat": 48.04538,
      "lon": 15.02672
    },
    "name": "Wang"
  },
  {
    "country": "AT",
    "id": 7873063,
    "coord": {
      "lat": 47.70644,
      "lon": 16.250259
    },
    "name": "Walpersbach"
  },
  {
    "country": "AT",
    "id": 2761944,
    "coord": {
      "lat": 47.716671,
      "lon": 16.23333
    },
    "name": "Walpersbach"
  },
  {
    "country": "AT",
    "id": 7872723,
    "coord": {
      "lat": 47.72411,
      "lon": 16.96785
    },
    "name": "Wallern im Burgenland"
  },
  {
    "country": "AT",
    "id": 2761964,
    "coord": {
      "lat": 47.72847,
      "lon": 16.937059
    },
    "name": "Wallern im Burgenland"
  },
  {
    "country": "AT",
    "id": 7873189,
    "coord": {
      "lat": 48.135109,
      "lon": 13.42675
    },
    "name": "Waldzell"
  },
  {
    "country": "AT",
    "id": 2761976,
    "coord": {
      "lat": 48.13562,
      "lon": 13.42701
    },
    "name": "Waldzell"
  },
  {
    "country": "AT",
    "id": 7872148,
    "coord": {
      "lat": 48.008801,
      "lon": 14.2631
    },
    "name": "Waldneukirchen"
  },
  {
    "country": "AT",
    "id": 2761989,
    "coord": {
      "lat": 47.998539,
      "lon": 14.25879
    },
    "name": "Waldneukirchen"
  },
  {
    "country": "AT",
    "id": 7873051,
    "coord": {
      "lat": 48.949902,
      "lon": 15.36896
    },
    "name": "Waldkirchen an der Thaya"
  },
  {
    "country": "AT",
    "id": 2761995,
    "coord": {
      "lat": 48.933331,
      "lon": 15.35
    },
    "name": "Waldkirchen an der Thaya"
  },
  {
    "country": "AT",
    "id": 7873249,
    "coord": {
      "lat": 48.351742,
      "lon": 14.15846
    },
    "name": "Walding"
  },
  {
    "country": "AT",
    "id": 2761999,
    "coord": {
      "lat": 48.352089,
      "lon": 14.1576
    },
    "name": "Walding"
  },
  {
    "country": "AT",
    "id": 7872252,
    "coord": {
      "lat": 47.267639,
      "lon": 12.16488
    },
    "name": "Wald im Pinzgau"
  },
  {
    "country": "AT",
    "id": 2762000,
    "coord": {
      "lat": 47.25,
      "lon": 12.23333
    },
    "name": "Wald im Pinzgau"
  },
  {
    "country": "AT",
    "id": 2760421,
    "coord": {
      "lat": 48.599998,
      "lon": 15.16667
    },
    "name": "Politischer Bezirk Zwettl"
  },
  {
    "country": "AT",
    "id": 7873091,
    "coord": {
      "lat": 48.534229,
      "lon": 15.27678
    },
    "name": "Waldhausen"
  },
  {
    "country": "AT",
    "id": 2762013,
    "coord": {
      "lat": 48.51667,
      "lon": 15.25
    },
    "name": "Waldhausen"
  },
  {
    "country": "AT",
    "id": 7871761,
    "coord": {
      "lat": 48.725689,
      "lon": 15.01833
    },
    "name": "Waldenstein"
  },
  {
    "country": "AT",
    "id": 2762021,
    "coord": {
      "lat": 48.716671,
      "lon": 15.01667
    },
    "name": "Waldenstein"
  },
  {
    "country": "AT",
    "id": 7871943,
    "coord": {
      "lat": 47.873348,
      "lon": 16.0476
    },
    "name": "Waldegg"
  },
  {
    "country": "AT",
    "id": 2762024,
    "coord": {
      "lat": 47.868519,
      "lon": 16.05154
    },
    "name": "Waldegg"
  },
  {
    "country": "AT",
    "id": 7873489,
    "coord": {
      "lat": 47.429359,
      "lon": 14.66514
    },
    "name": "Wald am Schoberpaß"
  },
  {
    "country": "AT",
    "id": 2762039,
    "coord": {
      "lat": 47.450001,
      "lon": 14.66667
    },
    "name": "Wald am Schoberpass"
  },
  {
    "country": "AT",
    "id": 7873659,
    "coord": {
      "lat": 47.63702,
      "lon": 12.30986
    },
    "name": "Walchsee"
  },
  {
    "country": "AT",
    "id": 2762045,
    "coord": {
      "lat": 47.65163,
      "lon": 12.31868
    },
    "name": "Walchsee"
  },
  {
    "country": "AT",
    "id": 7873643,
    "coord": {
      "lat": 47.586498,
      "lon": 12.57701
    },
    "name": "Waidring"
  },
  {
    "country": "AT",
    "id": 2762070,
    "coord": {
      "lat": 47.583328,
      "lon": 12.56667
    },
    "name": "Waidring"
  },
  {
    "country": "AT",
    "id": 7871942,
    "coord": {
      "lat": 47.871052,
      "lon": 15.95067
    },
    "name": "Waidmannsfeld"
  },
  {
    "country": "AT",
    "id": 2762071,
    "coord": {
      "lat": 47.870419,
      "lon": 15.98116
    },
    "name": "Waidmannsfeld"
  },
  {
    "country": "AT",
    "id": 7873316,
    "coord": {
      "lat": 47.333431,
      "lon": 13.31491
    },
    "name": "Wagrain"
  },
  {
    "country": "AT",
    "id": 2762102,
    "coord": {
      "lat": 47.335281,
      "lon": 13.29889
    },
    "name": "Wagrain"
  },
  {
    "country": "AT",
    "id": 7873478,
    "coord": {
      "lat": 46.772671,
      "lon": 15.5634
    },
    "name": "Wagna"
  },
  {
    "country": "AT",
    "id": 2762109,
    "coord": {
      "lat": 46.75,
      "lon": 15.55
    },
    "name": "Wagna"
  },
  {
    "country": "AT",
    "id": 7872983,
    "coord": {
      "lat": 48.119122,
      "lon": 16.33753
    },
    "name": "Vösendorf"
  },
  {
    "country": "AT",
    "id": 2762150,
    "coord": {
      "lat": 48.121071,
      "lon": 16.340361
    },
    "name": "Vosendorf"
  },
  {
    "country": "AT",
    "id": 7872431,
    "coord": {
      "lat": 47.503189,
      "lon": 14.98169
    },
    "name": "Vordernberg"
  },
  {
    "country": "AT",
    "id": 2762207,
    "coord": {
      "lat": 47.466671,
      "lon": 15
    },
    "name": "Vordernberg"
  },
  {
    "country": "AT",
    "id": 7872621,
    "coord": {
      "lat": 47.379131,
      "lon": 10.51437
    },
    "name": "Vorderhornbach"
  },
  {
    "country": "AT",
    "id": 2762223,
    "coord": {
      "lat": 47.366669,
      "lon": 10.53333
    },
    "name": "Vorderhornbach"
  },
  {
    "country": "AT",
    "id": 7873138,
    "coord": {
      "lat": 48.003651,
      "lon": 13.92217
    },
    "name": "Vorchdorf"
  },
  {
    "country": "AT",
    "id": 2762290,
    "coord": {
      "lat": 48.00388,
      "lon": 13.92122
    },
    "name": "Vorchdorf"
  },
  {
    "country": "AT",
    "id": 7872371,
    "coord": {
      "lat": 47.402821,
      "lon": 15.89829
    },
    "name": "Vorau"
  },
  {
    "country": "AT",
    "id": 2762299,
    "coord": {
      "lat": 47.400002,
      "lon": 15.88333
    },
    "name": "Vorau"
  },
  {
    "country": "AT",
    "id": 7873627,
    "coord": {
      "lat": 47.25227,
      "lon": 11.32245
    },
    "name": "Völs"
  },
  {
    "country": "AT",
    "id": 2762304,
    "coord": {
      "lat": 47.25,
      "lon": 11.33333
    },
    "name": "Vols"
  },
  {
    "country": "AT",
    "id": 7872554,
    "coord": {
      "lat": 47.23695,
      "lon": 11.5716
    },
    "name": "Volders"
  },
  {
    "country": "AT",
    "id": 2762320,
    "coord": {
      "lat": 47.283329,
      "lon": 11.56667
    },
    "name": "Volders"
  },
  {
    "country": "AT",
    "id": 7873270,
    "coord": {
      "lat": 47.991009,
      "lon": 13.48969
    },
    "name": "Vöcklamarkt"
  },
  {
    "country": "AT",
    "id": 2762341,
    "coord": {
      "lat": 48.002499,
      "lon": 13.48383
    },
    "name": "Vocklamarkt"
  },
  {
    "country": "AT",
    "id": 7871924,
    "coord": {
      "lat": 48.76239,
      "lon": 15.1818
    },
    "name": "Vitis"
  },
  {
    "country": "AT",
    "id": 2762348,
    "coord": {
      "lat": 48.75964,
      "lon": 15.18259
    },
    "name": "Vitis"
  },
  {
    "country": "AT",
    "id": 7872608,
    "coord": {
      "lat": 46.988171,
      "lon": 12.43259
    },
    "name": "Virgen"
  },
  {
    "country": "AT",
    "id": 2762352,
    "coord": {
      "lat": 47,
      "lon": 12.45
    },
    "name": "Virgen"
  },
  {
    "country": "AT",
    "id": 7873699,
    "coord": {
      "lat": 47.53965,
      "lon": 10.61496
    },
    "name": "Vils"
  },
  {
    "country": "AT",
    "id": 2762358,
    "coord": {
      "lat": 47.549999,
      "lon": 10.63333
    },
    "name": "Vils"
  },
  {
    "country": "AT",
    "id": 7873752,
    "coord": {
      "lat": 47.308769,
      "lon": 9.7222
    },
    "name": "Viktorsberg"
  },
  {
    "country": "AT",
    "id": 2762376,
    "coord": {
      "lat": 47.299721,
      "lon": 9.66667
    },
    "name": "Viktorsberg"
  },
  {
    "country": "AT",
    "id": 7873333,
    "coord": {
      "lat": 47.358139,
      "lon": 12.72521
    },
    "name": "Viehhofen"
  },
  {
    "country": "AT",
    "id": 2762392,
    "coord": {
      "lat": 47.366669,
      "lon": 12.73333
    },
    "name": "Viehhofen"
  },
  {
    "country": "AT",
    "id": 2762453,
    "coord": {
      "lat": 46.61301,
      "lon": 14.0413
    },
    "name": "Velden am Worthersee"
  },
  {
    "country": "AT",
    "id": 7873519,
    "coord": {
      "lat": 47.611691,
      "lon": 15.47228
    },
    "name": "Veitsch"
  },
  {
    "country": "AT",
    "id": 2762458,
    "coord": {
      "lat": 47.578152,
      "lon": 15.4945
    },
    "name": "Veitsch"
  },
  {
    "country": "AT",
    "id": 7872251,
    "coord": {
      "lat": 47.21172,
      "lon": 12.60115
    },
    "name": "Uttendorf"
  },
  {
    "country": "AT",
    "id": 2762493,
    "coord": {
      "lat": 47.283329,
      "lon": 12.56667
    },
    "name": "Uttendorf"
  },
  {
    "country": "AT",
    "id": 7871626,
    "coord": {
      "lat": 47.262001,
      "lon": 16.228001
    },
    "name": "Unterwart"
  },
  {
    "country": "AT",
    "id": 2762572,
    "coord": {
      "lat": 47.25,
      "lon": 16.23333
    },
    "name": "Unterwart"
  },
  {
    "country": "AT",
    "id": 7871848,
    "coord": {
      "lat": 48.677101,
      "lon": 16.34477
    },
    "name": "Unterstinkenbrunn"
  },
  {
    "country": "AT",
    "id": 2762632,
    "coord": {
      "lat": 48.666672,
      "lon": 16.33333
    },
    "name": "Unterstinkenbrunn"
  },
  {
    "country": "AT",
    "id": 7872872,
    "coord": {
      "lat": 48.257488,
      "lon": 16.756371
    },
    "name": "Untersiebenbrunn"
  },
  {
    "country": "AT",
    "id": 2762647,
    "coord": {
      "lat": 48.25,
      "lon": 16.73333
    },
    "name": "Untersiebenbrunn"
  },
  {
    "country": "AT",
    "id": 7873417,
    "coord": {
      "lat": 46.970181,
      "lon": 15.39921
    },
    "name": "Unterpremstätten"
  },
  {
    "country": "AT",
    "id": 2762714,
    "coord": {
      "lat": 46.964722,
      "lon": 15.40417
    },
    "name": "Unterpremstatten"
  },
  {
    "country": "AT",
    "id": 7872312,
    "coord": {
      "lat": 46.979511,
      "lon": 16.06682
    },
    "name": "Unterlamm"
  },
  {
    "country": "AT",
    "id": 2762827,
    "coord": {
      "lat": 46.97694,
      "lon": 16.06389
    },
    "name": "Unterlamm"
  },
  {
    "country": "AT",
    "id": 7872749,
    "coord": {
      "lat": 47.374649,
      "lon": 16.331829
    },
    "name": "Unterkohlstätten"
  },
  {
    "country": "AT",
    "id": 2762843,
    "coord": {
      "lat": 47.383331,
      "lon": 16.316669
    },
    "name": "Unterkohlstatten"
  },
  {
    "country": "AT",
    "id": 2777442,
    "coord": {
      "lat": 47.970558,
      "lon": 14.26266
    },
    "name": "Grünburg"
  },
  {
    "country": "AT",
    "id": 2762908,
    "coord": {
      "lat": 47.97234,
      "lon": 14.26472
    },
    "name": "Gruenburg"
  },
  {
    "country": "AT",
    "id": 7871612,
    "coord": {
      "lat": 47.561211,
      "lon": 16.494249
    },
    "name": "Unterfrauenhaid"
  },
  {
    "country": "AT",
    "id": 2762952,
    "coord": {
      "lat": 47.566669,
      "lon": 16.5
    },
    "name": "Unterfrauenhaid"
  },
  {
    "country": "AT",
    "id": 7873582,
    "coord": {
      "lat": 47.158859,
      "lon": 15.68279
    },
    "name": "Unterfladnitz"
  },
  {
    "country": "AT",
    "id": 2762953,
    "coord": {
      "lat": 47.183331,
      "lon": 15.66667
    },
    "name": "Unterfladnitz"
  },
  {
    "country": "AT",
    "id": 7872279,
    "coord": {
      "lat": 46.80056,
      "lon": 15.32896
    },
    "name": "Unterbergla"
  },
  {
    "country": "AT",
    "id": 2763099,
    "coord": {
      "lat": 46.799999,
      "lon": 15.31667
    },
    "name": "Unterbergla"
  },
  {
    "country": "AT",
    "id": 2763100,
    "coord": {
      "lat": 46.73333,
      "lon": 15.28333
    },
    "name": "Unterbergla"
  },
  {
    "country": "AT",
    "id": 7873388,
    "coord": {
      "lat": 46.87431,
      "lon": 15.77215
    },
    "name": "Unterauersbach"
  },
  {
    "country": "AT",
    "id": 2763150,
    "coord": {
      "lat": 47.650002,
      "lon": 12.71667
    },
    "name": "Unken"
  },
  {
    "country": "AT",
    "id": 7872523,
    "coord": {
      "lat": 47.086849,
      "lon": 15.68202
    },
    "name": "Ungerdorf"
  },
  {
    "country": "AT",
    "id": 2763154,
    "coord": {
      "lat": 47.083328,
      "lon": 15.66667
    },
    "name": "Ungerdorf"
  },
  {
    "country": "AT",
    "id": 7873269,
    "coord": {
      "lat": 48.04829,
      "lon": 13.62446
    },
    "name": "Ungenach"
  },
  {
    "country": "AT",
    "id": 2763160,
    "coord": {
      "lat": 48.049999,
      "lon": 13.61667
    },
    "name": "Ungenach"
  },
  {
    "country": "AT",
    "id": 7872530,
    "coord": {
      "lat": 47.140511,
      "lon": 10.94576
    },
    "name": "Umhausen"
  },
  {
    "country": "AT",
    "id": 2763164,
    "coord": {
      "lat": 47.133331,
      "lon": 10.93333
    },
    "name": "Umhausen"
  },
  {
    "country": "AT",
    "id": 7872121,
    "coord": {
      "lat": 48.676849,
      "lon": 13.90912
    },
    "name": "Ulrichsberg"
  },
  {
    "country": "AT",
    "id": 2763176,
    "coord": {
      "lat": 48.67498,
      "lon": 13.91049
    },
    "name": "Ulrichsberg"
  },
  {
    "country": "AT",
    "id": 7872638,
    "coord": {
      "lat": 47.315022,
      "lon": 11.85193
    },
    "name": "Uderns"
  },
  {
    "country": "AT",
    "id": 2763199,
    "coord": {
      "lat": 47.316669,
      "lon": 11.86667
    },
    "name": "Uderns"
  },
  {
    "country": "AT",
    "id": 7872324,
    "coord": {
      "lat": 47.02013,
      "lon": 16.053341
    },
    "name": "Übersbach"
  },
  {
    "country": "AT",
    "id": 2763201,
    "coord": {
      "lat": 47.01667,
      "lon": 16.049999
    },
    "name": "Ubersbach"
  },
  {
    "country": "AT",
    "id": 7873751,
    "coord": {
      "lat": 47.251751,
      "lon": 9.69016
    },
    "name": "Übersaxen"
  },
  {
    "country": "AT",
    "id": 2763202,
    "coord": {
      "lat": 47.252838,
      "lon": 9.6708
    },
    "name": "Ubersaxen"
  },
  {
    "country": "AT",
    "id": 7873416,
    "coord": {
      "lat": 47.23571,
      "lon": 15.16588
    },
    "name": "Übelbach"
  },
  {
    "country": "AT",
    "id": 2763209,
    "coord": {
      "lat": 47.225342,
      "lon": 15.23615
    },
    "name": "Ubelbach"
  },
  {
    "country": "AT",
    "id": 7872235,
    "coord": {
      "lat": 47.199982,
      "lon": 13.56734
    },
    "name": "Tweng"
  },
  {
    "country": "AT",
    "id": 2763215,
    "coord": {
      "lat": 47.183331,
      "lon": 13.6
    },
    "name": "Tweng"
  },
  {
    "country": "AT",
    "id": 7872937,
    "coord": {
      "lat": 47.917759,
      "lon": 15.50063
    },
    "name": "Türnitz"
  },
  {
    "country": "AT",
    "id": 2763235,
    "coord": {
      "lat": 47.93095,
      "lon": 15.49295
    },
    "name": "Turnitz"
  },
  {
    "country": "AT",
    "id": 7873345,
    "coord": {
      "lat": 47.596279,
      "lon": 15.32825
    },
    "name": "Turnau"
  },
  {
    "country": "AT",
    "id": 2763242,
    "coord": {
      "lat": 47.549999,
      "lon": 15.33333
    },
    "name": "Turnau"
  },
  {
    "country": "AT",
    "id": 2763266,
    "coord": {
      "lat": 48.328289,
      "lon": 16.05858
    },
    "name": "Tulln"
  },
  {
    "country": "AT",
    "id": 7873626,
    "coord": {
      "lat": 47.230549,
      "lon": 11.53995
    },
    "name": "Tulfes"
  },
  {
    "country": "AT",
    "id": 2763267,
    "coord": {
      "lat": 47.25,
      "lon": 11.53333
    },
    "name": "Tulfes"
  },
  {
    "country": "AT",
    "id": 7871917,
    "coord": {
      "lat": 48.2794,
      "lon": 16.122089
    },
    "name": "Tulbing"
  },
  {
    "country": "AT",
    "id": 2763270,
    "coord": {
      "lat": 48.293362,
      "lon": 16.122259
    },
    "name": "Tulbing"
  },
  {
    "country": "AT",
    "id": 7872699,
    "coord": {
      "lat": 47.004551,
      "lon": 16.31176
    },
    "name": "Tschanigraben"
  },
  {
    "country": "AT",
    "id": 2763300,
    "coord": {
      "lat": 47.01667,
      "lon": 16.299999
    },
    "name": "Tschanigraben"
  },
  {
    "country": "AT",
    "id": 7873727,
    "coord": {
      "lat": 47.04565,
      "lon": 9.87329
    },
    "name": "Tschagguns"
  },
  {
    "country": "AT",
    "id": 2763302,
    "coord": {
      "lat": 47.083328,
      "lon": 9.9
    },
    "name": "Tschagguns"
  },
  {
    "country": "AT",
    "id": 7872846,
    "coord": {
      "lat": 47.994572,
      "lon": 16.36245
    },
    "name": "Trumau"
  },
  {
    "country": "AT",
    "id": 2763308,
    "coord": {
      "lat": 47.993481,
      "lon": 16.34268
    },
    "name": "Trumau"
  },
  {
    "country": "AT",
    "id": 7872493,
    "coord": {
      "lat": 46.8237,
      "lon": 15.82599
    },
    "name": "Trössing"
  },
  {
    "country": "AT",
    "id": 2763313,
    "coord": {
      "lat": 46.816669,
      "lon": 15.81667
    },
    "name": "Trossing"
  },
  {
    "country": "AT",
    "id": 7873488,
    "coord": {
      "lat": 47.4221,
      "lon": 15.00819
    },
    "name": "Trofaiach"
  },
  {
    "country": "AT",
    "id": 2763332,
    "coord": {
      "lat": 47.416672,
      "lon": 15
    },
    "name": "Trofaiach"
  },
  {
    "country": "AT",
    "id": 7872607,
    "coord": {
      "lat": 46.790981,
      "lon": 12.80127
    },
    "name": "Tristach"
  },
  {
    "country": "AT",
    "id": 2763343,
    "coord": {
      "lat": 46.816109,
      "lon": 12.78972
    },
    "name": "Tristach"
  },
  {
    "country": "AT",
    "id": 7872481,
    "coord": {
      "lat": 47.130741,
      "lon": 14.23565
    },
    "name": "Triebendorf"
  },
  {
    "country": "AT",
    "id": 2763360,
    "coord": {
      "lat": 47.116669,
      "lon": 14.23333
    },
    "name": "Triebendorf"
  },
  {
    "country": "AT",
    "id": 7873509,
    "coord": {
      "lat": 47.46365,
      "lon": 14.60073
    },
    "name": "Treglwang"
  },
  {
    "country": "AT",
    "id": 2763382,
    "coord": {
      "lat": 47.466671,
      "lon": 14.58333
    },
    "name": "Treglwang"
  },
  {
    "country": "AT",
    "id": 7871659,
    "coord": {
      "lat": 46.904301,
      "lon": 13.45236
    },
    "name": "Trebesing"
  },
  {
    "country": "AT",
    "id": 2763395,
    "coord": {
      "lat": 46.886391,
      "lon": 13.51028
    },
    "name": "Trebesing"
  },
  {
    "country": "AT",
    "id": 7873387,
    "coord": {
      "lat": 46.877892,
      "lon": 15.88087
    },
    "name": "Trautmannsdorf in Oststeiermark"
  },
  {
    "country": "AT",
    "id": 2763400,
    "coord": {
      "lat": 46.866669,
      "lon": 15.88333
    },
    "name": "Trautmannsdorf in Oststeiermark"
  },
  {
    "country": "AT",
    "id": 7871543,
    "coord": {
      "lat": 47.815102,
      "lon": 16.56706
    },
    "name": "Trausdorf an der Wulka"
  },
  {
    "country": "AT",
    "id": 2763406,
    "coord": {
      "lat": 47.813499,
      "lon": 16.5576
    },
    "name": "Trausdorf an der Wulka"
  },
  {
    "country": "AT",
    "id": 7873090,
    "coord": {
      "lat": 48.433189,
      "lon": 15.11622
    },
    "name": "Traunstein"
  },
  {
    "country": "AT",
    "id": 2763410,
    "coord": {
      "lat": 48.433331,
      "lon": 15.1
    },
    "name": "Traunstein"
  },
  {
    "country": "AT",
    "id": 7873003,
    "coord": {
      "lat": 47.595261,
      "lon": 15.88696
    },
    "name": "Trattenbach"
  },
  {
    "country": "AT",
    "id": 2763439,
    "coord": {
      "lat": 47.599998,
      "lon": 15.86667
    },
    "name": "Trattenbach"
  },
  {
    "country": "AT",
    "id": 7873025,
    "coord": {
      "lat": 48.35186,
      "lon": 15.76348
    },
    "name": "Traismauer"
  },
  {
    "country": "AT",
    "id": 2763459,
    "coord": {
      "lat": 48.349998,
      "lon": 15.73333
    },
    "name": "Traismauer"
  },
  {
    "country": "AT",
    "id": 7872936,
    "coord": {
      "lat": 48.042519,
      "lon": 15.61007
    },
    "name": "Traisen"
  },
  {
    "country": "AT",
    "id": 2763466,
    "coord": {
      "lat": 48.033329,
      "lon": 15.6
    },
    "name": "Traisen"
  },
  {
    "country": "AT",
    "id": 7872278,
    "coord": {
      "lat": 46.823299,
      "lon": 15.13565
    },
    "name": "Trahütten"
  },
  {
    "country": "AT",
    "id": 2763476,
    "coord": {
      "lat": 46.825001,
      "lon": 15.15694
    },
    "name": "Trahutten"
  },
  {
    "country": "AT",
    "id": 7873487,
    "coord": {
      "lat": 47.36982,
      "lon": 14.9861
    },
    "name": "Traboch"
  },
  {
    "country": "AT",
    "id": 2763488,
    "coord": {
      "lat": 47.366669,
      "lon": 14.98333
    },
    "name": "Traboch"
  },
  {
    "country": "AT",
    "id": 7871555,
    "coord": {
      "lat": 47.109161,
      "lon": 16.33481
    },
    "name": "Tobaj"
  },
  {
    "country": "AT",
    "id": 2763574,
    "coord": {
      "lat": 47.083328,
      "lon": 16.299999
    },
    "name": "Tobaj"
  },
  {
    "country": "AT",
    "id": 7872586,
    "coord": {
      "lat": 47.107929,
      "lon": 10.52072
    },
    "name": "Tobadill"
  },
  {
    "country": "AT",
    "id": 2763575,
    "coord": {
      "lat": 47.116669,
      "lon": 10.51667
    },
    "name": "Tobadill"
  },
  {
    "country": "AT",
    "id": 7872492,
    "coord": {
      "lat": 46.785519,
      "lon": 15.945
    },
    "name": "Tieschen"
  },
  {
    "country": "AT",
    "id": 2763609,
    "coord": {
      "lat": 46.78611,
      "lon": 15.94222
    },
    "name": "Tieschen"
  },
  {
    "country": "AT",
    "id": 2763615,
    "coord": {
      "lat": 47.866669,
      "lon": 13.33333
    },
    "name": "Tiefgraben"
  },
  {
    "country": "AT",
    "id": 2763614,
    "coord": {
      "lat": 47.883331,
      "lon": 13.35
    },
    "name": "Tiefgraben"
  },
  {
    "country": "AT",
    "id": 7872652,
    "coord": {
      "lat": 47.19931,
      "lon": 9.76248
    },
    "name": "Thüringen"
  },
  {
    "country": "AT",
    "id": 2763658,
    "coord": {
      "lat": 47.200001,
      "lon": 9.76667
    },
    "name": "Thuringen"
  },
  {
    "country": "AT",
    "id": 7873344,
    "coord": {
      "lat": 47.548698,
      "lon": 15.21624
    },
    "name": "Thörl"
  },
  {
    "country": "AT",
    "id": 2763672,
    "coord": {
      "lat": 47.51667,
      "lon": 15.21667
    },
    "name": "Thorl"
  },
  {
    "country": "AT",
    "id": 7873323,
    "coord": {
      "lat": 47.026989,
      "lon": 13.74797
    },
    "name": "Thomatal"
  },
  {
    "country": "AT",
    "id": 2763677,
    "coord": {
      "lat": 47.066669,
      "lon": 13.75
    },
    "name": "Thomatal"
  },
  {
    "country": "AT",
    "id": 7873062,
    "coord": {
      "lat": 47.859112,
      "lon": 16.24905
    },
    "name": "Theresienfeld"
  },
  {
    "country": "AT",
    "id": 2763700,
    "coord": {
      "lat": 47.849998,
      "lon": 16.23333
    },
    "name": "Theresienfeld"
  },
  {
    "country": "AT",
    "id": 7871923,
    "coord": {
      "lat": 48.8606,
      "lon": 15.29003
    },
    "name": "Thaya"
  },
  {
    "country": "AT",
    "id": 2763711,
    "coord": {
      "lat": 48.854889,
      "lon": 15.28902
    },
    "name": "Thaya"
  },
  {
    "country": "AT",
    "id": 7873624,
    "coord": {
      "lat": 47.307178,
      "lon": 11.46105
    },
    "name": "Thaur"
  },
  {
    "country": "AT",
    "id": 2763715,
    "coord": {
      "lat": 47.299999,
      "lon": 11.46667
    },
    "name": "Thaur"
  },
  {
    "country": "AT",
    "id": 7872194,
    "coord": {
      "lat": 48.137959,
      "lon": 14.04668
    },
    "name": "Thalheim bei Wels"
  },
  {
    "country": "AT",
    "id": 2763742,
    "coord": {
      "lat": 48.150002,
      "lon": 14.03333
    },
    "name": "Thalheim bei Wels"
  },
  {
    "country": "AT",
    "id": 2763749,
    "coord": {
      "lat": 47.833328,
      "lon": 13.25
    },
    "name": "Thalgau"
  },
  {
    "country": "AT",
    "id": 7873530,
    "coord": {
      "lat": 47.13031,
      "lon": 14.36607
    },
    "name": "Teufenbach"
  },
  {
    "country": "AT",
    "id": 2763773,
    "coord": {
      "lat": 47.133331,
      "lon": 14.35
    },
    "name": "Teufenbach"
  },
  {
    "country": "AT",
    "id": 7873228,
    "coord": {
      "lat": 47.936352,
      "lon": 14.35542
    },
    "name": "Ternberg"
  },
  {
    "country": "AT",
    "id": 2763797,
    "coord": {
      "lat": 47.933331,
      "lon": 14.35
    },
    "name": "Ternberg"
  },
  {
    "country": "AT",
    "id": 7872637,
    "coord": {
      "lat": 47.330448,
      "lon": 11.63384
    },
    "name": "Terfens"
  },
  {
    "country": "AT",
    "id": 2763800,
    "coord": {
      "lat": 47.316669,
      "lon": 11.65
    },
    "name": "Terfens"
  },
  {
    "country": "AT",
    "id": 7872550,
    "coord": {
      "lat": 47.167511,
      "lon": 11.33041
    },
    "name": "Telfes im Stubai"
  },
  {
    "country": "AT",
    "id": 2763811,
    "coord": {
      "lat": 47.166672,
      "lon": 11.36667
    },
    "name": "Telfes im Stubai"
  },
  {
    "country": "AT",
    "id": 7872845,
    "coord": {
      "lat": 47.947849,
      "lon": 16.292669
    },
    "name": "Teesdorf"
  },
  {
    "country": "AT",
    "id": 2763826,
    "coord": {
      "lat": 47.950001,
      "lon": 16.283331
    },
    "name": "Teesdorf"
  },
  {
    "country": "AT",
    "id": 7873331,
    "coord": {
      "lat": 47.284939,
      "lon": 12.94291
    },
    "name": "Taxenbach"
  },
  {
    "country": "AT",
    "id": 2763837,
    "coord": {
      "lat": 47.283329,
      "lon": 12.96667
    },
    "name": "Taxenbach"
  },
  {
    "country": "AT",
    "id": 7873508,
    "coord": {
      "lat": 47.58876,
      "lon": 14.01444
    },
    "name": "Tauplitz"
  },
  {
    "country": "AT",
    "id": 2763855,
    "coord": {
      "lat": 47.560051,
      "lon": 14.01293
    },
    "name": "Tauplitz"
  },
  {
    "country": "AT",
    "id": 7872844,
    "coord": {
      "lat": 47.947392,
      "lon": 16.32896
    },
    "name": "Tattendorf"
  },
  {
    "country": "AT",
    "id": 2763888,
    "coord": {
      "lat": 47.950001,
      "lon": 16.299999
    },
    "name": "Tattendorf"
  },
  {
    "country": "AT",
    "id": 7873597,
    "coord": {
      "lat": 47.298801,
      "lon": 10.76418
    },
    "name": "Tarrenz"
  },
  {
    "country": "AT",
    "id": 2763901,
    "coord": {
      "lat": 47.26667,
      "lon": 10.76667
    },
    "name": "Tarrenz"
  },
  {
    "country": "AT",
    "id": 7873698,
    "coord": {
      "lat": 47.483791,
      "lon": 10.5101
    },
    "name": "Tannheim"
  },
  {
    "country": "AT",
    "id": 2763915,
    "coord": {
      "lat": 47.48333,
      "lon": 10.51667
    },
    "name": "Tannheim"
  },
  {
    "country": "AT",
    "id": 7872234,
    "coord": {
      "lat": 47.141361,
      "lon": 13.86825
    },
    "name": "Tamsweg"
  },
  {
    "country": "AT",
    "id": 2763929,
    "coord": {
      "lat": 47.128078,
      "lon": 13.81102
    },
    "name": "Tamsweg"
  },
  {
    "country": "AT",
    "id": 7871593,
    "coord": {
      "lat": 47.750771,
      "lon": 17.001209
    },
    "name": "Tadten"
  },
  {
    "country": "AT",
    "id": 2763960,
    "coord": {
      "lat": 47.76667,
      "lon": 16.98333
    },
    "name": "Tadten"
  },
  {
    "country": "AT",
    "id": 7872670,
    "coord": {
      "lat": 47.524052,
      "lon": 9.91429
    },
    "name": "Sulzberg"
  },
  {
    "country": "AT",
    "id": 2764010,
    "coord": {
      "lat": 47.51667,
      "lon": 9.9
    },
    "name": "Sulzberg"
  },
  {
    "country": "AT",
    "id": 7873750,
    "coord": {
      "lat": 47.291439,
      "lon": 9.6422
    },
    "name": "Sulz"
  },
  {
    "country": "AT",
    "id": 2764026,
    "coord": {
      "lat": 47.287209,
      "lon": 9.65183
    },
    "name": "Sulz"
  },
  {
    "country": "AT",
    "id": 7873477,
    "coord": {
      "lat": 46.678638,
      "lon": 15.55663
    },
    "name": "Sulztal an der Weinstraße"
  },
  {
    "country": "AT",
    "id": 2764029,
    "coord": {
      "lat": 46.683331,
      "lon": 15.55
    },
    "name": "Sulztal an der Weinstrasse"
  },
  {
    "country": "AT",
    "id": 7873712,
    "coord": {
      "lat": 47.291451,
      "lon": 11.9529
    },
    "name": "Stummerberg"
  },
  {
    "country": "AT",
    "id": 2764053,
    "coord": {
      "lat": 47.283329,
      "lon": 11.91667
    },
    "name": "Stummerberg"
  },
  {
    "country": "AT",
    "id": 7873711,
    "coord": {
      "lat": 47.294621,
      "lon": 11.88642
    },
    "name": "Stumm"
  },
  {
    "country": "AT",
    "id": 2764055,
    "coord": {
      "lat": 47.283329,
      "lon": 11.88333
    },
    "name": "Stumm"
  },
  {
    "country": "AT",
    "id": 7873330,
    "coord": {
      "lat": 47.29673,
      "lon": 12.52414
    },
    "name": "Stuhlfelden"
  },
  {
    "country": "AT",
    "id": 2764063,
    "coord": {
      "lat": 47.283329,
      "lon": 12.51667
    },
    "name": "Stuhlfelden"
  },
  {
    "country": "AT",
    "id": 7872311,
    "coord": {
      "lat": 47.00861,
      "lon": 15.74945
    },
    "name": "Studenzen"
  },
  {
    "country": "AT",
    "id": 2764067,
    "coord": {
      "lat": 47.005829,
      "lon": 15.75417
    },
    "name": "Studenzen"
  },
  {
    "country": "AT",
    "id": 7872369,
    "coord": {
      "lat": 47.246849,
      "lon": 15.79888
    },
    "name": "Stubenberg"
  },
  {
    "country": "AT",
    "id": 2764082,
    "coord": {
      "lat": 47.23333,
      "lon": 15.8
    },
    "name": "Stubenberg"
  },
  {
    "country": "AT",
    "id": 7872969,
    "coord": {
      "lat": 48.641972,
      "lon": 16.300949
    },
    "name": "Stronsdorf"
  },
  {
    "country": "AT",
    "id": 2764109,
    "coord": {
      "lat": 48.650002,
      "lon": 16.283331
    },
    "name": "Stronsdorf"
  },
  {
    "country": "AT",
    "id": 7872585,
    "coord": {
      "lat": 47.128868,
      "lon": 10.45686
    },
    "name": "Strengen"
  },
  {
    "country": "AT",
    "id": 2764137,
    "coord": {
      "lat": 47.133331,
      "lon": 10.45
    },
    "name": "Strengen"
  },
  {
    "country": "AT",
    "id": 2764138,
    "coord": {
      "lat": 48.133331,
      "lon": 14.63333
    },
    "name": "Strengberg"
  },
  {
    "country": "AT",
    "id": 7871554,
    "coord": {
      "lat": 47.061489,
      "lon": 16.41177
    },
    "name": "Strem"
  },
  {
    "country": "AT",
    "id": 2764140,
    "coord": {
      "lat": 47.049999,
      "lon": 16.41667
    },
    "name": "Strem"
  },
  {
    "country": "AT",
    "id": 7871805,
    "coord": {
      "lat": 48.449772,
      "lon": 15.60891
    },
    "name": "Stratzing"
  },
  {
    "country": "AT",
    "id": 2764168,
    "coord": {
      "lat": 48.450001,
      "lon": 15.6
    },
    "name": "Stratzing"
  },
  {
    "country": "AT",
    "id": 2764172,
    "coord": {
      "lat": 47.98333,
      "lon": 13.25
    },
    "name": "Strasswalchen"
  },
  {
    "country": "AT",
    "id": 7873476,
    "coord": {
      "lat": 46.72459,
      "lon": 15.63569
    },
    "name": "Straß in Steiermark"
  },
  {
    "country": "AT",
    "id": 2764173,
    "coord": {
      "lat": 46.727219,
      "lon": 15.62444
    },
    "name": "Strass in Steiermark"
  },
  {
    "country": "AT",
    "id": 7871745,
    "coord": {
      "lat": 48.315842,
      "lon": 16.650209
    },
    "name": "Strasshof an der Nordbahn"
  },
  {
    "country": "AT",
    "id": 2764175,
    "coord": {
      "lat": 48.316669,
      "lon": 16.66667
    },
    "name": "Strasshof an der Nordbahn"
  },
  {
    "country": "AT",
    "id": 7872606,
    "coord": {
      "lat": 46.756168,
      "lon": 12.49144
    },
    "name": "Strassen"
  },
  {
    "country": "AT",
    "id": 2764183,
    "coord": {
      "lat": 46.753891,
      "lon": 12.48417
    },
    "name": "Strassen"
  },
  {
    "country": "AT",
    "id": 7872775,
    "coord": {
      "lat": 46.91119,
      "lon": 14.33579
    },
    "name": "Straßburg"
  },
  {
    "country": "AT",
    "id": 2764186,
    "coord": {
      "lat": 46.89444,
      "lon": 14.32861
    },
    "name": "Strassburg"
  },
  {
    "country": "AT",
    "id": 7873710,
    "coord": {
      "lat": 47.392948,
      "lon": 11.81766
    },
    "name": "Strass im Zillertal"
  },
  {
    "country": "AT",
    "id": 2764189,
    "coord": {
      "lat": 47.395561,
      "lon": 11.81966
    },
    "name": "Strass im Zillertal"
  },
  {
    "country": "AT",
    "id": 7873581,
    "coord": {
      "lat": 47.413349,
      "lon": 15.72928
    },
    "name": "Strallegg"
  },
  {
    "country": "AT",
    "id": 2764217,
    "coord": {
      "lat": 47.400002,
      "lon": 15.71667
    },
    "name": "Strallegg"
  },
  {
    "country": "AT",
    "id": 7872491,
    "coord": {
      "lat": 46.796749,
      "lon": 15.85642
    },
    "name": "Straden"
  },
  {
    "country": "AT",
    "id": 2764222,
    "coord": {
      "lat": 46.80917,
      "lon": 15.86806
    },
    "name": "Straden"
  },
  {
    "country": "AT",
    "id": 7872689,
    "coord": {
      "lat": 47.894299,
      "lon": 16.54323
    },
    "name": "Stotzing"
  },
  {
    "country": "AT",
    "id": 2764225,
    "coord": {
      "lat": 47.900002,
      "lon": 16.549999
    },
    "name": "Stotzing"
  },
  {
    "country": "AT",
    "id": 7871894,
    "coord": {
      "lat": 48.117222,
      "lon": 15.81273
    },
    "name": "Stössing"
  },
  {
    "country": "AT",
    "id": 2764230,
    "coord": {
      "lat": 48.122669,
      "lon": 15.81379
    },
    "name": "Stossing"
  },
  {
    "country": "AT",
    "id": 7871610,
    "coord": {
      "lat": 47.522732,
      "lon": 16.483391
    },
    "name": "Stoob"
  },
  {
    "country": "AT",
    "id": 2764238,
    "coord": {
      "lat": 47.51667,
      "lon": 16.466669
    },
    "name": "Stoob"
  },
  {
    "country": "AT",
    "id": 7873475,
    "coord": {
      "lat": 46.88958,
      "lon": 15.538
    },
    "name": "Stocking"
  },
  {
    "country": "AT",
    "id": 2764270,
    "coord": {
      "lat": 46.883331,
      "lon": 15.53333
    },
    "name": "Stocking"
  },
  {
    "country": "AT",
    "id": 7872911,
    "coord": {
      "lat": 48.382999,
      "lon": 16.199619
    },
    "name": "Stockerau"
  },
  {
    "country": "AT",
    "id": 2764279,
    "coord": {
      "lat": 48.383331,
      "lon": 16.216669
    },
    "name": "Stockerau"
  },
  {
    "country": "AT",
    "id": 7871667,
    "coord": {
      "lat": 46.718849,
      "lon": 13.51562
    },
    "name": "Stockenboi"
  },
  {
    "country": "AT",
    "id": 2764284,
    "coord": {
      "lat": 46.726109,
      "lon": 13.52306
    },
    "name": "Stockenboi"
  },
  {
    "country": "AT",
    "id": 7873415,
    "coord": {
      "lat": 47.111092,
      "lon": 15.21949
    },
    "name": "Stiwoll"
  },
  {
    "country": "AT",
    "id": 2764293,
    "coord": {
      "lat": 47.099998,
      "lon": 15.21667
    },
    "name": "Stiwoll"
  },
  {
    "country": "AT",
    "id": 2764492,
    "coord": {
      "lat": 47.833328,
      "lon": 16.4
    },
    "name": "Steinbrunn"
  },
  {
    "country": "AT",
    "id": 2764296,
    "coord": {
      "lat": 47.833328,
      "lon": 16.41667
    },
    "name": "Steinbrunn"
  },
  {
    "country": "AT",
    "id": 7871553,
    "coord": {
      "lat": 47.209541,
      "lon": 16.12344
    },
    "name": "Stinatz"
  },
  {
    "country": "AT",
    "id": 2764297,
    "coord": {
      "lat": 47.200001,
      "lon": 16.116671
    },
    "name": "Stinatz"
  },
  {
    "country": "AT",
    "id": 7872155,
    "coord": {
      "lat": 48.28474,
      "lon": 14.369
    },
    "name": "Steyregg"
  },
  {
    "country": "AT",
    "id": 2764354,
    "coord": {
      "lat": 48.28513,
      "lon": 14.36995
    },
    "name": "Steyregg"
  },
  {
    "country": "AT",
    "id": 7872813,
    "coord": {
      "lat": 46.785751,
      "lon": 14.10409
    },
    "name": "Steuerberg"
  },
  {
    "country": "AT",
    "id": 2764364,
    "coord": {
      "lat": 46.783329,
      "lon": 14.11667
    },
    "name": "Steuerberg"
  },
  {
    "country": "AT",
    "id": 7871794,
    "coord": {
      "lat": 48.364712,
      "lon": 16.386259
    },
    "name": "Stetten"
  },
  {
    "country": "AT",
    "id": 2764366,
    "coord": {
      "lat": 48.366669,
      "lon": 16.383329
    },
    "name": "Stetten"
  },
  {
    "country": "AT",
    "id": 7872910,
    "coord": {
      "lat": 48.400711,
      "lon": 16.02388
    },
    "name": "Stetteldorf am Wagram"
  },
  {
    "country": "AT",
    "id": 2764368,
    "coord": {
      "lat": 48.400002,
      "lon": 16.01667
    },
    "name": "Stetteldorf am Wagram"
  },
  {
    "country": "AT",
    "id": 7873580,
    "coord": {
      "lat": 47.210709,
      "lon": 15.50118
    },
    "name": "Stenzengreith"
  },
  {
    "country": "AT",
    "id": 2764382,
    "coord": {
      "lat": 47.200001,
      "lon": 15.51667
    },
    "name": "Stenzengreith"
  },
  {
    "country": "AT",
    "id": 7873281,
    "coord": {
      "lat": 48.113731,
      "lon": 14.01455
    },
    "name": "Steinhaus"
  },
  {
    "country": "AT",
    "id": 2764443,
    "coord": {
      "lat": 48.116138,
      "lon": 14.0189
    },
    "name": "Steinhaus"
  },
  {
    "country": "AT",
    "id": 7872175,
    "coord": {
      "lat": 47.812969,
      "lon": 13.57722
    },
    "name": "Steinbach am Attersee"
  },
  {
    "country": "AT",
    "id": 2764527,
    "coord": {
      "lat": 47.816669,
      "lon": 13.55
    },
    "name": "Steinbach am Attersee"
  },
  {
    "country": "AT",
    "id": 7871905,
    "coord": {
      "lat": 48.069408,
      "lon": 15.0433
    },
    "name": "Steinakirchen am Forst"
  },
  {
    "country": "AT",
    "id": 2764556,
    "coord": {
      "lat": 48.066669,
      "lon": 15.03333
    },
    "name": "Steinakirchen am Forst"
  },
  {
    "country": "AT",
    "id": 7873623,
    "coord": {
      "lat": 47.088089,
      "lon": 11.48985
    },
    "name": "Steinach am Brenner"
  },
  {
    "country": "AT",
    "id": 2764557,
    "coord": {
      "lat": 47.083328,
      "lon": 11.46667
    },
    "name": "Steinach am Brenner"
  },
  {
    "country": "AT",
    "id": 7872323,
    "coord": {
      "lat": 46.994572,
      "lon": 16.084089
    },
    "name": "Stein"
  },
  {
    "country": "AT",
    "id": 2764569,
    "coord": {
      "lat": 46.99778,
      "lon": 16.086941
    },
    "name": "Stein"
  },
  {
    "country": "AT",
    "id": 7872698,
    "coord": {
      "lat": 47.161228,
      "lon": 16.16877
    },
    "name": "Stegersbach"
  },
  {
    "country": "AT",
    "id": 2764587,
    "coord": {
      "lat": 47.166672,
      "lon": 16.16667
    },
    "name": "Stegersbach"
  },
  {
    "country": "AT",
    "id": 2764605,
    "coord": {
      "lat": 47.243931,
      "lon": 10.29436
    },
    "name": "Steeg"
  },
  {
    "country": "AT",
    "id": 7871893,
    "coord": {
      "lat": 48.310459,
      "lon": 15.64898
    },
    "name": "Statzendorf"
  },
  {
    "country": "AT",
    "id": 2764621,
    "coord": {
      "lat": 48.307522,
      "lon": 15.64127
    },
    "name": "Statzendorf"
  },
  {
    "country": "AT",
    "id": 7873414,
    "coord": {
      "lat": 47.157249,
      "lon": 15.42719
    },
    "name": "Stattegg"
  },
  {
    "country": "AT",
    "id": 7873672,
    "coord": {
      "lat": 47.158131,
      "lon": 10.55278
    },
    "name": "Stanz bei Landeck"
  },
  {
    "country": "AT",
    "id": 2764645,
    "coord": {
      "lat": 47.147579,
      "lon": 10.5534
    },
    "name": "Stanz bei Landeck"
  },
  {
    "country": "AT",
    "id": 7873696,
    "coord": {
      "lat": 47.362862,
      "lon": 10.59976
    },
    "name": "Stanzach"
  },
  {
    "country": "AT",
    "id": 2764648,
    "coord": {
      "lat": 47.383331,
      "lon": 10.56667
    },
    "name": "Stanzach"
  },
  {
    "country": "AT",
    "id": 7872636,
    "coord": {
      "lat": 47.383881,
      "lon": 11.71084
    },
    "name": "Stans"
  },
  {
    "country": "AT",
    "id": 2764651,
    "coord": {
      "lat": 47.366669,
      "lon": 11.71667
    },
    "name": "Stans"
  },
  {
    "country": "AT",
    "id": 7873441,
    "coord": {
      "lat": 47.347149,
      "lon": 15.92913
    },