[

  {
    "country": "AW",
    "id": 3577149,
    "coord": {
      "lat": 12.53333,
      "lon": -70.033333
    },
    "name": "Paradijs"
  },
  {
    "country": "AW",
    "id": 3577277,
    "coord": {
      "lat": 12.53333,
      "lon": -69.98333
    },
    "name": "Babijn"
  },
  {
    "country": "AW",
    "id": 3577284,
    "coord": {
      "lat": 12.51667,
      "lon": -69.949997
    },
    "name": "Angochi"
  },
  {
    "country": "AW",
    "id": 3577279,
    "coord": {
      "lat": 12.5,
      "lon": -69.966667
    },
    "name": "Aruba"
  },
  {
    "country": "AW",
    "id": 3577101,
    "coord": {
      "lat": 12.51667,
      "lon": -70.033333
    },
    "name": "Santa Helena"
  },
  {
    "country": "AW",
    "id": 3577159,
    "coord": {
      "lat": 12.56667,
      "lon": -70.01667
    },
    "name": "Noord"
  },
  {
    "country": "AW",
    "id": 3577107,
    "coord": {
      "lat": 12.45,
      "lon": -69.933327
    },
    "name": "Sabaneta"
  },
  {
    "country": "AW",
    "id": 3577089,
    "coord": {
      "lat": 12.43333,
      "lon": -69.900002
    },
    "name": "Sint Nicolaas"
  },
  {
    "country": "AW",
    "id": 3577112,
    "coord": {
      "lat": 12.5,
      "lon": -70.01667
    },
    "name": "Sabana Berde"
  },
  {
    "country": "AW",
    "id": 3577154,
    "coord": {
      "lat": 12.52398,
      "lon": -70.027031
    },
    "name": "Oranjestad"
  },
  {
    "country": "AW",
    "id": 3577282,
    "coord": {
      "lat": 12.61667,
      "lon": -70.066673
    },
    "name": "Arasji"
  }

]