[

  {
    "country": "GQ",
    "id": 2309529,
    "coord": {
      "lat": 3.75,
      "lon": 8.78333
    },
    "name": "Ciudad de Ela Nguema"
  },
  {
    "country": "GQ",
    "id": 2308839,
    "coord": {
      "lat": 1.85,
      "lon": 9.75
    },
    "name": "Ikunde"
  },
  {
    "country": "GQ",
    "id": 2566983,
    "coord": {
      "lat": 1.5,
      "lon": 11.16667
    },
    "name": "Provincia de Wele-Nzas"
  },
  {
    "country": "GQ",
    "id": 2307795,
    "coord": {
      "lat": 1.62742,
      "lon": 11.31346
    },
    "name": "Mongomo"
  },
  {
    "country": "GQ",
    "id": 2310050,
    "coord": {
      "lat": 3.71682,
      "lon": 8.68455
    },
    "name": "Basupú"
  },
  {
    "country": "GQ",
    "id": 2306492,
    "coord": {
      "lat": 1.88625,
      "lon": 9.80431
    },
    "name": "Yiba"
  },
  {
    "country": "GQ",
    "id": 2566981,
    "coord": {
      "lat": 2,
      "lon": 11
    },
    "name": "Provincia de Kié-Ntem"
  },
  {
    "country": "GQ",
    "id": 2309332,
    "coord": {
      "lat": 2.15106,
      "lon": 11.33528
    },
    "name": "Ebebiyin"
  },
  {
    "country": "GQ",
    "id": 2566978,
    "coord": {
      "lat": 3.66667,
      "lon": 8.75
    },
    "name": "Provincia de Bioko Norte"
  },
  {
    "country": "GQ",
    "id": 2566982,
    "coord": {
      "lat": 1.5,
      "lon": 9.75
    },
    "name": "Provincia de Litoral"
  },
  {
    "country": "GQ",
    "id": 2310046,
    "coord": {
      "lat": 1.86391,
      "lon": 9.76582
    },
    "name": "Bata"
  },
  {
    "country": "GQ",
    "id": 2309096,
    "coord": {
      "lat": 2,
      "lon": 10
    },
    "name": "Republic of Equatorial Guinea"
  },
  {
    "country": "GQ",
    "id": 2309527,
    "coord": {
      "lat": 3.75,
      "lon": 8.78333
    },
    "name": "Malabo"
  },
  {
    "country": "GQ",
    "id": 2306722,
    "coord": {
      "lat": 3.6992,
      "lon": 8.9084
    },
    "name": "Santiago de Baney"
  },
  {
    "country": "GQ",
    "id": 2306774,
    "coord": {
      "lat": -1.40139,
      "lon": 5.6325
    },
    "name": "Pale"
  },
  {
    "country": "GQ",
    "id": 2306819,
    "coord": {
      "lat": 2.33812,
      "lon": 9.82212
    },
    "name": "Rio Campo"
  },
  {
    "country": "GQ",
    "id": 2306824,
    "coord": {
      "lat": 3.71667,
      "lon": 8.83333
    },
    "name": "Rebola"
  },
  {
    "country": "GQ",
    "id": 2307145,
    "coord": {
      "lat": 1.12985,
      "lon": 11.26603
    },
    "name": "Nsok"
  },
  {
    "country": "GQ",
    "id": 2307197,
    "coord": {
      "lat": 2.02475,
      "lon": 10.94599
    },
    "name": "Nsang"
  },
  {
    "country": "GQ",
    "id": 2307502,
    "coord": {
      "lat": 2.01643,
      "lon": 10.47066
    },
    "name": "Ncue"
  },
  {
    "country": "GQ",
    "id": 2307970,
    "coord": {
      "lat": 2.13609,
      "lon": 10.61322
    },
    "name": "Mikomeseng"
  },
  {
    "country": "GQ",
    "id": 2308278,
    "coord": {
      "lat": 1.57402,
      "lon": 9.61341
    },
    "name": "Mbini"
  },
  {
    "country": "GQ",
    "id": 2308626,
    "coord": {
      "lat": 1.88262,
      "lon": 9.95133
    },
    "name": "Machinda"
  },
  {
    "country": "GQ",
    "id": 2308994,
    "coord": {
      "lat": 1.43677,
      "lon": 10.55124
    },
    "name": "Evinayong"
  },
  {
    "country": "GQ",
    "id": 2309528,
    "coord": {
      "lat": 3.45683,
      "lon": 8.55465
    },
    "name": "Luba"
  },
  {
    "country": "GQ",
    "id": 2309744,
    "coord": {
      "lat": 1.4261,
      "lon": 9.62316
    },
    "name": "Bitica"
  },
  {
    "country": "GQ",
    "id": 2309890,
    "coord": {
      "lat": 1.58113,
      "lon": 10.46716
    },
    "name": "Bicurga"
  },
  {
    "country": "GQ",
    "id": 2310134,
    "coord": {
      "lat": 1.85592,
      "lon": 10.68994
    },
    "name": "Ayene"
  },
  {
    "country": "GQ",
    "id": 2310309,
    "coord": {
      "lat": 1.8658,
      "lon": 10.76892
    },
    "name": "Anisoc"
  },
  {
    "country": "GQ",
    "id": 2310533,
    "coord": {
      "lat": 1.03225,
      "lon": 10.64882
    },
    "name": "Acurenam"
  },
  {
    "country": "GQ",
    "id": 2310547,
    "coord": {
      "lat": 1.29683,
      "lon": 10.93691
    },
    "name": "Aconibe"
  }

]