[

  {
    "country": "HU",
    "id": 3053876,
    "coord": {
      "lat": 47.5,
      "lon": 19.316669
    },
    "name": "Csukásitanyák"
  },
  {
    "country": "HU",
    "id": 719819,
    "coord": {
      "lat": 47,
      "lon": 20
    },
    "name": "Hungary"
  },
  {
    "country": "HU",
    "id": 3052717,
    "coord": {
      "lat": 46.561211,
      "lon": 19.47806
    },
    "name": "Felsőtelep"
  },
  {
    "country": "HU",
    "id": 3043124,
    "coord": {
      "lat": 47.200001,
      "lon": 18.41667
    },
    "name": "Varjúdűlő"
  },
  {
    "country": "HU",
    "id": 3053483,
    "coord": {
      "lat": 47.349998,
      "lon": 19.049999
    },
    "name": "Dunaharaszti Rév"
  },
  {
    "country": "HU",
    "id": 3056211,
    "coord": {
      "lat": 47.572449,
      "lon": 18.41646
    },
    "name": "Alsógalla"
  },
  {
    "country": "HU",
    "id": 8063076,
    "coord": {
      "lat": 47.678249,
      "lon": 16.602619
    },
    "name": "Kuruc-domb"
  },
  {
    "country": "HU",
    "id": 720687,
    "coord": {
      "lat": 47.75,
      "lon": 20.41667
    },
    "name": "Fuzesabony"
  },
  {
    "country": "HU",
    "id": 714552,
    "coord": {
      "lat": 47.75,
      "lon": 20.41667
    },
    "name": "Tóthtanya"
  },
  {
    "country": "HU",
    "id": 715839,
    "coord": {
      "lat": 48.400002,
      "lon": 21.66667
    },
    "name": "Satoraljaujhely"
  },
  {
    "country": "HU",
    "id": 3045406,
    "coord": {
      "lat": 45.872471,
      "lon": 17.847111
    },
    "name": "Sellye"
  },
  {
    "country": "HU",
    "id": 3053085,
    "coord": {
      "lat": 47.783329,
      "lon": 19.933331
    },
    "name": "Farkasmály"
  },
  {
    "country": "HU",
    "id": 3049380,
    "coord": {
      "lat": 47.166672,
      "lon": 19.799999
    },
    "name": "Kosárhegy"
  },
  {
    "country": "HU",
    "id": 715466,
    "coord": {
      "lat": 46.866669,
      "lon": 20.549999
    },
    "name": "Szarvas"
  },
  {
    "country": "HU",
    "id": 720334,
    "coord": {
      "lat": 46.650002,
      "lon": 21.283331
    },
    "name": "Gyula"
  },
  {
    "country": "HU",
    "id": 720364,
    "coord": {
      "lat": 46.933331,
      "lon": 20.83333
    },
    "name": "Gyomaendrod"
  },
  {
    "country": "HU",
    "id": 3043293,
    "coord": {
      "lat": 47.775909,
      "lon": 19.13612
    },
    "name": "Vac"
  },
  {
    "country": "HU",
    "id": 3044083,
    "coord": {
      "lat": 47.652889,
      "lon": 18.31838
    },
    "name": "Tata"
  },
  {
    "country": "HU",
    "id": 3044475,
    "coord": {
      "lat": 47.343819,
      "lon": 19.04335
    },
    "name": "Szigetszentmiklos"
  },
  {
    "country": "HU",
    "id": 3046768,
    "coord": {
      "lat": 46.62648,
      "lon": 18.859619
    },
    "name": "Paks"
  },
  {
    "country": "HU",
    "id": 3047651,
    "coord": {
      "lat": 47.034191,
      "lon": 19.77857
    },
    "name": "Nagykoros"
  },
  {
    "country": "HU",
    "id": 3052236,
    "coord": {
      "lat": 47.596569,
      "lon": 19.35515
    },
    "name": "Godollo"
  },
  {
    "country": "HU",
    "id": 3052241,
    "coord": {
      "lat": 47.683239,
      "lon": 19.134171
    },
    "name": "God"
  },
  {
    "country": "HU",
    "id": 3053836,
    "coord": {
      "lat": 47.18594,
      "lon": 19.310909
    },
    "name": "Dabas"
  },
  {
    "country": "HU",
    "id": 3055685,
    "coord": {
      "lat": 46.174961,
      "lon": 18.95639
    },
    "name": "Baja"
  },
  {
    "country": "HU",
    "id": 3056357,
    "coord": {
      "lat": 47.101959,
      "lon": 17.55892
    },
    "name": "Ajka"
  },
  {
    "country": "HU",
    "id": 7284824,
    "coord": {
      "lat": 47.476028,
      "lon": 19.036051
    },
    "name": "Budapest XI. keruelet"
  },
  {
    "country": "HU",
    "id": 7284825,
    "coord": {
      "lat": 47.48299,
      "lon": 19.06591
    },
    "name": "Budapest IX. keruelet"
  },
  {
    "country": "HU",
    "id": 7284826,
    "coord": {
      "lat": 47.489189,
      "lon": 19.07012
    },
    "name": "Budapest VIII. keruelet"
  },
  {
    "country": "HU",
    "id": 7284827,
    "coord": {
      "lat": 47.50045,
      "lon": 19.06875
    },
    "name": "Budapest VII. keruelet"
  },
  {
    "country": "HU",
    "id": 7284828,
    "coord": {
      "lat": 47.503689,
      "lon": 19.06583
    },
    "name": "Budapest VI. keruelet"
  },
  {
    "country": "HU",
    "id": 7284829,
    "coord": {
      "lat": 47.518299,
      "lon": 19.107889
    },
    "name": "Budapest XIV. keruelet"
  },
  {
    "country": "HU",
    "id": 7284830,
    "coord": {
      "lat": 47.529781,
      "lon": 19.080681
    },
    "name": "Budapest XIII. keruelet"
  },
  {
    "country": "HU",
    "id": 7284831,
    "coord": {
      "lat": 47.561821,
      "lon": 19.08909
    },
    "name": "Budapest IV. keruelet"
  },
  {
    "country": "HU",
    "id": 7284832,
    "coord": {
      "lat": 47.56263,
      "lon": 19.11681
    },
    "name": "Budapest XV. keruelet"
  },
  {
    "country": "HU",
    "id": 7284833,
    "coord": {
      "lat": 47.51482,
      "lon": 19.17028
    },
    "name": "Budapest XVI. keruelet"
  },
  {
    "country": "HU",
    "id": 7284834,
    "coord": {
      "lat": 47.479099,
      "lon": 19.15835
    },
    "name": "Budapest X. keruelet"
  },
  {
    "country": "HU",
    "id": 7284835,
    "coord": {
      "lat": 47.45293,
      "lon": 19.149429
    },
    "name": "Budapest XIX. keruelet"
  },
  {
    "country": "HU",
    "id": 7284836,
    "coord": {
      "lat": 47.444172,
      "lon": 19.175949
    },
    "name": "Budapest XVIII. keruelet"
  },
  {
    "country": "HU",
    "id": 7284837,
    "coord": {
      "lat": 47.397881,
      "lon": 19.11492
    },
    "name": "Budapest XXIII. keruelet"
  },
  {
    "country": "HU",
    "id": 7284838,
    "coord": {
      "lat": 47.426979,
      "lon": 19.040159
    },
    "name": "Budapest XXII. keruelet"
  },
  {
    "country": "HU",
    "id": 7284839,
    "coord": {
      "lat": 47.43047,
      "lon": 19.07098
    },
    "name": "Budapest XXI. keruelet"
  },
  {
    "country": "HU",
    "id": 7284840,
    "coord": {
      "lat": 47.436741,
      "lon": 19.100929
    },
    "name": "Budapest XX. keruelet"
  },
  {
    "country": "HU",
    "id": 7284841,
    "coord": {
      "lat": 47.479969,
      "lon": 19.25388
    },
    "name": "Budapest XVII. keruelet"
  },
  {
    "country": "HU",
    "id": 7284842,
    "coord": {
      "lat": 47.541569,
      "lon": 19.04501
    },
    "name": "Budapest III. keruelet"
  },
  {
    "country": "HU",
    "id": 7284843,
    "coord": {
      "lat": 47.512909,
      "lon": 19.031839
    },
    "name": "Budapest II. keruelet"
  },
  {
    "country": "HU",
    "id": 7284844,
    "coord": {
      "lat": 47.497051,
      "lon": 19.03961
    },
    "name": "Budapest I. keruelet"
  },
  {
    "country": "HU",
    "id": 3044062,
    "coord": {
      "lat": 46.548241,
      "lon": 19.51436
    },
    "name": "Tazlar"
  },
  {
    "country": "HU",
    "id": 720174,
    "coord": {
      "lat": 47.083328,
      "lon": 20.133329
    },
    "name": "Harkányidűlő"
  },
  {
    "country": "HU",
    "id": 3046284,
    "coord": {
      "lat": 47.200001,
      "lon": 18.41667
    },
    "name": "Pityerdűlő"
  },
  {
    "country": "HU",
    "id": 721472,
    "coord": {
      "lat": 47.533329,
      "lon": 21.633329
    },
    "name": "Debrecen"
  },
  {
    "country": "HU",
    "id": 3044082,
    "coord": {
      "lat": 47.584942,
      "lon": 18.39325
    },
    "name": "Tatabanya"
  },
  {
    "country": "HU",
    "id": 3052009,
    "coord": {
      "lat": 47.683331,
      "lon": 17.63512
    },
    "name": "Gyor"
  },
  {
    "country": "HU",
    "id": 3042638,
    "coord": {
      "lat": 46.84,
      "lon": 16.843889
    },
    "name": "Zalaegerszeg"
  },
  {
    "country": "HU",
    "id": 714581,
    "coord": {
      "lat": 47.183331,
      "lon": 20.41667
    },
    "name": "Torokszentmiklos"
  },
  {
    "country": "HU",
    "id": 716301,
    "coord": {
      "lat": 47.316669,
      "lon": 21.116671
    },
    "name": "Puspokladany"
  },
  {
    "country": "HU",
    "id": 716935,
    "coord": {
      "lat": 47.955391,
      "lon": 21.716709
    },
    "name": "Nyiregyhaza"
  },
  {
    "country": "HU",
    "id": 717635,
    "coord": {
      "lat": 47,
      "lon": 20.633329
    },
    "name": "Mezotur"
  },
  {
    "country": "HU",
    "id": 719404,
    "coord": {
      "lat": 47.316669,
      "lon": 20.933331
    },
    "name": "Karcag"
  },
  {
    "country": "HU",
    "id": 720276,
    "coord": {
      "lat": 47.450001,
      "lon": 21.4
    },
    "name": "Hajduszoboszlo"
  },
  {
    "country": "HU",
    "id": 720284,
    "coord": {
      "lat": 47.849998,
      "lon": 21.433331
    },
    "name": "Hajdunanas"
  },
  {
    "country": "HU",
    "id": 720292,
    "coord": {
      "lat": 47.666672,
      "lon": 21.51667
    },
    "name": "Hajduboszormeny"
  },
  {
    "country": "HU",
    "id": 722636,
    "coord": {
      "lat": 47.616669,
      "lon": 21.35
    },
    "name": "Balmazujvaros"
  },
  {
    "country": "HU",
    "id": 3045643,
    "coord": {
      "lat": 48.098721,
      "lon": 19.80303
    },
    "name": "Salgotarjan"
  },
  {
    "country": "HU",
    "id": 3046619,
    "coord": {
      "lat": 47.912601,
      "lon": 19.977091
    },
    "name": "Paradsasvar"
  },
  {
    "country": "HU",
    "id": 3046686,
    "coord": {
      "lat": 47.33004,
      "lon": 17.4674
    },
    "name": "Papa"
  },
  {
    "country": "HU",
    "id": 3047942,
    "coord": {
      "lat": 47.35133,
      "lon": 19.44734
    },
    "name": "Monor"
  },
  {
    "country": "HU",
    "id": 3052101,
    "coord": {
      "lat": 47.384491,
      "lon": 19.221399
    },
    "name": "Gyal"
  },
  {
    "country": "HU",
    "id": 3052542,
    "coord": {
      "lat": 47.617699,
      "lon": 19.1887
    },
    "name": "Fot"
  },
  {
    "country": "HU",
    "id": 3054543,
    "coord": {
      "lat": 47.172661,
      "lon": 19.79952
    },
    "name": "Cegled"
  },
  {
    "country": "HU",
    "id": 7284823,
    "coord": {
      "lat": 47.49192,
      "lon": 19.014931
    },
    "name": "Budapest XII. keruelet"
  },
  {
    "country": "HU",
    "id": 3045226,
    "coord": {
      "lat": 46.416672,
      "lon": 17.58333
    },
    "name": "Somogy megye"
  },
  {
    "country": "HU",
    "id": 3054211,
    "coord": {
      "lat": 46.257179,
      "lon": 17.49654
    },
    "name": "Cserhátpuszta"
  },
  {
    "country": "HU",
    "id": 3046397,
    "coord": {
      "lat": 46.22855,
      "lon": 17.50338
    },
    "name": "Petesmalom"
  },
  {
    "country": "HU",
    "id": 3047144,
    "coord": {
      "lat": 46.23333,
      "lon": 17.533331
    },
    "name": "Oncsatelep"
  },
  {
    "country": "HU",
    "id": 3048068,
    "coord": {
      "lat": 46.23333,
      "lon": 17.533331
    },
    "name": "Miketelep"
  },
  {
    "country": "HU",
    "id": 722433,
    "coord": {
      "lat": 46.75,
      "lon": 21
    },
    "name": "Békés megye"
  },
  {
    "country": "HU",
    "id": 721312,
    "coord": {
      "lat": 46.416672,
      "lon": 21.116671
    },
    "name": "Dombiratos"
  },
  {
    "country": "HU",
    "id": 3055744,
    "coord": {
      "lat": 46.5,
      "lon": 19.41667
    },
    "name": "Bács-Kiskun megye"
  },
  {
    "country": "HU",
    "id": 721589,
    "coord": {
      "lat": 46.416672,
      "lon": 20.25
    },
    "name": "Csongrád megye"
  },
  {
    "country": "HU",
    "id": 722906,
    "coord": {
      "lat": 46.66568,
      "lon": 20.24782
    },
    "name": "Alsórét"
  },
  {
    "country": "HU",
    "id": 3049885,
    "coord": {
      "lat": 46.712132,
      "lon": 19.84458
    },
    "name": "Kiskunfelegyhaza"
  },
  {
    "country": "HU",
    "id": 719637,
    "coord": {
      "lat": 47.25,
      "lon": 20.5
    },
    "name": "Jász-Nagykun-Szolnok megye"
  },
  {
    "country": "HU",
    "id": 3042925,
    "coord": {
      "lat": 47.166672,
      "lon": 17.66667
    },
    "name": "Veszprém megye"
  },
  {
    "country": "HU",
    "id": 3050053,
    "coord": {
      "lat": 47.195641,
      "lon": 17.28006
    },
    "name": "Kiscsősz"
  },
  {
    "country": "HU",
    "id": 3050052,
    "coord": {
      "lat": 47.200001,
      "lon": 17.283331
    },
    "name": "Kiscsőszi Tanya"
  },
  {
    "country": "HU",
    "id": 3045581,
    "coord": {
      "lat": 47.383331,
      "lon": 17.533331
    },
    "name": "Sándortanya"
  },
  {
    "country": "HU",
    "id": 3046110,
    "coord": {
      "lat": 47.366669,
      "lon": 17.51667
    },
    "name": "Pusztagyimót Felső"
  },
  {
    "country": "HU",
    "id": 3046431,
    "coord": {
      "lat": 47.416672,
      "lon": 19.33333
    },
    "name": "Pest megye"
  },
  {
    "country": "HU",
    "id": 3043803,
    "coord": {
      "lat": 47.466671,
      "lon": 18.816669
    },
    "name": "Torbágyi Tanyák"
  },
  {
    "country": "HU",
    "id": 3049041,
    "coord": {
      "lat": 47.466671,
      "lon": 18.816669
    },
    "name": "Kutyahegy"
  },
  {
    "country": "HU",
    "id": 6690440,
    "coord": {
      "lat": 47.667759,
      "lon": 17.663441
    },
    "name": "Győr-Szabadhegy"
  },
  {
    "country": "HU",
    "id": 722064,
    "coord": {
      "lat": 48.25,
      "lon": 21
    },
    "name": "Borsod-Abaúj-Zemplén megye"
  },
  {
    "country": "HU",
    "id": 720604,
    "coord": {
      "lat": 48.416672,
      "lon": 21.183331
    },
    "name": "Garadna"
  },
  {
    "country": "HU",
    "id": 3051774,
    "coord": {
      "lat": 46.366669,
      "lon": 17.799999
    },
    "name": "Hangyásmál"
  },
  {
    "country": "HU",
    "id": 722437,
    "coord": {
      "lat": 46.683331,
      "lon": 21.1
    },
    "name": "Bekescsaba"
  },
  {
    "country": "HU",
    "id": 721592,
    "coord": {
      "lat": 46.713322,
      "lon": 20.14242
    },
    "name": "Csongrad"
  },
  {
    "country": "HU",
    "id": 3046039,
    "coord": {
      "lat": 47.099998,
      "lon": 17.91667
    },
    "name": "Rabkertészet"
  },
  {
    "country": "HU",
    "id": 3053281,
    "coord": {
      "lat": 47.39489,
      "lon": 18.913601
    },
    "name": "Erd"
  },
  {
    "country": "HU",
    "id": 3043845,
    "coord": {
      "lat": 46.5,
      "lon": 18.58333
    },
    "name": "Tolna megye"
  },
  {
    "country": "HU",
    "id": 3044760,
    "coord": {
      "lat": 46.35014,
      "lon": 18.709049
    },
    "name": "Szekszard"
  },
  {
    "country": "HU",
    "id": 3053228,
    "coord": {
      "lat": 47.410431,
      "lon": 18.90391
    },
    "name": "Érd-Parkváros"
  },
  {
    "country": "HU",
    "id": 720002,
    "coord": {
      "lat": 47.833328,
      "lon": 20.25
    },
    "name": "Heves megye"
  },
  {
    "country": "HU",
    "id": 3051516,
    "coord": {
      "lat": 47.706379,
      "lon": 19.633141
    },
    "name": "Hered"
  },
  {
    "country": "HU",
    "id": 3054638,
    "coord": {
      "lat": 47.5,
      "lon": 19.08333
    },
    "name": "Budapest főváros"
  },
  {
    "country": "HU",
    "id": 3054643,
    "coord": {
      "lat": 47.498009,
      "lon": 19.039909
    },
    "name": "Budapest"
  },
  {
    "country": "HU",
    "id": 3046446,
    "coord": {
      "lat": 47.5,
      "lon": 19.08333
    },
    "name": "Pest"
  },
  {
    "country": "HU",
    "id": 3054646,
    "coord": {
      "lat": 47.461811,
      "lon": 18.95845
    },
    "name": "Budaors"
  },
  {
    "country": "HU",
    "id": 3052526,
    "coord": {
      "lat": 47.446201,
      "lon": 18.961969
    },
    "name": "Franktanya"
  },
  {
    "country": "HU",
    "id": 3053028,
    "coord": {
      "lat": 47.166672,
      "lon": 18.58333
    },
    "name": "Fejér megye"
  },
  {
    "country": "HU",
    "id": 715429,
    "coord": {
      "lat": 46.252998,
      "lon": 20.148239
    },
    "name": "Szeged"
  },
  {
    "country": "HU",
    "id": 714419,
    "coord": {
      "lat": 46.24754,
      "lon": 20.16571
    },
    "name": "Újszeged"
  },
  {
    "country": "HU",
    "id": 720293,
    "coord": {
      "lat": 47.416672,
      "lon": 21.5
    },
    "name": "Hajdú-Bihar megye"
  },
  {
    "country": "HU",
    "id": 3052729,
    "coord": {
      "lat": 47.349998,
      "lon": 19.049999
    },
    "name": "Felsőtag"
  },
  {
    "country": "HU",
    "id": 3055399,
    "coord": {
      "lat": 46.083328,
      "lon": 18.25
    },
    "name": "Baranya megye"
  },
  {
    "country": "HU",
    "id": 3046526,
    "coord": {
      "lat": 46.083328,
      "lon": 18.23333
    },
    "name": "Pecs"
  },
  {
    "country": "HU",
    "id": 3049518,
    "coord": {
      "lat": 47.583328,
      "lon": 18.33333
    },
    "name": "Komárom-Esztergom megye"
  },
  {
    "country": "HU",
    "id": 3051977,
    "coord": {
      "lat": 47.666672,
      "lon": 17.25
    },
    "name": "Győr-Moson-Sopron megye"
  },
  {
    "country": "HU",
    "id": 3046646,
    "coord": {
      "lat": 46.633331,
      "lon": 18.866671
    },
    "name": "Pappuszta"
  },
  {
    "country": "HU",
    "id": 717582,
    "coord": {
      "lat": 48.099998,
      "lon": 20.783331
    },
    "name": "Miskolc"
  },
  {
    "country": "HU",
    "id": 714697,
    "coord": {
      "lat": 47.933331,
      "lon": 21.08333
    },
    "name": "Tiszaujvaros"
  },
  {
    "country": "HU",
    "id": 3044821,
    "coord": {
      "lat": 47.32579,
      "lon": 18.921419
    },
    "name": "Szazhalombatta"
  },
  {
    "country": "HU",
    "id": 714816,
    "coord": {
      "lat": 47.900002,
      "lon": 20.383329
    },
    "name": "Tibrik"
  },
  {
    "country": "HU",
    "id": 3050907,
    "coord": {
      "lat": 47.5,
      "lon": 19.91667
    },
    "name": "Jaszbereny"
  },
  {
    "country": "HU",
    "id": 3043685,
    "coord": {
      "lat": 47.5,
      "lon": 19.91667
    },
    "name": "Túlatarna"
  },
  {
    "country": "HU",
    "id": 3043096,
    "coord": {
      "lat": 46.98333,
      "lon": 18.933331
    },
    "name": "Városrétidűlő"
  },
  {
    "country": "HU",
    "id": 3047141,
    "coord": {
      "lat": 46.633331,
      "lon": 18.283331
    },
    "name": "Oncsatelep"
  },
  {
    "country": "HU",
    "id": 715593,
    "coord": {
      "lat": 48,
      "lon": 22.16667
    },
    "name": "Szabolcs-Szatmár-Bereg megye"
  },
  {
    "country": "HU",
    "id": 717779,
    "coord": {
      "lat": 47.950001,
      "lon": 21.716669
    },
    "name": "Második Rozsréti Bokor"
  },
  {
    "country": "HU",
    "id": 3047669,
    "coord": {
      "lat": 47.415138,
      "lon": 19.744101
    },
    "name": "Nagykata"
  },
  {
    "country": "HU",
    "id": 3042974,
    "coord": {
      "lat": 47.416672,
      "lon": 19.75
    },
    "name": "Verdungos"
  },
  {
    "country": "HU",
    "id": 3046450,
    "coord": {
      "lat": 47.599998,
      "lon": 19.366671
    },
    "name": "Perőcsitanya"
  },
  {
    "country": "HU",
    "id": 3049201,
    "coord": {
      "lat": 47.599998,
      "lon": 19.366671
    },
    "name": "Központimajor"
  },
  {
    "country": "HU",
    "id": 3053485,
    "coord": {
      "lat": 47.3545,
      "lon": 19.098221
    },
    "name": "Dunaharaszti"
  },
  {
    "country": "HU",
    "id": 714478,
    "coord": {
      "lat": 47.183331,
      "lon": 20.200001
    },
    "name": "Ugari Tanyák"
  },
  {
    "country": "HU",
    "id": 3042613,
    "coord": {
      "lat": 46.666672,
      "lon": 16.83333
    },
    "name": "Zala megye"
  },
  {
    "country": "HU",
    "id": 714119,
    "coord": {
      "lat": 48.400002,
      "lon": 21.66667
    },
    "name": "Veresföld"
  },
  {
    "country": "HU",
    "id": 3047348,
    "coord": {
      "lat": 48,
      "lon": 19.58333
    },
    "name": "Nógrád megye"
  },
  {
    "country": "HU",
    "id": 3053502,
    "coord": {
      "lat": 48.116001,
      "lon": 19.776581
    },
    "name": "Dugdelpuszta"
  },
  {
    "country": "HU",
    "id": 3050550,
    "coord": {
      "lat": 48.116669,
      "lon": 19.799999
    },
    "name": "Károlyakna"
  },
  {
    "country": "HU",
    "id": 717844,
    "coord": {
      "lat": 46.866669,
      "lon": 20.549999
    },
    "name": "Maradékdűlő"
  },
  {
    "country": "HU",
    "id": 3043634,
    "coord": {
      "lat": 47.333328,
      "lon": 17.466669
    },
    "name": "Tüzérlaktanya"
  },
  {
    "country": "HU",
    "id": 713929,
    "coord": {
      "lat": 48.409061,
      "lon": 22.17614
    },
    "name": "Zahony"
  },
  {
    "country": "HU",
    "id": 3055601,
    "coord": {
      "lat": 48.07296,
      "lon": 19.296141
    },
    "name": "Balassagyarmat"
  },
  {
    "country": "HU",
    "id": 3051839,
    "coord": {
      "lat": 48.083328,
      "lon": 19.299999
    },
    "name": "Halastó"
  },
  {
    "country": "HU",
    "id": 3050212,
    "coord": {
      "lat": 46.76812,
      "lon": 17.24317
    },
    "name": "Keszthely"
  },
  {
    "country": "HU",
    "id": 3043306,
    "coord": {
      "lat": 46.76667,
      "lon": 17.25
    },
    "name": "Úsztatómajor"
  },
  {
    "country": "HU",
    "id": 3043047,
    "coord": {
      "lat": 47.166672,
      "lon": 16.75
    },
    "name": "Vas megye"
  },
  {
    "country": "HU",
    "id": 3044310,
    "coord": {
      "lat": 47.230881,
      "lon": 16.62155
    },
    "name": "Szombathely"
  },
  {
    "country": "HU",
    "id": 714188,
    "coord": {
      "lat": 48.133331,
      "lon": 22.316669
    },
    "name": "Vasarosnameny"
  },
  {
    "country": "HU",
    "id": 716736,
    "coord": {
      "lat": 46.566669,
      "lon": 20.66667
    },
    "name": "Oroshaza"
  },
  {
    "country": "HU",
    "id": 3044575,
    "coord": {
      "lat": 46.040161,
      "lon": 17.98719
    },
    "name": "Szentlorinc"
  },
  {
    "country": "HU",
    "id": 3044001,
    "coord": {
      "lat": 46.049999,
      "lon": 17.799999
    },
    "name": "Temetődűlő"
  },
  {
    "country": "HU",
    "id": 3049882,
    "coord": {
      "lat": 46.716671,
      "lon": 19.85
    },
    "name": "Kiskunfélegyházi Tanyák"
  },
  {
    "country": "HU",
    "id": 723036,
    "coord": {
      "lat": 48.283329,
      "lon": 21.200001
    },
    "name": "Abaujszanto"
  },
  {
    "country": "HU",
    "id": 719311,
    "coord": {
      "lat": 48.25,
      "lon": 20.633329
    },
    "name": "Kazincbarcika"
  },
  {
    "country": "HU",
    "id": 717357,
    "coord": {
      "lat": 47.816669,
      "lon": 20.91667
    },
    "name": "Nagygajla"
  },
  {
    "country": "HU",
    "id": 716247,
    "coord": {
      "lat": 48.299999,
      "lon": 20.433331
    },
    "name": "Putnok"
  },
  {
    "country": "HU",
    "id": 717833,
    "coord": {
      "lat": 48.299999,
      "lon": 20.433331
    },
    "name": "Máriafürdő"
  },
  {
    "country": "HU",
    "id": 722214,
    "coord": {
      "lat": 47.666672,
      "lon": 21.51667
    },
    "name": "Bodahegyes"
  },
  {
    "country": "HU",
    "id": 718045,
    "coord": {
      "lat": 47.666672,
      "lon": 21.51667
    },
    "name": "Lórántffykert"
  },
  {
    "country": "HU",
    "id": 718318,
    "coord": {
      "lat": 47.316669,
      "lon": 21.116671
    },
    "name": "Kunlapos"
  },
  {
    "country": "HU",
    "id": 3048725,
    "coord": {
      "lat": 47.732948,
      "lon": 19.678671
    },
    "name": "Lorinci"
  },
  {
    "country": "HU",
    "id": 3050088,
    "coord": {
      "lat": 47.502892,
      "lon": 18.03665
    },
    "name": "Kisber"
  },
  {
    "country": "HU",
    "id": 3042520,
    "coord": {
      "lat": 47.5,
      "lon": 18.033331
    },
    "name": "Zöldmalom"
  },
  {
    "country": "HU",
    "id": 3046888,
    "coord": {
      "lat": 47.48671,
      "lon": 18.31225
    },
    "name": "Oroszlany"
  },
  {
    "country": "HU",
    "id": 3052963,
    "coord": {
      "lat": 47.48333,
      "lon": 18.316669
    },
    "name": "Felsőbányatelep"
  },
  {
    "country": "HU",
    "id": 3052366,
    "coord": {
      "lat": 47.033329,
      "lon": 19.783331
    },
    "name": "Gátér"
  },
  {
    "country": "HU",
    "id": 3050922,
    "coord": {
      "lat": 47.616669,
      "lon": 18.91667
    },
    "name": "Jansentanya"
  },
  {
    "country": "HU",
    "id": 3053595,
    "coord": {
      "lat": 47.666672,
      "lon": 19.08333
    },
    "name": "Dombhátdűlő"
  },
  {
    "country": "HU",
    "id": 3043627,
    "coord": {
      "lat": 47.666672,
      "lon": 19.08333
    },
    "name": "Tyúkosdűlő"
  },
  {
    "country": "HU",
    "id": 716963,
    "coord": {
      "lat": 48,
      "lon": 22.08333
    },
    "name": "Nyerjesszőllő"
  },
  {
    "country": "HU",
    "id": 718180,
    "coord": {
      "lat": 48.116669,
      "lon": 21.91667
    },
    "name": "Lászlótanya"
  },
  {
    "country": "HU",
    "id": 715177,
    "coord": {
      "lat": 47.98333,
      "lon": 22.51667
    },
    "name": "Szoboszlaitanya"
  },
  {
    "country": "HU",
    "id": 719806,
    "coord": {
      "lat": 48.133331,
      "lon": 21.716669
    },
    "name": "Ibrany"
  },
  {
    "country": "HU",
    "id": 718780,
    "coord": {
      "lat": 47.883331,
      "lon": 21.85
    },
    "name": "Kistanya"
  },
  {
    "country": "HU",
    "id": 3056235,
    "coord": {
      "lat": 46.183331,
      "lon": 18.73333
    },
    "name": "Alsódolina"
  },
  {
    "country": "HU",
    "id": 3053590,
    "coord": {
      "lat": 46.376572,
      "lon": 18.136959
    },
    "name": "Dombovar"
  },
  {
    "country": "HU",
    "id": 3054828,
    "coord": {
      "lat": 45.96722,
      "lon": 18.51833
    },
    "name": "Boly"
  },
  {
    "country": "HU",
    "id": 3043345,
    "coord": {
      "lat": 47.650002,
      "lon": 18.316669
    },
    "name": "Uradalmi Szőllőtelep"
  },
  {
    "country": "HU",
    "id": 3048456,
    "coord": {
      "lat": 46.58498,
      "lon": 17.411961
    },
    "name": "Marcali"
  },
  {
    "country": "HU",
    "id": 3047819,
    "coord": {
      "lat": 46.22961,
      "lon": 17.35788
    },
    "name": "Nagyatad"
  },
  {
    "country": "HU",
    "id": 721418,
    "coord": {
      "lat": 47.833328,
      "lon": 22.133329
    },
    "name": "Derzsicsere"
  },
  {
    "country": "HU",
    "id": 714258,
    "coord": {
      "lat": 47.833328,
      "lon": 22.133329
    },
    "name": "Váraditag"
  },
  {
    "country": "HU",
    "id": 722471,
    "coord": {
      "lat": 48.066669,
      "lon": 22.200001
    },
    "name": "Baytanya"
  },
  {
    "country": "HU",
    "id": 713949,
    "coord": {
      "lat": 48.066669,
      "lon": 22.200001
    },
    "name": "Weinstocktanya"
  },
  {
    "country": "HU",
    "id": 3042871,
    "coord": {
      "lat": 45.868889,
      "lon": 18.45389
    },
    "name": "Villany"
  },
  {
    "country": "HU",
    "id": 719965,
    "coord": {
      "lat": 46.416672,
      "lon": 20.33333
    },
    "name": "Hodmezovasarhely"
  },
  {
    "country": "HU",
    "id": 3043095,
    "coord": {
      "lat": 47.19936,
      "lon": 18.13954
    },
    "name": "Varpalota"
  },
  {
    "country": "HU",
    "id": 719655,
    "coord": {
      "lat": 47.51667,
      "lon": 20.15
    },
    "name": "Jaszapati"
  },
  {
    "country": "HU",
    "id": 3044380,
    "coord": {
      "lat": 47.81921,
      "lon": 18.870199
    },
    "name": "Szob"
  },
  {
    "country": "HU",
    "id": 3044615,
    "coord": {
      "lat": 47.799999,
      "lon": 18.75
    },
    "name": "Szentjánoskúti Dűlő"
  },
  {
    "country": "HU",
    "id": 3050710,
    "coord": {
      "lat": 47.716671,
      "lon": 18.73333
    },
    "name": "Kálvária Dűlő"
  },
  {
    "country": "HU",
    "id": 3054240,
    "coord": {
      "lat": 46.183331,
      "lon": 18.966669
    },
    "name": "Cserepes"
  },
  {
    "country": "HU",
    "id": 3049880,
    "coord": {
      "lat": 46.434021,
      "lon": 19.4848
    },
    "name": "Kiskunhalas"
  },
  {
    "country": "HU",
    "id": 3049875,
    "coord": {
      "lat": 46.49028,
      "lon": 19.74
    },
    "name": "Kiskunmajsa"
  },
  {
    "country": "HU",
    "id": 3052267,
    "coord": {
      "lat": 47.916672,
      "lon": 19.700001
    },
    "name": "Gindeletanya"
  },
  {
    "country": "HU",
    "id": 3044809,
    "coord": {
      "lat": 48.08057,
      "lon": 19.520189
    },
    "name": "Szecseny"
  },
  {
    "country": "HU",
    "id": 3054533,
    "coord": {
      "lat": 47.257118,
      "lon": 17.15027
    },
    "name": "Celldomolk"
  },
  {
    "country": "HU",
    "id": 3045926,
    "coord": {
      "lat": 47.25,
      "lon": 17.15
    },
    "name": "Rédeymajor"
  },
  {
    "country": "HU",
    "id": 3045487,
    "coord": {
      "lat": 47.253948,
      "lon": 16.935249
    },
    "name": "Sarvar"
  },
  {
    "country": "HU",
    "id": 3043889,
    "coord": {
      "lat": 47.25,
      "lon": 16.933331
    },
    "name": "Tizenháromváros"
  },
  {
    "country": "HU",
    "id": 722477,
    "coord": {
      "lat": 46.283329,
      "lon": 21.01667
    },
    "name": "Battonya"
  },
  {
    "country": "HU",
    "id": 717936,
    "coord": {
      "lat": 46.283329,
      "lon": 21.01667
    },
    "name": "Magyardombegyházi Dűlő"
  },
  {
    "country": "HU",
    "id": 716480,
    "coord": {
      "lat": 46.316669,
      "lon": 20.816669
    },
    "name": "Peregpuszta"
  },
  {
    "country": "HU",
    "id": 716603,
    "coord": {
      "lat": 46.400002,
      "lon": 20.91667
    },
    "name": "Pap Elek-tanya"
  },
  {
    "country": "HU",
    "id": 714548,
    "coord": {
      "lat": 46.416672,
      "lon": 20.73333
    },
    "name": "Totkomlos"
  },
  {
    "country": "HU",
    "id": 714546,
    "coord": {
      "lat": 46.416672,
      "lon": 20.73333
    },
    "name": "Tótkomlósi Tanyák"
  },
  {
    "country": "HU",
    "id": 718026,
    "coord": {
      "lat": 46.76667,
      "lon": 21.133329
    },
    "name": "Ludaddűlő"
  },
  {
    "country": "HU",
    "id": 714060,
    "coord": {
      "lat": 46.933331,
      "lon": 20.83333
    },
    "name": "Vidólapos"
  },
  {
    "country": "HU",
    "id": 722832,
    "coord": {
      "lat": 46.650002,
      "lon": 21.283331
    },
    "name": "Aranyág"
  },
  {
    "country": "HU",
    "id": 719482,
    "coord": {
      "lat": 46.650002,
      "lon": 21.283331
    },
    "name": "Kálvária"
  },
  {
    "country": "HU",
    "id": 715888,
    "coord": {
      "lat": 46.75,
      "lon": 21.383329
    },
    "name": "Sarkad"
  },
  {
    "country": "HU",
    "id": 715422,
    "coord": {
      "lat": 47.033329,
      "lon": 21.16667
    },
    "name": "Szeghalom"
  },
  {
    "country": "HU",
    "id": 722057,
    "coord": {
      "lat": 48.116669,
      "lon": 20.25
    },
    "name": "Borsodnadasd"
  },
  {
    "country": "HU",
    "id": 3054940,
    "coord": {
      "lat": 47.033329,
      "lon": 19.133329
    },
    "name": "Bodakút"
  },
  {
    "country": "HU",
    "id": 3051294,
    "coord": {
      "lat": 47.033329,
      "lon": 19.133329
    },
    "name": "Hosszúhát"
  },
  {
    "country": "HU",
    "id": 3049647,
    "coord": {
      "lat": 47.466671,
      "lon": 18.816669
    },
    "name": "Kőbánya"
  },
  {
    "country": "HU",
    "id": 715423,
    "coord": {
      "lat": 47.450001,
      "lon": 21.4
    },
    "name": "Szegfűdűlő"
  },
  {
    "country": "HU",
    "id": 715195,
    "coord": {
      "lat": 48.133331,
      "lon": 21.76667
    },
    "name": "Szirtó"
  },
  {
    "country": "HU",
    "id": 719830,
    "coord": {
      "lat": 48.133331,
      "lon": 21.76667
    },
    "name": "Hosztán"
  },
  {
    "country": "HU",
    "id": 715536,
    "coord": {
      "lat": 47.099998,
      "lon": 21.216669
    },
    "name": "Szalmaré"
  },
  {
    "country": "HU",
    "id": 721404,
    "coord": {
      "lat": 47.033329,
      "lon": 20.966669
    },
    "name": "Devavanya"
  },
  {
    "country": "HU",
    "id": 3048847,
    "coord": {
      "lat": 46.624031,
      "lon": 16.53863
    },
    "name": "Lenti"
  },
  {
    "country": "HU",
    "id": 3046922,
    "coord": {
      "lat": 46.840832,
      "lon": 16.42944
    },
    "name": "Őriszentpéter"
  },
  {
    "country": "HU",
    "id": 3045883,
    "coord": {
      "lat": 47.416672,
      "lon": 17.01667
    },
    "name": "Répcelaki Tanya"
  },
  {
    "country": "HU",
    "id": 718882,
    "coord": {
      "lat": 48.466671,
      "lon": 21.51667
    },
    "name": "Kismező"
  },
  {
    "country": "HU",
    "id": 716893,
    "coord": {
      "lat": 48.01667,
      "lon": 21.633329
    },
    "name": "Nyirtelek"
  },
  {
    "country": "HU",
    "id": 718653,
    "coord": {
      "lat": 48.049999,
      "lon": 22.716669
    },
    "name": "Kölcsei Kendergyár"
  },
  {
    "country": "HU",
    "id": 715185,
    "coord": {
      "lat": 48.133331,
      "lon": 21.466669
    },
    "name": "Szlobodatanya"
  },
  {
    "country": "HU",
    "id": 722491,
    "coord": {
      "lat": 47.799999,
      "lon": 22.066669
    },
    "name": "Báthoritanya"
  },
  {
    "country": "HU",
    "id": 716949,
    "coord": {
      "lat": 47.833328,
      "lon": 22.683331
    },
    "name": "Nyirántanya"
  },
  {
    "country": "HU",
    "id": 714397,
    "coord": {
      "lat": 47.966671,
      "lon": 22
    },
    "name": "Újtanya"
  },
  {
    "country": "HU",
    "id": 715867,
    "coord": {
      "lat": 48.316669,
      "lon": 21.58333
    },
    "name": "Sarospatak"
  },
  {
    "country": "HU",
    "id": 720417,
    "coord": {
      "lat": 48.316669,
      "lon": 21.58333
    },
    "name": "Gulyalegelő"
  },
  {
    "country": "HU",
    "id": 3046505,
    "coord": {
      "lat": 46.160332,
      "lon": 18.42321
    },
    "name": "Pecsvarad"
  },
  {
    "country": "HU",
    "id": 3054800,
    "coord": {
      "lat": 46.936562,
      "lon": 19.804779
    },
    "name": "Borbás"
  },
  {
    "country": "HU",
    "id": 3050022,
    "coord": {
      "lat": 46.89156,
      "lon": 19.79775
    },
    "name": "Kisfái"
  },
  {
    "country": "HU",
    "id": 719700,
    "coord": {
      "lat": 48.200001,
      "lon": 20.933331
    },
    "name": "Jakabtanya"
  },
  {
    "country": "HU",
    "id": 717642,
    "coord": {
      "lat": 47.799999,
      "lon": 21.683331
    },
    "name": "Mezőssytag"
  },
  {
    "country": "HU",
    "id": 3043674,
    "coord": {
      "lat": 47.400002,
      "lon": 16.716669
    },
    "name": "Turbina"
  },
  {
    "country": "HU",
    "id": 3055730,
    "coord": {
      "lat": 46.80711,
      "lon": 17.513849
    },
    "name": "Badacsonytomaj"
  },
  {
    "country": "HU",
    "id": 3052854,
    "coord": {
      "lat": 46.799999,
      "lon": 17.51667
    },
    "name": "Felsőkolónia"
  },
  {
    "country": "HU",
    "id": 3046663,
    "coord": {
      "lat": 46.98333,
      "lon": 17.283331
    },
    "name": "Paphegy"
  },
  {
    "country": "HU",
    "id": 3043542,
    "coord": {
      "lat": 46.98333,
      "lon": 17.283331
    },
    "name": "Újhegy"
  },
  {
    "country": "HU",
    "id": 3045428,
    "coord": {
      "lat": 47.433331,
      "lon": 18.91667
    },
    "name": "Scherctanya"
  },
  {
    "country": "HU",
    "id": 717771,
    "coord": {
      "lat": 47.95528,
      "lon": 22.323481
    },
    "name": "Mateszalka"
  },
  {
    "country": "HU",
    "id": 3055287,
    "coord": {
      "lat": 47.96962,
      "lon": 19.840759
    },
    "name": "Batonyterenye"
  },
  {
    "country": "HU",
    "id": 3054823,
    "coord": {
      "lat": 47.966671,
      "lon": 19.83333
    },
    "name": "Bolyok"
  },
  {
    "country": "HU",
    "id": 3050719,
    "coord": {
      "lat": 46.52639,
      "lon": 18.98583
    },
    "name": "Kalocsa"
  },
  {
    "country": "HU",
    "id": 721161,
    "coord": {
      "lat": 47.933331,
      "lon": 20.816669
    },
    "name": "Emod"
  },
  {
    "country": "HU",
    "id": 718058,
    "coord": {
      "lat": 46.533329,
      "lon": 21.25
    },
    "name": "Lökösihatár"
  },
  {
    "country": "HU",
    "id": 717902,
    "coord": {
      "lat": 46.216671,
      "lon": 20.48333
    },
    "name": "Mako"
  },
  {
    "country": "HU",
    "id": 3046693,
    "coord": {
      "lat": 47.549461,
      "lon": 17.75535
    },
    "name": "Pannonhalma"
  },
  {
    "country": "HU",
    "id": 3042872,
    "coord": {
      "lat": 47.48333,
      "lon": 18.633329
    },
    "name": "Villa"
  },
  {
    "country": "HU",
    "id": 3055566,
    "coord": {
      "lat": 46.96188,
      "lon": 17.87187
    },
    "name": "Balatonfured"
  },
  {
    "country": "HU",
    "id": 3049002,
    "coord": {
      "lat": 47.021332,
      "lon": 19.56171
    },
    "name": "Lajosmizse"
  },
  {
    "country": "HU",
    "id": 713872,
    "coord": {
      "lat": 46.816669,
      "lon": 21.033331
    },
    "name": "Zsellérföldek"
  },
  {
    "country": "HU",
    "id": 714477,
    "coord": {
      "lat": 46.816669,
      "lon": 21.033331
    },
    "name": "Ugaritanyák"
  },
  {
    "country": "HU",
    "id": 3055584,
    "coord": {
      "lat": 46.775249,
      "lon": 17.64414
    },
    "name": "Balatonboglar"
  },
  {
    "country": "HU",
    "id": 3049570,
    "coord": {
      "lat": 46.76667,
      "lon": 17.66667
    },
    "name": "Kokashegy"
  },
  {
    "country": "HU",
    "id": 3046156,
    "coord": {
      "lat": 47.866669,
      "lon": 17.283331
    },
    "name": "Priglitanya"
  },
  {
    "country": "HU",
    "id": 722095,
    "coord": {
      "lat": 48.01667,
      "lon": 21.383329
    },
    "name": "Borbélytanya"
  },
  {
    "country": "HU",
    "id": 714367,
    "coord": {
      "lat": 48.01667,
      "lon": 21.383329
    },
    "name": "Újtelep"
  },
  {
    "country": "HU",
    "id": 3054809,
    "coord": {
      "lat": 46.29921,
      "lon": 18.530239
    },
    "name": "Bonyhad"
  },
  {
    "country": "HU",
    "id": 3048444,
    "coord": {
      "lat": 46.299999,
      "lon": 18.533331
    },
    "name": "Marczpuszta"
  },
  {
    "country": "HU",
    "id": 3051477,
    "coord": {
      "lat": 46.79031,
      "lon": 17.18408
    },
    "name": "Heviz"
  },
  {
    "country": "HU",
    "id": 3052040,
    "coord": {
      "lat": 47.78257,
      "lon": 19.927999
    },
    "name": "Gyongyos"
  },
  {
    "country": "HU",
    "id": 3046230,
    "coord": {
      "lat": 47.642269,
      "lon": 19.02784
    },
    "name": "Pomaz"
  },
  {
    "country": "HU",
    "id": 3044141,
    "coord": {
      "lat": 46.881519,
      "lon": 17.44117
    },
    "name": "Tapolca"
  },
  {
    "country": "HU",
    "id": 715338,
    "coord": {
      "lat": 46.650002,
      "lon": 20.26667
    },
    "name": "Szentes"
  },
  {
    "country": "HU",
    "id": 718214,
    "coord": {
      "lat": 46.650002,
      "lon": 20.26667
    },
    "name": "Lapistó"
  },
  {
    "country": "HU",
    "id": 3045332,
    "coord": {
      "lat": 46.904121,
      "lon": 18.058001
    },
    "name": "Siofok"
  },
  {
    "country": "HU",
    "id": 3047967,
    "coord": {
      "lat": 45.993061,
      "lon": 18.68306
    },
    "name": "Mohacs"
  },
  {
    "country": "HU",
    "id": 722324,
    "coord": {
      "lat": 47.216671,
      "lon": 21.549999
    },
    "name": "Berettyoujfalu"
  },
  {
    "country": "HU",
    "id": 3049896,
    "coord": {
      "lat": 46.621391,
      "lon": 19.28528
    },
    "name": "Kiskoros"
  },
  {
    "country": "HU",
    "id": 718739,
    "coord": {
      "lat": 48.216671,
      "lon": 22.08333
    },
    "name": "Kisvarda"
  },
  {
    "country": "HU",
    "id": 3045364,
    "coord": {
      "lat": 45.854988,
      "lon": 18.29752
    },
    "name": "Siklos"
  },
  {
    "country": "HU",
    "id": 3049430,
    "coord": {
      "lat": 47.01096,
      "lon": 16.605961
    },
    "name": "Kormend"
  },
  {
    "country": "HU",
    "id": 3053476,
    "coord": {
      "lat": 47.636398,
      "lon": 19.138639
    },
    "name": "Dunakeszi"
  },
  {
    "country": "HU",
    "id": 3047835,
    "coord": {
      "lat": 47.633331,
      "lon": 19.133329
    },
    "name": "Nádormajor"
  },
  {
    "country": "HU",
    "id": 3054648,
    "coord": {
      "lat": 47.51083,
      "lon": 18.92717
    },
    "name": "Budakeszi"
  },
  {
    "country": "HU",
    "id": 3046577,
    "coord": {
      "lat": 47.616669,
      "lon": 17.25
    },
    "name": "Pásztorúti Dűlő"
  },
  {
    "country": "HU",
    "id": 714692,
    "coord": {
      "lat": 47.966671,
      "lon": 21.35
    },
    "name": "Tiszavasvari"
  },
  {
    "country": "HU",
    "id": 715296,
    "coord": {
      "lat": 46.933331,
      "lon": 20.1
    },
    "name": "Szeszgyárdűlő"
  },
  {
    "country": "HU",
    "id": 3051018,
    "coord": {
      "lat": 46.433331,
      "lon": 18.783331
    },
    "name": "Izguntanya"
  },
  {
    "country": "HU",
    "id": 3044495,
    "coord": {
      "lat": 46.433331,
      "lon": 18.783331
    },
    "name": "Sziget"
  },
  {
    "country": "HU",
    "id": 3053971,
    "coord": {
      "lat": 47.549999,
      "lon": 19.23333
    },
    "name": "Csomor"
  },
  {
    "country": "HU",
    "id": 3050466,
    "coord": {
      "lat": 47.400002,
      "lon": 19.283331
    },
    "name": "Kavicsbánya"
  },
  {
    "country": "HU",
    "id": 3053489,
    "coord": {
      "lat": 46.807999,
      "lon": 18.92638
    },
    "name": "Dunafoldvar"
  },
  {
    "country": "HU",
    "id": 3045846,
    "coord": {
      "lat": 47.928162,
      "lon": 19.137199
    },
    "name": "Retsag"
  },
  {
    "country": "HU",
    "id": 716877,
    "coord": {
      "lat": 47.599998,
      "lon": 20.283331
    },
    "name": "Nyulasszőllő"
  },
  {
    "country": "HU",
    "id": 3056355,
    "coord": {
      "lat": 47.099998,
      "lon": 17.566669
    },
    "name": "Ajkai Tanyák"
  },
  {
    "country": "HU",
    "id": 3051512,
    "coord": {
      "lat": 47.133331,
      "lon": 17.75
    },
    "name": "Herend"
  },
  {
    "country": "HU",
    "id": 3043238,
    "coord": {
      "lat": 46.51667,
      "lon": 16.966669
    },
    "name": "Vajdamajor"
  },
  {
    "country": "HU",
    "id": 3048591,
    "coord": {
      "lat": 46.951672,
      "lon": 16.34766
    },
    "name": "Magyarlak"
  },
  {
    "country": "HU",
    "id": 3055969,
    "coord": {
      "lat": 47.166672,
      "lon": 18.950001
    },
    "name": "Angyalisziget"
  },
  {
    "country": "HU",
    "id": 3044195,
    "coord": {
      "lat": 47.166672,
      "lon": 18.950001
    },
    "name": "Tagosztály"
  },
  {
    "country": "HU",
    "id": 3050290,
    "coord": {
      "lat": 47.547569,
      "lon": 19.26247
    },
    "name": "Kistarcsa"
  },
  {
    "country": "HU",
    "id": 3049519,
    "coord": {
      "lat": 47.743179,
      "lon": 18.119129
    },
    "name": "Komarom"
  },
  {
    "country": "HU",
    "id": 3049512,
    "coord": {
      "lat": 46.19278,
      "lon": 18.26494
    },
    "name": "Komlo"
  },
  {
    "country": "HU",
    "id": 3051621,
    "coord": {
      "lat": 47.666672,
      "lon": 19.683331
    },
    "name": "Hatvan"
  },
  {
    "country": "HU",
    "id": 3043117,
    "coord": {
      "lat": 46.916672,
      "lon": 18.98333
    },
    "name": "Várkonyitanya"
  },
  {
    "country": "HU",
    "id": 3055590,
    "coord": {
      "lat": 47.035259,
      "lon": 18.02076
    },
    "name": "Balatonalmadi"
  },
  {
    "country": "HU",
    "id": 3043895,
    "coord": {
      "lat": 47.033329,
      "lon": 18.01667
    },
    "name": "Tisztviselőtelep"
  },
  {
    "country": "HU",
    "id": 3054693,
    "coord": {
      "lat": 47.651741,
      "lon": 19.4785
    },
    "name": "Aszod"
  },
  {
    "country": "HU",
    "id": 3045404,
    "coord": {
      "lat": 47.76667,
      "lon": 18.549999
    },
    "name": "Selyemgyártelep"
  },
  {
    "country": "HU",
    "id": 3055603,
    "coord": {
      "lat": 47.099998,
      "lon": 17.433331
    },
    "name": "Baláczaidűlő"
  },
  {
    "country": "HU",
    "id": 3045838,
    "coord": {
      "lat": 47.650002,
      "lon": 19.283331
    },
    "name": "Revetekdűlő"
  },
  {
    "country": "HU",
    "id": 721575,
    "coord": {
      "lat": 47.816669,
      "lon": 21.5
    },
    "name": "Csontoskert"
  },
  {
    "country": "HU",
    "id": 3051788,
    "coord": {
      "lat": 47.75,
      "lon": 18.5
    },
    "name": "Hamvasbánya"
  },
  {
    "country": "HU",
    "id": 3051016,
    "coord": {
      "lat": 46.804539,
      "lon": 19.351721
    },
    "name": "Izsak"
  },
  {
    "country": "HU",
    "id": 3046545,
    "coord": {
      "lat": 47.599998,
      "lon": 17.033331
    },
    "name": "Patyiház"
  },
  {
    "country": "HU",
    "id": 3055151,
    "coord": {
      "lat": 46.216671,
      "lon": 19.549999
    },
    "name": "Belső Új Sor"
  },
  {
    "country": "HU",
    "id": 3052045,
    "coord": {
      "lat": 47.42733,
      "lon": 19.401331
    },
    "name": "Gyomro"
  },
  {
    "country": "HU",
    "id": 3055772,
    "coord": {
      "lat": 47.643608,
      "lon": 17.97798
    },
    "name": "Babolna"
  },
  {
    "country": "HU",
    "id": 717652,
    "coord": {
      "lat": 47.816669,
      "lon": 20.58333
    },
    "name": "Mezokovesd"
  },
  {
    "country": "HU",
    "id": 720907,
    "coord": {
      "lat": 48.216671,
      "lon": 20.716669
    },
    "name": "Felsőbánya"
  },
  {
    "country": "HU",
    "id": 717883,
    "coord": {
      "lat": 48.299999,
      "lon": 20.73333
    },
    "name": "Malombirtokosság"
  },
  {
    "country": "HU",
    "id": 721159,
    "coord": {
      "lat": 48.333328,
      "lon": 21.133329
    },
    "name": "Encs"
  },
  {
    "country": "HU",
    "id": 715975,
    "coord": {
      "lat": 48.166672,
      "lon": 21.200001
    },
    "name": "Ruzsiczkytanya"
  },
  {
    "country": "HU",
    "id": 715189,
    "coord": {
      "lat": 48.166672,
      "lon": 21.200001
    },
    "name": "Szivattyútelep"
  },
  {
    "country": "HU",
    "id": 722280,
    "coord": {
      "lat": 47.133331,
      "lon": 21.716669
    },
    "name": "Biharkeresztesi Tanyák"
  },
  {
    "country": "HU",
    "id": 717397,
    "coord": {
      "lat": 47.865471,
      "lon": 22.3916
    },
    "name": "Nagyecsed"
  },
  {
    "country": "HU",
    "id": 714779,
    "coord": {
      "lat": 48.01667,
      "lon": 21.16667
    },
    "name": "Tiszadob"
  },
  {
    "country": "HU",
    "id": 3050311,
    "coord": {
      "lat": 46.937222,
      "lon": 19.47806
    },
    "name": "Kerekegyhaza"
  },
  {
    "country": "HU",
    "id": 3045017,
    "coord": {
      "lat": 46.875751,
      "lon": 19.22324
    },
    "name": "Szabadszallas"
  },
  {
    "country": "HU",
    "id": 3045298,
    "coord": {
      "lat": 46.578892,
      "lon": 19.39389
    },
    "name": "Soltvadkert"
  },
  {
    "country": "HU",
    "id": 3050454,
    "coord": {
      "lat": 46.52528,
      "lon": 19.25194
    },
    "name": "Kecel"
  },
  {
    "country": "HU",
    "id": 3055760,
    "coord": {
      "lat": 46.12648,
      "lon": 19.3326
    },
    "name": "Bacsalmas"
  },
  {
    "country": "HU",
    "id": 3050967,
    "coord": {
      "lat": 46.298611,
      "lon": 19.32583
    },
    "name": "Janoshalma"
  },
  {
    "country": "HU",
    "id": 3042840,
    "coord": {
      "lat": 47.48333,
      "lon": 19.35
    },
    "name": "Virághegy"
  },
  {
    "country": "HU",
    "id": 3056361,
    "coord": {
      "lat": 47.349998,
      "lon": 19.450001
    },
    "name": "Agyagbánya"
  },
  {
    "country": "HU",
    "id": 3043736,
    "coord": {
      "lat": 47.383331,
      "lon": 19.35
    },
    "name": "Tóthtanya"
  },
  {
    "country": "HU",
    "id": 3053611,
    "coord": {
      "lat": 47.450001,
      "lon": 19.366671
    },
    "name": "Dognyai Tanya"
  },
  {
    "country": "HU",
    "id": 3046434,
    "coord": {
      "lat": 47.316669,
      "lon": 18.966669
    },
    "name": "Pestiúti Kültelek"
  },
  {
    "country": "HU",
    "id": 3042685,
    "coord": {
      "lat": 47.383331,
      "lon": 19.23333
    },
    "name": "Webertanya"
  },
  {
    "country": "HU",
    "id": 3048096,
    "coord": {
      "lat": 47.383331,
      "lon": 19.23333
    },
    "name": "Mezőssytanya"
  },
  {
    "country": "HU",
    "id": 3055878,
    "coord": {
      "lat": 47.299999,
      "lon": 19.23333
    },
    "name": "Aranyhegy"
  },
  {
    "country": "HU",
    "id": 3048447,
    "coord": {
      "lat": 47.183331,
      "lon": 19.316669
    },
    "name": "Marceltanya"
  },
  {
    "country": "HU",
    "id": 3046916,
    "coord": {
      "lat": 47.12991,
      "lon": 19.433241
    },
    "name": "Orkeny"
  },
  {
    "country": "HU",
    "id": 3042824,
    "coord": {
      "lat": 47.785259,
      "lon": 18.9709
    },
    "name": "Visegrad"
  },
  {
    "country": "HU",
    "id": 3051597,
    "coord": {
      "lat": 47.25,
      "lon": 19.616671
    },
    "name": "Hegy"
  },
  {
    "country": "HU",
    "id": 723030,
    "coord": {
      "lat": 47.189899,
      "lon": 20.004761
    },
    "name": "Abony"
  },
  {
    "country": "HU",
    "id": 3056159,
    "coord": {
      "lat": 46.883331,
      "lon": 18.633329
    },
    "name": "Alsókörtvélyes"
  },
  {
    "country": "HU",
    "id": 3055563,
    "coord": {
      "lat": 47.066669,
      "lon": 18.049999
    },
    "name": "Balatonfűzfő"
  },
  {
    "country": "HU",
    "id": 3042536,
    "coord": {
      "lat": 47.263618,
      "lon": 17.87373
    },
    "name": "Zirc"
  },
  {
    "country": "HU",
    "id": 3043417,
    "coord": {
      "lat": 46.950001,
      "lon": 17.08333
    },
    "name": "Újtelep"
  },
  {
    "country": "HU",
    "id": 3047872,
    "coord": {
      "lat": 46.433331,
      "lon": 16.73333
    },
    "name": "Murahid"
  },
  {
    "country": "HU",
    "id": 3043034,
    "coord": {
      "lat": 47.383331,
      "lon": 16.549999
    },
    "name": "Vasúti Újlaktanya"
  },
  {
    "country": "HU",
    "id": 3045744,
    "coord": {
      "lat": 47.383331,
      "lon": 16.549999
    },
    "name": "Rőtivölgy"
  },
  {
    "country": "HU",
    "id": 3043033,
    "coord": {
      "lat": 47.049278,
      "lon": 16.79954
    },
    "name": "Vasvar"
  },
  {
    "country": "HU",
    "id": 3045479,
    "coord": {
      "lat": 46.255199,
      "lon": 18.107759
    },
    "name": "Sasd"
  },
  {
    "country": "HU",
    "id": 3055368,
    "coord": {
      "lat": 45.959999,
      "lon": 17.458611
    },
    "name": "Barcs"
  },
  {
    "country": "HU",
    "id": 3051718,
    "coord": {
      "lat": 45.850021,
      "lon": 18.236679
    },
    "name": "Harkany"
  },
  {
    "country": "HU",
    "id": 3042617,
    "coord": {
      "lat": 46.848019,
      "lon": 16.5875
    },
    "name": "Zalalovo"
  },
  {
    "country": "HU",
    "id": 3055757,
    "coord": {
      "lat": 46.125,
      "lon": 19.15621
    },
    "name": "Bacsbokod"
  },
  {
    "country": "HU",
    "id": 3054839,
    "coord": {
      "lat": 47.616669,
      "lon": 19.200001
    },
    "name": "Bolgártelep"
  },
  {
    "country": "HU",
    "id": 3048438,
    "coord": {
      "lat": 47.683331,
      "lon": 19.133329
    },
    "name": "Margitmajor"
  },
  {
    "country": "HU",
    "id": 719317,
    "coord": {
      "lat": 48.066669,
      "lon": 20.883329
    },
    "name": "Kavics-banya"
  },
  {
    "country": "HU",
    "id": 3053402,
    "coord": {
      "lat": 47.44389,
      "lon": 19.324499
    },
    "name": "Ecser"
  },
  {
    "country": "HU",
    "id": 721660,
    "coord": {
      "lat": 47.866669,
      "lon": 21.933331
    },
    "name": "Csikóslapostanya"
  },
  {
    "country": "HU",
    "id": 716686,
    "coord": {
      "lat": 47.866669,
      "lon": 21.933331
    },
    "name": "Ószőlőskert"
  },
  {
    "country": "HU",
    "id": 3054597,
    "coord": {
      "lat": 47.384861,
      "lon": 16.75065
    },
    "name": "Buk"
  },
  {
    "country": "HU",
    "id": 716968,
    "coord": {
      "lat": 47.98333,
      "lon": 20.83333
    },
    "name": "Nyekladhaza"
  },
  {
    "country": "HU",
    "id": 717570,
    "coord": {
      "lat": 47.883331,
      "lon": 22.033331
    },
    "name": "Mocsolya"
  },
  {
    "country": "HU",
    "id": 720547,
    "coord": {
      "lat": 47.883331,
      "lon": 22.033331
    },
    "name": "Gergelyffinagytanya"
  },
  {
    "country": "HU",
    "id": 3056347,
    "coord": {
      "lat": 46.691669,
      "lon": 19.204229
    },
    "name": "Akaszto"
  },
  {
    "country": "HU",
    "id": 3045409,
    "coord": {
      "lat": 47.783329,
      "lon": 19.133329
    },
    "name": "Sejce"
  },
  {
    "country": "HU",
    "id": 717694,
    "coord": {
      "lat": 46.966671,
      "lon": 21.08333
    },
    "name": "Mérgeszug"
  },
  {
    "country": "HU",
    "id": 721559,
    "coord": {
      "lat": 46.633331,
      "lon": 20.83333
    },
    "name": "Csorvas"
  },
  {
    "country": "HU",
    "id": 720857,
    "coord": {
      "lat": 48.099998,
      "lon": 20.866671
    },
    "name": "Felsozsolca"
  },
  {
    "country": "HU",
    "id": 3056391,
    "coord": {
      "lat": 46.84026,
      "lon": 19.45208
    },
    "name": "Agasegyhaza"
  },
  {
    "country": "HU",
    "id": 3052614,
    "coord": {
      "lat": 47.116669,
      "lon": 18.133329
    },
    "name": "Flinkmalom"
  },
  {
    "country": "HU",
    "id": 3047005,
    "coord": {
      "lat": 47.116669,
      "lon": 18.133329
    },
    "name": "Öreghegy"
  },
  {
    "country": "HU",
    "id": 3050828,
    "coord": {
      "lat": 47.383331,
      "lon": 18.200001
    },
    "name": "Józsefpuszta"
  },
  {
    "country": "HU",
    "id": 3044487,
    "coord": {
      "lat": 47.322281,
      "lon": 19.002621
    },
    "name": "Szigethalom"
  },
  {
    "country": "HU",
    "id": 3053434,
    "coord": {
      "lat": 47.278591,
      "lon": 19.06617
    },
    "name": "Dunavarsany"
  },
  {
    "country": "HU",
    "id": 3042841,
    "coord": {
      "lat": 47.51667,
      "lon": 17.51667
    },
    "name": "Violatag"
  },
  {
    "country": "HU",
    "id": 722494,
    "coord": {
      "lat": 47.466671,
      "lon": 20.6
    },
    "name": "Bata"
  },
  {
    "country": "HU",
    "id": 3042622,
    "coord": {
      "lat": 46.566669,
      "lon": 17.133329
    },
    "name": "Zalakarosi Puszta"
  },
  {
    "country": "HU",
    "id": 3055895,
    "coord": {
      "lat": 46.883331,
      "lon": 18.950001
    },
    "name": "Apostagi Tanyák"
  },
  {
    "country": "HU",
    "id": 714144,
    "coord": {
      "lat": 47.883331,
      "lon": 22.566669
    },
    "name": "Véghtanya"
  },
  {
    "country": "HU",
    "id": 717118,
    "coord": {
      "lat": 48.183331,
      "lon": 22.066669
    },
    "name": "Nagyszőllő"
  },
  {
    "country": "HU",
    "id": 721024,
    "coord": {
      "lat": 48.066669,
      "lon": 21.799999
    },
    "name": "Farkashegyi Szőlő"
  },
  {
    "country": "HU",
    "id": 716671,
    "coord": {
      "lat": 48.216671,
      "lon": 20.299999
    },
    "name": "Ozd"
  },
  {
    "country": "HU",
    "id": 721315,
    "coord": {
      "lat": 48.23333,
      "lon": 21.933331
    },
    "name": "Dombár"
  },
  {
    "country": "HU",
    "id": 715976,
    "coord": {
      "lat": 48,
      "lon": 22.16667
    },
    "name": "Ruzsatanya"
  },
  {
    "country": "HU",
    "id": 714487,
    "coord": {
      "lat": 47.849998,
      "lon": 22.549999
    },
    "name": "Tyukodi Újtelep"
  },
  {
    "country": "HU",
    "id": 716946,
    "coord": {
      "lat": 47.700001,
      "lon": 22.133329
    },
    "name": "Nyirbeltek"
  },
  {
    "country": "HU",
    "id": 3047894,
    "coord": {
      "lat": 47.783329,
      "lon": 17.133329
    },
    "name": "Mosonszentjánosi Tanyák"
  },
  {
    "country": "HU",
    "id": 717612,
    "coord": {
      "lat": 48.166672,
      "lon": 21.6
    },
    "name": "Mikitatanya"
  },
  {
    "country": "HU",
    "id": 722650,
    "coord": {
      "lat": 47.77066,
      "lon": 21.86314
    },
    "name": "Balkany"
  },
  {
    "country": "HU",
    "id": 714938,
    "coord": {
      "lat": 48.104801,
      "lon": 22.537439
    },
    "name": "Tarpa"
  },
  {
    "country": "HU",
    "id": 717853,
    "coord": {
      "lat": 48.321491,
      "lon": 22.191071
    },
    "name": "Mandok"
  },
  {
    "country": "HU",
    "id": 716717,
    "coord": {
      "lat": 48.25,
      "lon": 21.9
    },
    "name": "Orsószög"
  },
  {
    "country": "HU",
    "id": 3042610,
    "coord": {
      "lat": 46.494331,
      "lon": 17.08053
    },
    "name": "Zalasárszeg"
  },
  {
    "country": "HU",
    "id": 714490,
    "coord": {
      "lat": 48.34407,
      "lon": 22.11762
    },
    "name": "Tuzser"
  },
  {
    "country": "HU",
    "id": 714073,
    "coord": {
      "lat": 46.916672,
      "lon": 21.26667
    },
    "name": "Veszto"
  },
  {
    "country": "HU",
    "id": 717016,
    "coord": {
      "lat": 46.916672,
      "lon": 21.26667
    },
    "name": "Németi"
  },
  {
    "country": "HU",
    "id": 716611,
    "coord": {
      "lat": 47.916672,
      "lon": 22.26667
    },
    "name": "Pankotaitanya"
  },
  {
    "country": "HU",
    "id": 720494,
    "coord": {
      "lat": 48.466671,
      "lon": 21.283331
    },
    "name": "Gonc"
  },
  {
    "country": "HU",
    "id": 721305,
    "coord": {
      "lat": 48.099998,
      "lon": 21.65
    },
    "name": "Domonicstanya"
  },
  {
    "country": "HU",
    "id": 717693,
    "coord": {
      "lat": 47.788239,
      "lon": 22.380381
    },
    "name": "Merk"
  },
  {
    "country": "HU",
    "id": 716909,
    "coord": {
      "lat": 47.69315,
      "lon": 22.04476
    },
    "name": "Nyirlugos"
  },
  {
    "country": "HU",
    "id": 713991,
    "coord": {
      "lat": 47.700001,
      "lon": 22.049999
    },
    "name": "Vitéztelek"
  },
  {
    "country": "HU",
    "id": 720064,
    "coord": {
      "lat": 48.433331,
      "lon": 21.283331
    },
    "name": "Hejce"
  },
  {
    "country": "HU",
    "id": 715283,
    "coord": {
      "lat": 47.916672,
      "lon": 22.51667
    },
    "name": "Sziget"
  },
  {
    "country": "HU",
    "id": 3055753,
    "coord": {
      "lat": 46.098701,
      "lon": 19.15806
    },
    "name": "Bácsborsód"
  },
  {
    "country": "HU",
    "id": 3054380,
    "coord": {
      "lat": 47.083328,
      "lon": 17.48333
    },
    "name": "Csárda"
  },
  {
    "country": "HU",
    "id": 722866,
    "coord": {
      "lat": 48.400002,
      "lon": 20.73333
    },
    "name": "Andrástanya"
  },
  {
    "country": "HU",
    "id": 719717,
    "coord": {
      "lat": 48.400002,
      "lon": 20.73333
    },
    "name": "Ivánkapuszta"
  },
  {
    "country": "HU",
    "id": 715053,
    "coord": {
      "lat": 47.916672,
      "lon": 22.216669
    },
    "name": "Szucsányitanya"
  },
  {
    "country": "HU",
    "id": 3053163,
    "coord": {
      "lat": 47.792801,
      "lon": 18.74148
    },
    "name": "Esztergom"
  },
  {
    "country": "HU",
    "id": 3044254,
    "coord": {
      "lat": 47.933331,
      "lon": 19.91667
    },
    "name": "Szuhahuta"
  },
  {
    "country": "HU",
    "id": 3042657,
    "coord": {
      "lat": 46.485699,
      "lon": 16.71871
    },
    "name": "Zajk"
  },
  {
    "country": "HU",
    "id": 722884,
    "coord": {
      "lat": 46.23333,
      "lon": 20.133329
    },
    "name": "Alsóváros"
  },
  {
    "country": "HU",
    "id": 3042583,
    "coord": {
      "lat": 46.6684,
      "lon": 17.156019
    },
    "name": "Zalavár"
  },
  {
    "country": "HU",
    "id": 3046269,
    "coord": {
      "lat": 45.98,
      "lon": 18.26
    },
    "name": "Pogány"
  },
  {
    "country": "HU",
    "id": 3047460,
    "coord": {
      "lat": 45.98056,
      "lon": 18.236389
    },
    "name": "Nándorliget"
  },
  {
    "country": "HU",
    "id": 3054713,
    "coord": {
      "lat": 47.650002,
      "lon": 17.83333
    },
    "name": "Bothmerpuszta"
  },
  {
    "country": "HU",
    "id": 3044786,
    "coord": {
      "lat": 46.900002,
      "lon": 19.700001
    },
    "name": "Székelytelep"
  },
  {
    "country": "HU",
    "id": 3044330,
    "coord": {
      "lat": 46.898079,
      "lon": 19.72751
    },
    "name": "Szolnokihegy"
  },
  {
    "country": "HU",
    "id": 717616,
    "coord": {
      "lat": 47.450001,
      "lon": 21.633329
    },
    "name": "Mikepercs"
  },
  {
    "country": "HU",
    "id": 722406,
    "coord": {
      "lat": 47.48333,
      "lon": 21.633329
    },
    "name": "Bellegelő"
  },
  {
    "country": "HU",
    "id": 3043019,
    "coord": {
      "lat": 47.407051,
      "lon": 19.28648
    },
    "name": "Vecses"
  },
  {
    "country": "HU",
    "id": 721812,
    "coord": {
      "lat": 47.133331,
      "lon": 20.23333
    },
    "name": "Cseberér"
  },
  {
    "country": "HU",
    "id": 3047428,
    "coord": {
      "lat": 47.337379,
      "lon": 19.22139
    },
    "name": "Némediszőlő"
  },
  {
    "country": "HU",
    "id": 3052894,
    "coord": {
      "lat": 47.416672,
      "lon": 19.23333
    },
    "name": "Felsőhalom"
  },
  {
    "country": "HU",
    "id": 715126,
    "coord": {
      "lat": 47.183331,
      "lon": 20.200001
    },
    "name": "Szolnok"
  },
  {
    "country": "HU",
    "id": 721239,
    "coord": {
      "lat": 47.902649,
      "lon": 20.373289
    },
    "name": "Eger"
  },
  {
    "country": "HU",
    "id": 722439,
    "coord": {
      "lat": 46.76667,
      "lon": 21.133329
    },
    "name": "Bekes"
  },
  {
    "country": "HU",
    "id": 3042929,
    "coord": {
      "lat": 47.093269,
      "lon": 17.911489
    },
    "name": "Veszprem"
  },
  {
    "country": "HU",
    "id": 3044681,
    "coord": {
      "lat": 47.66943,
      "lon": 19.075609
    },
    "name": "Szentendre"
  },
  {
    "country": "HU",
    "id": 3044774,
    "coord": {
      "lat": 47.189949,
      "lon": 18.410339
    },
    "name": "Szekesfehervar"
  },
  {
    "country": "HU",
    "id": 3045190,
    "coord": {
      "lat": 47.685009,
      "lon": 16.59049
    },
    "name": "Sopron"
  },
  {
    "country": "HU",
    "id": 3047679,
    "coord": {
      "lat": 46.453468,
      "lon": 16.991039
    },
    "name": "Nagykanizsa"
  },
  {
    "country": "HU",
    "id": 3047896,
    "coord": {
      "lat": 47.867882,
      "lon": 17.269939
    },
    "name": "Mosonmagyarovar"
  },
  {
    "country": "HU",
    "id": 3050434,
    "coord": {
      "lat": 46.906181,
      "lon": 19.69128
    },
    "name": "Kecskemet"
  },
  {
    "country": "HU",
    "id": 3050616,
    "coord": {
      "lat": 46.366669,
      "lon": 17.799999
    },
    "name": "Kaposvar"
  },
  {
    "country": "HU",
    "id": 3053438,
    "coord": {
      "lat": 46.98333,
      "lon": 18.933331
    },
    "name": "Dunaujvaros"
  },
  {
    "country": "HU",
    "id": 713932,
    "coord": {
      "lat": 47.26667,
      "lon": 20.133329
    },
    "name": "Zagyvarekas"
  },
  {
    "country": "HU",
    "id": 714081,
    "coord": {
      "lat": 47.849998,
      "lon": 20.23333
    },
    "name": "Verpelet"
  },
  {
    "country": "HU",
    "id": 714265,
    "coord": {
      "lat": 47.533329,
      "lon": 21.9
    },
    "name": "Vamospercs"
  },
  {
    "country": "HU",
    "id": 714296,
    "coord": {
      "lat": 48.005741,
      "lon": 22.16761
    },
    "name": "Vaja"
  },
  {
    "country": "HU",
    "id": 714421,
    "coord": {
      "lat": 47.299999,
      "lon": 20.08333
    },
    "name": "Ujszasz"
  },
  {
    "country": "HU",
    "id": 714449,
    "coord": {
      "lat": 46.583328,
      "lon": 21.033331
    },
    "name": "Ujkigyos"
  },
  {
    "country": "HU",
    "id": 714464,
    "coord": {
      "lat": 47.799999,
      "lon": 21.683331
    },
    "name": "Ujfeherto"
  },
  {
    "country": "HU",
    "id": 714488,
    "coord": {
      "lat": 47.853779,
      "lon": 22.563299
    },
    "name": "Tyukod"
  },
  {
    "country": "HU",
    "id": 714504,
    "coord": {
      "lat": 47.099998,
      "lon": 20.75
    },
    "name": "Turkeve"
  },
  {
    "country": "HU",
    "id": 714518,
    "coord": {
      "lat": 47.966671,
      "lon": 22.466669
    },
    "name": "Tunyogmatolcs"
  },
  {
    "country": "HU",
    "id": 714570,
    "coord": {
      "lat": 47.099998,
      "lon": 20.15
    },
    "name": "Toszeg"
  },
  {
    "country": "HU",
    "id": 714593,
    "coord": {
      "lat": 48.26667,
      "lon": 22.183331
    },
    "name": "Tornyospalca"
  },
  {
    "country": "HU",
    "id": 714623,
    "coord": {
      "lat": 46.617161,
      "lon": 20.04357
    },
    "name": "Tomorkeny"
  },
  {
    "country": "HU",
    "id": 714642,
    "coord": {
      "lat": 48.283329,
      "lon": 21.450001
    },
    "name": "Tolcsva"
  },
  {
    "country": "HU",
    "id": 714659,
    "coord": {
      "lat": 48.116669,
      "lon": 21.41667
    },
    "name": "Tokaj"
  },
  {
    "country": "HU",
    "id": 714714,
    "coord": {
      "lat": 47.48333,
      "lon": 20.73333
    },
    "name": "Tiszaszentimre"
  },
  {
    "country": "HU",
    "id": 714718,
    "coord": {
      "lat": 47.383331,
      "lon": 20.4
    },
    "name": "Tiszasuly"
  },
  {
    "country": "HU",
    "id": 714721,
    "coord": {
      "lat": 47.400002,
      "lon": 20.450001
    },
    "name": "Tiszaroff"
  },
  {
    "country": "HU",
    "id": 714724,
    "coord": {
      "lat": 47.216671,
      "lon": 20.316669
    },
    "name": "Tiszapuspoki"
  },
  {
    "country": "HU",
    "id": 714734,
    "coord": {
      "lat": 47.566669,
      "lon": 20.533331
    },
    "name": "Tiszanana"
  },
  {
    "country": "HU",
    "id": 714736,
    "coord": {
      "lat": 48.099998,
      "lon": 21.48333
    },
    "name": "Tiszanagyfalu"
  },
  {
    "country": "HU",
    "id": 714739,
    "coord": {
      "lat": 48.033329,
      "lon": 21.08333
    },
    "name": "Tiszaluc"
  },
  {
    "country": "HU",
    "id": 714742,
    "coord": {
      "lat": 48.01667,
      "lon": 21.383329
    },
    "name": "Tiszalok"
  },
  {
    "country": "HU",
    "id": 714751,
    "coord": {
      "lat": 47.783329,
      "lon": 21
    },
    "name": "Tiszakeszi"
  },
  {
    "country": "HU",
    "id": 714754,
    "coord": {
      "lat": 46.932621,
      "lon": 20.103491
    },
    "name": "Tiszakecske"
  },
  {
    "country": "HU",
    "id": 714756,
    "coord": {
      "lat": 48.200001,
      "lon": 21.716669
    },
    "name": "Tiszakarad"
  },
  {
    "country": "HU",
    "id": 714772,
    "coord": {
      "lat": 47.616669,
      "lon": 20.76667
    },
    "name": "Tiszafured"
  },
  {
    "country": "HU",
    "id": 714774,
    "coord": {
      "lat": 46.98333,
      "lon": 20.25
    },
    "name": "Tiszafoldvar"
  },
  {
    "country": "HU",
    "id": 714776,
    "coord": {
      "lat": 48.049999,
      "lon": 21.466669
    },
    "name": "Tiszaeszlar"
  },
  {
    "country": "HU",
    "id": 714782,
    "coord": {
      "lat": 48.033329,
      "lon": 21.25
    },
    "name": "Tiszadada"
  },
  {
    "country": "HU",
    "id": 714785,
    "coord": {
      "lat": 47.700001,
      "lon": 21
    },
    "name": "Tiszacsege"
  },
  {
    "country": "HU",
    "id": 714787,
    "coord": {
      "lat": 47.450001,
      "lon": 20.466669
    },
    "name": "Tiszabura"
  },
  {
    "country": "HU",
    "id": 714789,
    "coord": {
      "lat": 47.299999,
      "lon": 20.48333
    },
    "name": "Tiszabo"
  },
  {
    "country": "HU",
    "id": 714791,
    "coord": {
      "lat": 48.366669,
      "lon": 22.15
    },
    "name": "Tiszabezded"
  },
  {
    "country": "HU",
    "id": 714793,
    "coord": {
      "lat": 48.150002,
      "lon": 21.65
    },
    "name": "Tiszabercel"
  },
  {
    "country": "HU",
    "id": 714914,
    "coord": {
      "lat": 47.716671,
      "lon": 21.683331
    },
    "name": "Teglas"
  },
  {
    "country": "HU",
    "id": 714948,
    "coord": {
      "lat": 47.59499,
      "lon": 20.05254
    },
    "name": "Tarnaoers"
  },
  {
    "country": "HU",
    "id": 714951,
    "coord": {
      "lat": 48.049999,
      "lon": 20.183331
    },
    "name": "Tarnalelesz"
  },
  {
    "country": "HU",
    "id": 714973,
    "coord": {
      "lat": 48.133331,
      "lon": 21.35
    },
    "name": "Tarcal"
  },
  {
    "country": "HU",
    "id": 715001,
    "coord": {
      "lat": 48.23333,
      "lon": 21.23333
    },
    "name": "Tallya"
  },
  {
    "country": "HU",
    "id": 715005,
    "coord": {
      "lat": 48.116669,
      "lon": 21.183331
    },
    "name": "Taktaszada"
  },
  {
    "country": "HU",
    "id": 715009,
    "coord": {
      "lat": 48.083328,
      "lon": 21.133329
    },
    "name": "Taktaharkany"
  },
  {
    "country": "HU",
    "id": 715199,
    "coord": {
      "lat": 48.150002,
      "lon": 20.799999
    },
    "name": "Szirmabesenyo"
  },
  {
    "country": "HU",
    "id": 715217,
    "coord": {
      "lat": 48.099998,
      "lon": 20.4
    },
    "name": "Szilvasvarad"
  },
  {
    "country": "HU",
    "id": 715259,
    "coord": {
      "lat": 48.200001,
      "lon": 20.933331
    },
    "name": "Szikszo"
  },
  {
    "country": "HU",
    "id": 715272,
    "coord": {
      "lat": 47.76667,
      "lon": 20.48333
    },
    "name": "Szihalom"
  },
  {
    "country": "HU",
    "id": 715302,
    "coord": {
      "lat": 48.166672,
      "lon": 21.200001
    },
    "name": "Szerencs"
  },
  {
    "country": "HU",
    "id": 715332,
    "coord": {
      "lat": 47.76667,
      "lon": 20.66667
    },
    "name": "Szentistvan"
  },
  {
    "country": "HU",
    "id": 715355,
    "coord": {
      "lat": 48.400002,
      "lon": 20.73333
    },
    "name": "Szendro"
  },
  {
    "country": "HU",
    "id": 715393,
    "coord": {
      "lat": 46.5,
      "lon": 20.533331
    },
    "name": "Szekkutas"
  },
  {
    "country": "HU",
    "id": 715415,
    "coord": {
      "lat": 46.587399,
      "lon": 20.224079
    },
    "name": "Szegvar"
  },
  {
    "country": "HU",
    "id": 715449,
    "coord": {
      "lat": 46.34306,
      "lon": 20.040199
    },
    "name": "Szatymaz"
  },
  {
    "country": "HU",
    "id": 715518,
    "coord": {
      "lat": 48.045609,
      "lon": 22.36582
    },
    "name": "Szamosszeg"
  },
  {
    "country": "HU",
    "id": 715558,
    "coord": {
      "lat": 47.76667,
      "lon": 21.91667
    },
    "name": "Szakoly"
  },
  {
    "country": "HU",
    "id": 715570,
    "coord": {
      "lat": 47.183331,
      "lon": 20.299999
    },
    "name": "Szajol"
  },
  {
    "country": "HU",
    "id": 715614,
    "coord": {
      "lat": 46.616669,
      "lon": 21.1
    },
    "name": "Szabadkigyos"
  },
  {
    "country": "HU",
    "id": 715763,
    "coord": {
      "lat": 47.933331,
      "lon": 20.200001
    },
    "name": "Sirok"
  },
  {
    "country": "HU",
    "id": 715862,
    "coord": {
      "lat": 47.23333,
      "lon": 21.200001
    },
    "name": "Sarretudvari"
  },
  {
    "country": "HU",
    "id": 715904,
    "coord": {
      "lat": 47.400002,
      "lon": 21.633329
    },
    "name": "Sarand"
  },
  {
    "country": "HU",
    "id": 715924,
    "coord": {
      "lat": 46.36087,
      "lon": 20.09889
    },
    "name": "Sandorfalva"
  },
  {
    "country": "HU",
    "id": 715930,
    "coord": {
      "lat": 47.950001,
      "lon": 20.66667
    },
    "name": "Saly"
  },
  {
    "country": "HU",
    "id": 715939,
    "coord": {
      "lat": 48.183331,
      "lon": 20.85
    },
    "name": "Sajovamos"
  },
  {
    "country": "HU",
    "id": 715941,
    "coord": {
      "lat": 47.950001,
      "lon": 21
    },
    "name": "Sajoszoged"
  },
  {
    "country": "HU",
    "id": 715945,
    "coord": {
      "lat": 48.216671,
      "lon": 20.716669
    },
    "name": "Sajoszentpeter"
  },
  {
    "country": "HU",
    "id": 715951,
    "coord": {
      "lat": 47.950001,
      "lon": 21.033331
    },
    "name": "Sajooeroes"
  },
  {
    "country": "HU",
    "id": 715958,
    "coord": {
      "lat": 48.049999,
      "lon": 20.9
    },
    "name": "Sajolad"
  },
  {
    "country": "HU",
    "id": 715962,
    "coord": {
      "lat": 48.283329,
      "lon": 20.58333
    },
    "name": "Sajokaza"
  },
  {
    "country": "HU",
    "id": 715970,
    "coord": {
      "lat": 48.166672,
      "lon": 20.73333
    },
    "name": "Sajobabony"
  },
  {
    "country": "HU",
    "id": 715989,
    "coord": {
      "lat": 48.383331,
      "lon": 20.633329
    },
    "name": "Rudabanya"
  },
  {
    "country": "HU",
    "id": 716028,
    "coord": {
      "lat": 46.187962,
      "lon": 20.03372
    },
    "name": "Roszke"
  },
  {
    "country": "HU",
    "id": 716081,
    "coord": {
      "lat": 48.325642,
      "lon": 21.97069
    },
    "name": "Ricse"
  },
  {
    "country": "HU",
    "id": 716151,
    "coord": {
      "lat": 47.933331,
      "lon": 20.116671
    },
    "name": "Recsk"
  },
  {
    "country": "HU",
    "id": 716186,
    "coord": {
      "lat": 47.066669,
      "lon": 20.26667
    },
    "name": "Rakocziujfalu"
  },
  {
    "country": "HU",
    "id": 716197,
    "coord": {
      "lat": 47.083328,
      "lon": 20.23333
    },
    "name": "Rakoczifalva"
  },
  {
    "country": "HU",
    "id": 716204,
    "coord": {
      "lat": 48.133331,
      "lon": 21.466669
    },
    "name": "Rakamaz"
  },
  {
    "country": "HU",
    "id": 716282,
    "coord": {
      "lat": 46.533329,
      "lon": 20.799999
    },
    "name": "Pusztafoldvar"
  },
  {
    "country": "HU",
    "id": 716317,
    "coord": {
      "lat": 48.083328,
      "lon": 21.25
    },
    "name": "Prugy"
  },
  {
    "country": "HU",
    "id": 716339,
    "coord": {
      "lat": 47.650002,
      "lon": 20.66667
    },
    "name": "Poroszlo"
  },
  {
    "country": "HU",
    "id": 716343,
    "coord": {
      "lat": 47.883331,
      "lon": 22.566669
    },
    "name": "Porcsalma"
  },
  {
    "country": "HU",
    "id": 716356,
    "coord": {
      "lat": 47.866669,
      "lon": 21.116671
    },
    "name": "Polgar"
  },
  {
    "country": "HU",
    "id": 716372,
    "coord": {
      "lat": 47.283329,
      "lon": 21.816669
    },
    "name": "Pocsaj"
  },
  {
    "country": "HU",
    "id": 716437,
    "coord": {
      "lat": 48.060841,
      "lon": 22.07485
    },
    "name": "Petnehaza"
  },
  {
    "country": "HU",
    "id": 716439,
    "coord": {
      "lat": 48.01667,
      "lon": 20.1
    },
    "name": "Petervasara"
  },
  {
    "country": "HU",
    "id": 716526,
    "coord": {
      "lat": 48.166672,
      "lon": 22
    },
    "name": "Patroha"
  },
  {
    "country": "HU",
    "id": 716559,
    "coord": {
      "lat": 47.923241,
      "lon": 20.02972
    },
    "name": "Parad"
  },
  {
    "country": "HU",
    "id": 716706,
    "coord": {
      "lat": 47.866669,
      "lon": 20.433331
    },
    "name": "Ostoros"
  },
  {
    "country": "HU",
    "id": 716791,
    "coord": {
      "lat": 46.48592,
      "lon": 20.087219
    },
    "name": "Opusztaszer"
  },
  {
    "country": "HU",
    "id": 716793,
    "coord": {
      "lat": 47.997711,
      "lon": 22.32617
    },
    "name": "Opalyi"
  },
  {
    "country": "HU",
    "id": 716796,
    "coord": {
      "lat": 48,
      "lon": 20.91667
    },
    "name": "Onod"
  },
  {
    "country": "HU",
    "id": 716799,
    "coord": {
      "lat": 48.116669,
      "lon": 20.91667
    },
    "name": "Onga"
  },
  {
    "country": "HU",
    "id": 716828,
    "coord": {
      "lat": 48.25,
      "lon": 21.433331
    },
    "name": "Olaszliszka"
  },
  {
    "country": "HU",
    "id": 716844,
    "coord": {
      "lat": 47.918621,
      "lon": 22.508101
    },
    "name": "Okoritofulpos"
  },
  {
    "country": "HU",
    "id": 716853,
    "coord": {
      "lat": 46.900002,
      "lon": 21.35
    },
    "name": "Okany"
  },
  {
    "country": "HU",
    "id": 716860,
    "coord": {
      "lat": 47.933331,
      "lon": 22.049999
    },
    "name": "Ofeherto"
  },
  {
    "country": "HU",
    "id": 716864,
    "coord": {
      "lat": 46.900002,
      "lon": 20.4
    },
    "name": "Ocsod"
  },
  {
    "country": "HU",
    "id": 716889,
    "coord": {
      "lat": 47.816669,
      "lon": 22.186831
    },
    "name": "Nyirvasvari"
  },
  {
    "country": "HU",
    "id": 716894,
    "coord": {
      "lat": 48.116669,
      "lon": 22.033331
    },
    "name": "Nyirtass"
  },
  {
    "country": "HU",
    "id": 716899,
    "coord": {
      "lat": 47.98333,
      "lon": 21.799999
    },
    "name": "Nyirpazony"
  },
  {
    "country": "HU",
    "id": 716903,
    "coord": {
      "lat": 47.739761,
      "lon": 21.964451
    },
    "name": "Nyirmihalydi"
  },
  {
    "country": "HU",
    "id": 716905,
    "coord": {
      "lat": 47.916672,
      "lon": 22.26667
    },
    "name": "Nyirmeggyes"
  },
  {
    "country": "HU",
    "id": 716906,
    "coord": {
      "lat": 47.583328,
      "lon": 21.9
    },
    "name": "Nyirmartonfalva"
  },
  {
    "country": "HU",
    "id": 716908,
    "coord": {
      "lat": 48.066669,
      "lon": 22.200001
    },
    "name": "Nyirmada"
  },
  {
    "country": "HU",
    "id": 716913,
    "coord": {
      "lat": 48.101669,
      "lon": 22.09794
    },
    "name": "Nyirkarasz"
  },
  {
    "country": "HU",
    "id": 716924,
    "coord": {
      "lat": 47.886219,
      "lon": 22.097811
    },
    "name": "Nyirgyulaj"
  },
  {
    "country": "HU",
    "id": 716941,
    "coord": {
      "lat": 47.903831,
      "lon": 22.3363
    },
    "name": "Nyircsaholy"
  },
  {
    "country": "HU",
    "id": 716943,
    "coord": {
      "lat": 48.057232,
      "lon": 21.88242
    },
    "name": "Nyirbogdany"
  },
  {
    "country": "HU",
    "id": 716945,
    "coord": {
      "lat": 47.803398,
      "lon": 22.065611
    },
    "name": "Nyirbogat"
  },
  {
    "country": "HU",
    "id": 716948,
    "coord": {
      "lat": 47.833328,
      "lon": 22.133329
    },
    "name": "Nyirbator"
  },
  {
    "country": "HU",
    "id": 716951,
    "coord": {
      "lat": 47.69746,
      "lon": 21.918779
    },
    "name": "Nyiradony"
  },
  {
    "country": "HU",
    "id": 716952,
    "coord": {
      "lat": 47.603298,
      "lon": 21.97208
    },
    "name": "Nyiracsad"
  },
  {
    "country": "HU",
    "id": 716954,
    "coord": {
      "lat": 47.553108,
      "lon": 22.02401
    },
    "name": "Nyirabrany"
  },
  {
    "country": "HU",
    "id": 717042,
    "coord": {
      "lat": 47.937969,
      "lon": 21.86763
    },
    "name": "Napkor"
  },
  {
    "country": "HU",
    "id": 717130,
    "coord": {
      "lat": 46.683331,
      "lon": 20.66667
    },
    "name": "Nagyszenas"
  },
  {
    "country": "HU",
    "id": 717172,
    "coord": {
      "lat": 47.200001,
      "lon": 21.33333
    },
    "name": "Nagyrabe"
  },
  {
    "country": "HU",
    "id": 717281,
    "coord": {
      "lat": 47.874908,
      "lon": 21.84082
    },
    "name": "Nagykallo"
  },
  {
    "country": "HU",
    "id": 717345,
    "coord": {
      "lat": 48.133331,
      "lon": 21.76667
    },
    "name": "Nagyhalasz"
  },
  {
    "country": "HU",
    "id": 717400,
    "coord": {
      "lat": 48.05759,
      "lon": 22.304239
    },
    "name": "Nagydobos"
  },
  {
    "country": "HU",
    "id": 717406,
    "coord": {
      "lat": 47.966671,
      "lon": 21.533331
    },
    "name": "Nagycserkesz"
  },
  {
    "country": "HU",
    "id": 717449,
    "coord": {
      "lat": 47.416672,
      "lon": 21.16667
    },
    "name": "Nadudvar"
  },
  {
    "country": "HU",
    "id": 717497,
    "coord": {
      "lat": 48.26667,
      "lon": 20.683331
    },
    "name": "Mucsony"
  },
  {
    "country": "HU",
    "id": 717521,
    "coord": {
      "lat": 47.400002,
      "lon": 21.783331
    },
    "name": "Monostorpalyi"
  },
  {
    "country": "HU",
    "id": 717530,
    "coord": {
      "lat": 48.216671,
      "lon": 21.15
    },
    "name": "Monok"
  },
  {
    "country": "HU",
    "id": 717591,
    "coord": {
      "lat": 46.523621,
      "lon": 20.19038
    },
    "name": "Mindszent"
  },
  {
    "country": "HU",
    "id": 717632,
    "coord": {
      "lat": 48.150002,
      "lon": 21.26667
    },
    "name": "Mezozombor"
  },
  {
    "country": "HU",
    "id": 717656,
    "coord": {
      "lat": 46.400002,
      "lon": 20.91667
    },
    "name": "Mezokovacshaza"
  },
  {
    "country": "HU",
    "id": 717658,
    "coord": {
      "lat": 47.833328,
      "lon": 20.700001
    },
    "name": "Mezokeresztes"
  },
  {
    "country": "HU",
    "id": 717662,
    "coord": {
      "lat": 46.316669,
      "lon": 20.816669
    },
    "name": "Mezohegyes"
  },
  {
    "country": "HU",
    "id": 717667,
    "coord": {
      "lat": 47.816669,
      "lon": 20.91667
    },
    "name": "Mezocsat"
  },
  {
    "country": "HU",
    "id": 717669,
    "coord": {
      "lat": 46.816669,
      "lon": 21.033331
    },
    "name": "Mezobereny"
  },
  {
    "country": "HU",
    "id": 717721,
    "coord": {
      "lat": 46.783329,
      "lon": 21.450001
    },
    "name": "Mehkerek"
  },
  {
    "country": "HU",
    "id": 717726,
    "coord": {
      "lat": 48.183331,
      "lon": 21.049999
    },
    "name": "Megyaszo"
  },
  {
    "country": "HU",
    "id": 717741,
    "coord": {
      "lat": 46.5,
      "lon": 21.033331
    },
    "name": "Medgyesegyhaza"
  },
  {
    "country": "HU",
    "id": 717758,
    "coord": {
      "lat": 47.950001,
      "lon": 20.08333
    },
    "name": "Matraderecske"
  },
  {
    "country": "HU",
    "id": 717805,
    "coord": {
      "lat": 46.26667,
      "lon": 20.35
    },
    "name": "Maroslele"
  },
  {
    "country": "HU",
    "id": 717825,
    "coord": {
      "lat": 47.883018,
      "lon": 22.025021
    },
    "name": "Mariapocs"
  },
  {
    "country": "HU",
    "id": 717861,
    "coord": {
      "lat": 48.01667,
      "lon": 20.83333
    },
    "name": "Malyi"
  },
  {
    "country": "HU",
    "id": 717904,
    "coord": {
      "lat": 47.799999,
      "lon": 20.41667
    },
    "name": "Maklar"
  },
  {
    "country": "HU",
    "id": 717943,
    "coord": {
      "lat": 46.450001,
      "lon": 20.966669
    },
    "name": "Magyarbanhegyes"
  },
  {
    "country": "HU",
    "id": 717980,
    "coord": {
      "lat": 48.200001,
      "lon": 21.283331
    },
    "name": "Mad"
  },
  {
    "country": "HU",
    "id": 718060,
    "coord": {
      "lat": 46.433331,
      "lon": 21.23333
    },
    "name": "Lokoshaza"
  },
  {
    "country": "HU",
    "id": 718108,
    "coord": {
      "lat": 47.962818,
      "lon": 21.985371
    },
    "name": "Levelek"
  },
  {
    "country": "HU",
    "id": 718113,
    "coord": {
      "lat": 47.383331,
      "lon": 21.9
    },
    "name": "Letavertes"
  },
  {
    "country": "HU",
    "id": 718312,
    "coord": {
      "lat": 46.839161,
      "lon": 20.28879
    },
    "name": "Kunszentmarton"
  },
  {
    "country": "HU",
    "id": 718315,
    "coord": {
      "lat": 47.433331,
      "lon": 20.799999
    },
    "name": "Kunmadaras"
  },
  {
    "country": "HU",
    "id": 718321,
    "coord": {
      "lat": 47.366669,
      "lon": 20.633329
    },
    "name": "Kunhegyes"
  },
  {
    "country": "HU",
    "id": 718334,
    "coord": {
      "lat": 46.433331,
      "lon": 21.049999
    },
    "name": "Kunagota"
  },
  {
    "country": "HU",
    "id": 718480,
    "coord": {
      "lat": 48.049999,
      "lon": 21.716669
    },
    "name": "Kotaj"
  },
  {
    "country": "HU",
    "id": 718516,
    "coord": {
      "lat": 46.883331,
      "lon": 21.033331
    },
    "name": "Korostarcsa"
  },
  {
    "country": "HU",
    "id": 718528,
    "coord": {
      "lat": 46.966671,
      "lon": 21.08333
    },
    "name": "Korosladany"
  },
  {
    "country": "HU",
    "id": 718602,
    "coord": {
      "lat": 47.316669,
      "lon": 21.66667
    },
    "name": "Konyar"
  },
  {
    "country": "HU",
    "id": 718615,
    "coord": {
      "lat": 46.76667,
      "lon": 20.799999
    },
    "name": "Kondoros"
  },
  {
    "country": "HU",
    "id": 718618,
    "coord": {
      "lat": 47.73333,
      "lon": 20.25
    },
    "name": "Kompolt"
  },
  {
    "country": "HU",
    "id": 718637,
    "coord": {
      "lat": 47,
      "lon": 21.5
    },
    "name": "Komadi"
  },
  {
    "country": "HU",
    "id": 718699,
    "coord": {
      "lat": 47.939121,
      "lon": 22.383329
    },
    "name": "Kocsord"
  },
  {
    "country": "HU",
    "id": 718723,
    "coord": {
      "lat": 46.183331,
      "lon": 20.433331
    },
    "name": "Kiszombor"
  },
  {
    "country": "HU",
    "id": 718744,
    "coord": {
      "lat": 47.216671,
      "lon": 20.76667
    },
    "name": "Kisujszallas"
  },
  {
    "country": "HU",
    "id": 718897,
    "coord": {
      "lat": 47.842442,
      "lon": 22.003929
    },
    "name": "Kisleta"
  },
  {
    "country": "HU",
    "id": 718911,
    "coord": {
      "lat": 47.5,
      "lon": 20.5
    },
    "name": "Kiskore"
  },
  {
    "country": "HU",
    "id": 719093,
    "coord": {
      "lat": 46.416672,
      "lon": 21.183331
    },
    "name": "Kevermes"
  },
  {
    "country": "HU",
    "id": 719126,
    "coord": {
      "lat": 46.533329,
      "lon": 21.183331
    },
    "name": "Ketegyhaza"
  },
  {
    "country": "HU",
    "id": 719211,
    "coord": {
      "lat": 47.799999,
      "lon": 20.35
    },
    "name": "Kerecsend"
  },
  {
    "country": "HU",
    "id": 719232,
    "coord": {
      "lat": 47.083328,
      "lon": 20.33333
    },
    "name": "Kengyel"
  },
  {
    "country": "HU",
    "id": 719252,
    "coord": {
      "lat": 47.25,
      "lon": 20.683331
    },
    "name": "Kenderes"
  },
  {
    "country": "HU",
    "id": 719260,
    "coord": {
      "lat": 48.075321,
      "lon": 21.80625
    },
    "name": "Kemecse"
  },
  {
    "country": "HU",
    "id": 719280,
    "coord": {
      "lat": 48.116669,
      "lon": 21.883329
    },
    "name": "Kek"
  },
  {
    "country": "HU",
    "id": 719346,
    "coord": {
      "lat": 46.466671,
      "lon": 20.83333
    },
    "name": "Kaszaper"
  },
  {
    "country": "HU",
    "id": 719396,
    "coord": {
      "lat": 48.311298,
      "lon": 21.80537
    },
    "name": "Karcsa"
  },
  {
    "country": "HU",
    "id": 719419,
    "coord": {
      "lat": 47.729622,
      "lon": 20.03076
    },
    "name": "Karacsond"
  },
  {
    "country": "HU",
    "id": 719466,
    "coord": {
      "lat": 47.933331,
      "lon": 22.15
    },
    "name": "Kantorjanosi"
  },
  {
    "country": "HU",
    "id": 719489,
    "coord": {
      "lat": 47.883331,
      "lon": 21.58333
    },
    "name": "Kalmanhaza"
  },
  {
    "country": "HU",
    "id": 719493,
    "coord": {
      "lat": 47.860809,
      "lon": 21.93928
    },
    "name": "Kallosemjen"
  },
  {
    "country": "HU",
    "id": 719511,
    "coord": {
      "lat": 47.73333,
      "lon": 20.26667
    },
    "name": "Kal"
  },
  {
    "country": "HU",
    "id": 719555,
    "coord": {
      "lat": 47.349998,
      "lon": 21.283331
    },
    "name": "Kaba"
  },
  {
    "country": "HU",
    "id": 719635,
    "coord": {
      "lat": 47.583328,
      "lon": 20.183331
    },
    "name": "Jaszszentandras"
  },
  {
    "country": "HU",
    "id": 719640,
    "coord": {
      "lat": 47.366669,
      "lon": 20.16667
    },
    "name": "Jaszladany"
  },
  {
    "country": "HU",
    "id": 719643,
    "coord": {
      "lat": 47.450001,
      "lon": 20.216669
    },
    "name": "Jaszkiser"
  },
  {
    "country": "HU",
    "id": 719644,
    "coord": {
      "lat": 47.049999,
      "lon": 20.066669
    },
    "name": "Jaszkarajeno"
  },
  {
    "country": "HU",
    "id": 719645,
    "coord": {
      "lat": 47.520378,
      "lon": 19.99086
    },
    "name": "Jaszjakohalma"
  },
  {
    "country": "HU",
    "id": 719649,
    "coord": {
      "lat": 47.566101,
      "lon": 20.015341
    },
    "name": "Jaszdozsa"
  },
  {
    "country": "HU",
    "id": 719656,
    "coord": {
      "lat": 47.366669,
      "lon": 20.1
    },
    "name": "Jaszalsoszentgyorgy"
  },
  {
    "country": "HU",
    "id": 719668,
    "coord": {
      "lat": 48.150002,
      "lon": 20.25
    },
    "name": "Jardanhaza"
  },
  {
    "country": "HU",
    "id": 719678,
    "coord": {
      "lat": 47.383331,
      "lon": 20.066669
    },
    "name": "Janoshida"
  },
  {
    "country": "HU",
    "id": 719710,
    "coord": {
      "lat": 48.299999,
      "lon": 20.66667
    },
    "name": "Izsofalva"
  },
  {
    "country": "HU",
    "id": 719843,
    "coord": {
      "lat": 47.393028,
      "lon": 21.7328
    },
    "name": "Hosszupalyi"
  },
  {
    "country": "HU",
    "id": 719895,
    "coord": {
      "lat": 47.582779,
      "lon": 21.151079
    },
    "name": "Hortobagy"
  },
  {
    "country": "HU",
    "id": 719967,
    "coord": {
      "lat": 47.918339,
      "lon": 22.20153
    },
    "name": "Hodasz"
  },
  {
    "country": "HU",
    "id": 720006,
    "coord": {
      "lat": 47.599998,
      "lon": 20.283331
    },
    "name": "Heves"
  },
  {
    "country": "HU",
    "id": 720026,
    "coord": {
      "lat": 48.066669,
      "lon": 20.98333
    },
    "name": "Hernadnemeti"
  },
  {
    "country": "HU",
    "id": 720061,
    "coord": {
      "lat": 47.900002,
      "lon": 20.950001
    },
    "name": "Hejobaba"
  },
  {
    "country": "HU",
    "id": 720149,
    "coord": {
      "lat": 47.966671,
      "lon": 20.75
    },
    "name": "Harsany"
  },
  {
    "country": "HU",
    "id": 720228,
    "coord": {
      "lat": 48.25,
      "lon": 21
    },
    "name": "Halmaj"
  },
  {
    "country": "HU",
    "id": 720274,
    "coord": {
      "lat": 47.383331,
      "lon": 21.48333
    },
    "name": "Hajduszovat"
  },
  {
    "country": "HU",
    "id": 720280,
    "coord": {
      "lat": 47.599998,
      "lon": 21.76667
    },
    "name": "Hajdusamson"
  },
  {
    "country": "HU",
    "id": 720287,
    "coord": {
      "lat": 47.683331,
      "lon": 21.66667
    },
    "name": "Hajduhadhaz"
  },
  {
    "country": "HU",
    "id": 720290,
    "coord": {
      "lat": 47.816669,
      "lon": 21.5
    },
    "name": "Hajdudorog"
  },
  {
    "country": "HU",
    "id": 720295,
    "coord": {
      "lat": 47.392948,
      "lon": 21.66551
    },
    "name": "Hajdubagos"
  },
  {
    "country": "HU",
    "id": 720330,
    "coord": {
      "lat": 48.133331,
      "lon": 22.116671
    },
    "name": "Gyulahaza"
  },
  {
    "country": "HU",
    "id": 720480,
    "coord": {
      "lat": 47.833328,
      "lon": 21.23333
    },
    "name": "Gorbehaza"
  },
  {
    "country": "HU",
    "id": 720533,
    "coord": {
      "lat": 48.099998,
      "lon": 20.966669
    },
    "name": "Gesztely"
  },
  {
    "country": "HU",
    "id": 720574,
    "coord": {
      "lat": 48.150002,
      "lon": 21.950001
    },
    "name": "Gegeny"
  },
  {
    "country": "HU",
    "id": 720643,
    "coord": {
      "lat": 46.666672,
      "lon": 20.6
    },
    "name": "Gadoros"
  },
  {
    "country": "HU",
    "id": 720679,
    "coord": {
      "lat": 47.099998,
      "lon": 21.216669
    },
    "name": "Fuzesgyarmat"
  },
  {
    "country": "HU",
    "id": 720776,
    "coord": {
      "lat": 47.299999,
      "lon": 21.366671
    },
    "name": "Foldes"
  },
  {
    "country": "HU",
    "id": 720780,
    "coord": {
      "lat": 46.316669,
      "lon": 20.5
    },
    "name": "Foldeak"
  },
  {
    "country": "HU",
    "id": 720846,
    "coord": {
      "lat": 48.271332,
      "lon": 22.10009
    },
    "name": "Fenyeslitke"
  },
  {
    "country": "HU",
    "id": 720862,
    "coord": {
      "lat": 47.966671,
      "lon": 20.41667
    },
    "name": "Felsotarkany"
  },
  {
    "country": "HU",
    "id": 720988,
    "coord": {
      "lat": 47.98333,
      "lon": 22.51667
    },
    "name": "Fehergyarmat"
  },
  {
    "country": "HU",
    "id": 720992,
    "coord": {
      "lat": 47.26667,
      "lon": 20.533331
    },
    "name": "Fegyvernek"
  },
  {
    "country": "HU",
    "id": 721022,
    "coord": {
      "lat": 48.183331,
      "lon": 20.316669
    },
    "name": "Farkaslyuk"
  },
  {
    "country": "HU",
    "id": 721068,
    "coord": {
      "lat": 46.683331,
      "lon": 20.466669
    },
    "name": "Fabiansebestyen"
  },
  {
    "country": "HU",
    "id": 721119,
    "coord": {
      "lat": 47.683331,
      "lon": 20.316669
    },
    "name": "Erdotelek"
  },
  {
    "country": "HU",
    "id": 721158,
    "coord": {
      "lat": 47.73333,
      "lon": 22.116671
    },
    "name": "Encsencs"
  },
  {
    "country": "HU",
    "id": 721189,
    "coord": {
      "lat": 46.533329,
      "lon": 21.25
    },
    "name": "Elek"
  },
  {
    "country": "HU",
    "id": 721208,
    "coord": {
      "lat": 47.633331,
      "lon": 20.9
    },
    "name": "Egyek"
  },
  {
    "country": "HU",
    "id": 721225,
    "coord": {
      "lat": 47.866669,
      "lon": 20.33333
    },
    "name": "Egerszalok"
  },
  {
    "country": "HU",
    "id": 721246,
    "coord": {
      "lat": 48.299999,
      "lon": 20.73333
    },
    "name": "Edeleny"
  },
  {
    "country": "HU",
    "id": 721257,
    "coord": {
      "lat": 47.466671,
      "lon": 21.5
    },
    "name": "Ebes"
  },
  {
    "country": "HU",
    "id": 721304,
    "coord": {
      "lat": 47.833328,
      "lon": 20.116671
    },
    "name": "Domoszlo"
  },
  {
    "country": "HU",
    "id": 721309,
    "coord": {
      "lat": 48.23333,
      "lon": 21.933331
    },
    "name": "Dombrad"
  },
  {
    "country": "HU",
    "id": 721314,
    "coord": {
      "lat": 46.333328,
      "lon": 21.133329
    },
    "name": "Dombegyhaz"
  },
  {
    "country": "HU",
    "id": 721316,
    "coord": {
      "lat": 46.249168,
      "lon": 20.01111
    },
    "name": "Domaszek"
  },
  {
    "country": "HU",
    "id": 721338,
    "coord": {
      "lat": 48.262459,
      "lon": 22.063391
    },
    "name": "Doge"
  },
  {
    "country": "HU",
    "id": 721349,
    "coord": {
      "lat": 46.73333,
      "lon": 21.25
    },
    "name": "Doboz"
  },
  {
    "country": "HU",
    "id": 721411,
    "coord": {
      "lat": 46.218021,
      "lon": 20.243219
    },
    "name": "Deszk"
  },
  {
    "country": "HU",
    "id": 721428,
    "coord": {
      "lat": 47.349998,
      "lon": 21.566669
    },
    "name": "Derecske"
  },
  {
    "country": "HU",
    "id": 721444,
    "coord": {
      "lat": 48.11108,
      "lon": 21.91749
    },