[

  {
    "country": "IE",
    "id": 3294179,
    "coord": {
      "lat": 51.835281,
      "lon": -8.49333
    },
    "name": "Fort Cross Roads"
  },
  {
    "country": "IE",
    "id": 3315176,
    "coord": {
      "lat": 53.181938,
      "lon": -6.26861
    },
    "name": "Ballycoyle"
  },
  {
    "country": "IE",
    "id": 6691053,
    "coord": {
      "lat": 53.284721,
      "lon": -6.26272
    },
    "name": "Meadow Mount"
  },
  {
    "country": "IE",
    "id": 3298509,
    "coord": {
      "lat": 52.14167,
      "lon": -10.38556
    },
    "name": "Rahtnnane"
  },
  {
    "country": "IE",
    "id": 2964468,
    "coord": {
      "lat": 52.84417,
      "lon": -7.3925
    },
    "name": "Durrow"
  },
  {
    "country": "IE",
    "id": 2962864,
    "coord": {
      "lat": 52.446388,
      "lon": -9.485
    },
    "name": "Listowel"
  },
  {
    "country": "IE",
    "id": 2961192,
    "coord": {
      "lat": 52.473331,
      "lon": -8.15583
    },
    "name": "Tipperary"
  },
  {
    "country": "IE",
    "id": 2962252,
    "coord": {
      "lat": 52.396671,
      "lon": -6.93667
    },
    "name": "New Ross"
  },
  {
    "country": "IE",
    "id": 2961636,
    "coord": {
      "lat": 53.280281,
      "lon": -6.44444
    },
    "name": "Saggart"
  },
  {
    "country": "IE",
    "id": 2961123,
    "coord": {
      "lat": 52.27042,
      "lon": -9.70264
    },
    "name": "Tralee"
  },
  {
    "country": "IE",
    "id": 2963517,
    "coord": {
      "lat": 52.166672,
      "lon": -9.75
    },
    "name": "Ciarraí"
  },
  {
    "country": "IE",
    "id": 3297715,
    "coord": {
      "lat": 51.934719,
      "lon": -10.24111
    },
    "name": "Reenard Cross"
  },
  {
    "country": "IE",
    "id": 2964532,
    "coord": {
      "lat": 53.290668,
      "lon": -6.25714
    },
    "name": "Dundrum"
  },
  {
    "country": "IE",
    "id": 2960970,
    "coord": {
      "lat": 53.799999,
      "lon": -9.51667
    },
    "name": "Westport"
  },
  {
    "country": "IE",
    "id": 2963031,
    "coord": {
      "lat": 53,
      "lon": -7.4
    },
    "name": "Laois"
  },
  {
    "country": "IE",
    "id": 2961587,
    "coord": {
      "lat": 53.398121,
      "lon": -6.25268
    },
    "name": "Santry"
  },
  {
    "country": "IE",
    "id": 2966022,
    "coord": {
      "lat": 53.202782,
      "lon": -6.09833
    },
    "name": "Bray"
  },
  {
    "country": "IE",
    "id": 2966839,
    "coord": {
      "lat": 53.433331,
      "lon": -7.95
    },
    "name": "Athlone"
  },
  {
    "country": "IE",
    "id": 2963597,
    "coord": {
      "lat": 53,
      "lon": -8
    },
    "name": "Ireland"
  },
  {
    "country": "IE",
    "id": 7521315,
    "coord": {
      "lat": 52.34333,
      "lon": -8.71667
    },
    "name": "Munster"
  },
  {
    "country": "IE",
    "id": 2965139,
    "coord": {
      "lat": 51.966671,
      "lon": -8.58333
    },
    "name": "County Cork"
  },
  {
    "country": "IE",
    "id": 2966377,
    "coord": {
      "lat": 51.48333,
      "lon": -9.36667
    },
    "name": "Baltimore"
  },
  {
    "country": "IE",
    "id": 3294101,
    "coord": {
      "lat": 51.789719,
      "lon": -8.29417
    },
    "name": "Ballinluska"
  },
  {
    "country": "IE",
    "id": 3300407,
    "coord": {
      "lat": 52.138329,
      "lon": -8.39667
    },
    "name": "Bloomfield Cross Roads"
  },
  {
    "country": "IE",
    "id": 2960991,
    "coord": {
      "lat": 52.25,
      "lon": -7.5
    },
    "name": "Waterford"
  },
  {
    "country": "IE",
    "id": 2961120,
    "coord": {
      "lat": 52.16235,
      "lon": -7.15244
    },
    "name": "Tra Mhor"
  },
  {
    "country": "IE",
    "id": 7521314,
    "coord": {
      "lat": 53.166672,
      "lon": -7.02121
    },
    "name": "Leinster"
  },
  {
    "country": "IE",
    "id": 2960963,
    "coord": {
      "lat": 52.5,
      "lon": -6.66667
    },
    "name": "Loch Garman"
  },
  {
    "country": "IE",
    "id": 3302101,
    "coord": {
      "lat": 52.288609,
      "lon": -6.48083
    },
    "name": "Ballykilliane"
  },
  {
    "country": "IE",
    "id": 2965479,
    "coord": {
      "lat": 52.833328,
      "lon": -9
    },
    "name": "An Clár"
  },
  {
    "country": "IE",
    "id": 2961824,
    "coord": {
      "lat": 52.683331,
      "lon": -8.95
    },
    "name": "Rineanna"
  },
  {
    "country": "IE",
    "id": 2965767,
    "coord": {
      "lat": 52.666672,
      "lon": -6.83333
    },
    "name": "County Carlow"
  },
  {
    "country": "IE",
    "id": 2965768,
    "coord": {
      "lat": 52.840832,
      "lon": -6.92611
    },
    "name": "Carlow"
  },
  {
    "country": "IE",
    "id": 2963435,
    "coord": {
      "lat": 53.166672,
      "lon": -6.75
    },
    "name": "Kildare"
  },
  {
    "country": "IE",
    "id": 3314270,
    "coord": {
      "lat": 53.03611,
      "lon": -6.89139
    },
    "name": "Ballyadam"
  },
  {
    "country": "IE",
    "id": 2960935,
    "coord": {
      "lat": 53,
      "lon": -6.41667
    },
    "name": "Wicklow"
  },
  {
    "country": "IE",
    "id": 7521313,
    "coord": {
      "lat": 53.869999,
      "lon": -8.63333
    },
    "name": "Connaught"
  },
  {
    "country": "IE",
    "id": 2964179,
    "coord": {
      "lat": 53.333328,
      "lon": -9
    },
    "name": "County Galway"
  },
  {
    "country": "IE",
    "id": 3315458,
    "coord": {
      "lat": 53.332218,
      "lon": -9.88611
    },
    "name": "Dooveher"
  },
  {
    "country": "IE",
    "id": 3316325,
    "coord": {
      "lat": 53.422218,
      "lon": -6.26722
    },
    "name": "Coultry"
  },
  {
    "country": "IE",
    "id": 2960972,
    "coord": {
      "lat": 53.5,
      "lon": -7.5
    },
    "name": "An Iarmhí"
  },
  {
    "country": "IE",
    "id": 2962361,
    "coord": {
      "lat": 53.533329,
      "lon": -7.35
    },
    "name": "An Muileann gCearr"
  },
  {
    "country": "IE",
    "id": 2962666,
    "coord": {
      "lat": 53.900002,
      "lon": -9.25
    },
    "name": "Maigh Eo"
  },
  {
    "country": "IE",
    "id": 2965471,
    "coord": {
      "lat": 53.716671,
      "lon": -9
    },
    "name": "Claremorris"
  },
  {
    "country": "IE",
    "id": 6325505,
    "coord": {
      "lat": 53.924961,
      "lon": -8.85326
    },
    "name": "BARNALYRA"
  },
  {
    "country": "IE",
    "id": 7521316,
    "coord": {
      "lat": 54.361111,
      "lon": -7.41667
    },
    "name": "Ulster"
  },
  {
    "country": "IE",
    "id": 2965534,
    "coord": {
      "lat": 53.916672,
      "lon": -7.25
    },
    "name": "An Cabhán"
  },
  {
    "country": "IE",
    "id": 2966572,
    "coord": {
      "lat": 54.049999,
      "lon": -7.31667
    },
    "name": "Ballyhaise"
  },
  {
    "country": "IE",
    "id": 2964751,
    "coord": {
      "lat": 54.916672,
      "lon": -8
    },
    "name": "County Donegal"
  },
  {
    "country": "IE",
    "id": 2965929,
    "coord": {
      "lat": 54.477821,
      "lon": -8.28094
    },
    "name": "Bundoran"
  },
  {
    "country": "IE",
    "id": 2961028,
    "coord": {
      "lat": 55.336391,
      "lon": -7.28528
    },
    "name": "Urbalreagh"
  },
  {
    "country": "IE",
    "id": 2963397,
    "coord": {
      "lat": 52.583328,
      "lon": -7.25
    },
    "name": "Kilkenny"
  },
  {
    "country": "IE",
    "id": 2960964,
    "coord": {
      "lat": 52.334171,
      "lon": -6.4575
    },
    "name": "Loch Garman"
  },
  {
    "country": "IE",
    "id": 3310247,
    "coord": {
      "lat": 52.703892,
      "lon": -8.86417
    },
    "name": "Shannon"
  },
  {
    "country": "IE",
    "id": 3303113,
    "coord": {
      "lat": 52.749168,
      "lon": -6.87472
    },
    "name": "Ballytarsha Cross Roads"
  },
  {
    "country": "IE",
    "id": 3291024,
    "coord": {
      "lat": 52.26667,
      "lon": -9.73056
    },
    "name": "Lohercannan"
  },
  {
    "country": "IE",
    "id": 2963436,
    "coord": {
      "lat": 53.156109,
      "lon": -6.91444
    },
    "name": "Kildare"
  },
  {
    "country": "IE",
    "id": 2960936,
    "coord": {
      "lat": 52.974998,
      "lon": -6.04944
    },
    "name": "Wicklow"
  },
  {
    "country": "IE",
    "id": 3313943,
    "coord": {
      "lat": 53.400829,
      "lon": -7.38333
    },
    "name": "Templeoran"
  },
  {
    "country": "IE",
    "id": 2965119,
    "coord": {
      "lat": 53.716671,
      "lon": -8.76667
    },
    "name": "Corraun"
  },
  {
    "country": "IE",
    "id": 2962029,
    "coord": {
      "lat": 53.16222,
      "lon": -7.19111
    },
    "name": "Portarlington"
  },
  {
    "country": "IE",
    "id": 2963940,
    "coord": {
      "lat": 54.955002,
      "lon": -7.72556
    },
    "name": "Gortlee"
  },
  {
    "country": "IE",
    "id": 2965750,
    "coord": {
      "lat": 53.950279,
      "lon": -8.6925
    },
    "name": "Carracastle"
  },
  {
    "country": "IE",
    "id": 2963567,
    "coord": {
      "lat": 52.749168,
      "lon": -7.55417
    },
    "name": "Johnstown"
  },
  {
    "country": "IE",
    "id": 7869942,
    "coord": {
      "lat": 52.724388,
      "lon": -8.55251
    },
    "name": "Clonlara"
  },
  {
    "country": "IE",
    "id": 2962661,
    "coord": {
      "lat": 53.666672,
      "lon": -6.66667
    },
    "name": "An Mhí"
  },
  {
    "country": "IE",
    "id": 2964472,
    "coord": {
      "lat": 53.512501,
      "lon": -6.54
    },
    "name": "Dunshaughlin"
  },
  {
    "country": "IE",
    "id": 3315550,
    "coord": {
      "lat": 53.554169,
      "lon": -10.13444
    },
    "name": "Emlagh"
  },
  {
    "country": "IE",
    "id": 2963398,
    "coord": {
      "lat": 52.654171,
      "lon": -7.25222
    },
    "name": "Kilkenny"
  },
  {
    "country": "IE",
    "id": 7838918,
    "coord": {
      "lat": 52.258202,
      "lon": -7.13154
    },
    "name": "Hillview"
  },
  {
    "country": "IE",
    "id": 7778677,
    "coord": {
      "lat": 53.355122,
      "lon": -6.24922
    },
    "name": "Dublin City"
  },
  {
    "country": "IE",
    "id": 2964574,
    "coord": {
      "lat": 53.34399,
      "lon": -6.26719
    },
    "name": "Dublin"
  },
  {
    "country": "IE",
    "id": 7869980,
    "coord": {
      "lat": 51.903271,
      "lon": -8.48857
    },
    "name": "Gurranebraher"
  },
  {
    "country": "IE",
    "id": 2964752,
    "coord": {
      "lat": 54.650002,
      "lon": -8.11667
    },
    "name": "Donegal"
  },
  {
    "country": "IE",
    "id": 2966566,
    "coord": {
      "lat": 53.76667,
      "lon": -8.76667
    },
    "name": "Ballyhaunis"
  },
  {
    "country": "IE",
    "id": 2960992,
    "coord": {
      "lat": 52.258331,
      "lon": -7.11194
    },
    "name": "Waterford"
  },
  {
    "country": "IE",
    "id": 2961297,
    "coord": {
      "lat": 53.459721,
      "lon": -6.21806
    },
    "name": "Swords"
  },
  {
    "country": "IE",
    "id": 2962793,
    "coord": {
      "lat": 53.833328,
      "lon": -6.5
    },
    "name": "Lú"
  },
  {
    "country": "IE",
    "id": 2962794,
    "coord": {
      "lat": 53.948608,
      "lon": -6.54139
    },
    "name": "Louth"
  },
  {
    "country": "IE",
    "id": 2964180,
    "coord": {
      "lat": 53.271938,
      "lon": -9.04889
    },
    "name": "Gaillimh"
  },
  {
    "country": "IE",
    "id": 2962941,
    "coord": {
      "lat": 52.5,
      "lon": -8.75
    },
    "name": "County Limerick"
  },
  {
    "country": "IE",
    "id": 2962943,
    "coord": {
      "lat": 52.664719,
      "lon": -8.62306
    },
    "name": "Luimneach"
  },
  {
    "country": "IE",
    "id": 2963311,
    "coord": {
      "lat": 52.099998,
      "lon": -9.78333
    },
    "name": "Killorglin"
  },
  {
    "country": "IE",
    "id": 2966837,
    "coord": {
      "lat": 52.99139,
      "lon": -6.98028
    },
    "name": "Athy"
  },
  {
    "country": "IE",
    "id": 2962839,
    "coord": {
      "lat": 53.666672,
      "lon": -7.75
    },
    "name": "An Longfort"
  },
  {
    "country": "IE",
    "id": 2962840,
    "coord": {
      "lat": 53.73333,
      "lon": -7.8
    },
    "name": "Longford"
  },
  {
    "country": "IE",
    "id": 3313472,
    "coord": {
      "lat": 53.422779,
      "lon": -7.93722
    },
    "name": "Athlone"
  },
  {
    "country": "IE",
    "id": 2961422,
    "coord": {
      "lat": 54.25,
      "lon": -8.66667
    },
    "name": "Sligo"
  },
  {
    "country": "IE",
    "id": 3311197,
    "coord": {
      "lat": 54.26889,
      "lon": -8.49444
    },
    "name": "Magheraboy"
  },
  {
    "country": "IE",
    "id": 2965381,
    "coord": {
      "lat": 53.32444,
      "lon": -6.39722
    },
    "name": "Clondalkin"
  },
  {
    "country": "IE",
    "id": 2963528,
    "coord": {
      "lat": 53.726391,
      "lon": -6.87917
    },
    "name": "Kells"
  },
  {
    "country": "IE",
    "id": 2962334,
    "coord": {
      "lat": 53.215832,
      "lon": -6.66694
    },
    "name": "Naas"
  },
  {
    "country": "IE",
    "id": 2962187,
    "coord": {
      "lat": 53.25,
      "lon": -7.5
    },
    "name": "Uíbh Fhailí"
  },
  {
    "country": "IE",
    "id": 2961086,
    "coord": {
      "lat": 53.273891,
      "lon": -7.48889
    },
    "name": "Tullamore"
  },
  {
    "country": "IE",
    "id": 3315287,
    "coord": {
      "lat": 53.314571,
      "lon": -6.275
    },
    "name": "Rathgar"
  },
  {
    "country": "IE",
    "id": 2961896,
    "coord": {
      "lat": 53.320278,
      "lon": -6.26333
    },
    "name": "Rathmines"
  },
  {
    "country": "IE",
    "id": 7838913,
    "coord": {
      "lat": 53.289742,
      "lon": -6.13604
    },
    "name": "Dun Laoghire"
  },
  {
    "country": "IE",
    "id": 2965535,
    "coord": {
      "lat": 53.990829,
      "lon": -7.36056
    },
    "name": "Cavan"
  },
  {
    "country": "IE",
    "id": 2962308,
    "coord": {
      "lat": 53.652779,
      "lon": -6.68139
    },
    "name": "Navan"
  },
  {
    "country": "IE",
    "id": 2961731,
    "coord": {
      "lat": 53.75,
      "lon": -8.25
    },
    "name": "Roscommon"
  },
  {
    "country": "IE",
    "id": 2961732,
    "coord": {
      "lat": 53.633331,
      "lon": -8.18333
    },
    "name": "Roscommon"
  },
  {
    "country": "IE",
    "id": 2963848,
    "coord": {
      "lat": 53.140831,
      "lon": -6.06306
    },
    "name": "Greystones"
  },
  {
    "country": "IE",
    "id": 2964661,
    "coord": {
      "lat": 53.718891,
      "lon": -6.34778
    },
    "name": "Drogheda"
  },
  {
    "country": "IE",
    "id": 2965654,
    "coord": {
      "lat": 53.849998,
      "lon": -9.3
    },
    "name": "Castlebar"
  },
  {
    "country": "IE",
    "id": 7288565,
    "coord": {
      "lat": 53.28595,
      "lon": -6.37739
    },
    "name": "South Dublin"
  },
  {
    "country": "IE",
    "id": 3315270,
    "coord": {
      "lat": 53.31361,
      "lon": -6.36389
    },
    "name": "Ballymount"
  },
  {
    "country": "IE",
    "id": 2964540,
    "coord": {
      "lat": 54,
      "lon": -6.41667
    },
    "name": "Dundalk"
  },
  {
    "country": "IE",
    "id": 2961284,
    "coord": {
      "lat": 53.2859,
      "lon": -6.37344
    },
    "name": "Tallaght"
  },
  {
    "country": "IE",
    "id": 6697759,
    "coord": {
      "lat": 53.29026,
      "lon": -6.34151
    },
    "name": "South Dublin"
  },
  {
    "country": "IE",
    "id": 3315304,
    "coord": {
      "lat": 53.387119,
      "lon": -6.2138
    },
    "name": "Artane"
  },
  {
    "country": "IE",
    "id": 6691030,
    "coord": {
      "lat": 53.388699,
      "lon": -6.19998
    },
    "name": "Coolock"
  },
  {
    "country": "IE",
    "id": 2961099,
    "coord": {
      "lat": 53.51667,
      "lon": -8.85
    },
    "name": "Tuam"
  },
  {
    "country": "IE",
    "id": 2965260,
    "coord": {
      "lat": 51.85722,
      "lon": -8.29917
    },
    "name": "Cobh"
  },
  {
    "country": "IE",
    "id": 2965230,
    "coord": {
      "lat": 52.829441,
      "lon": -9.19306
    },
    "name": "Connolly"
  },
  {
    "country": "IE",
    "id": 2965573,
    "coord": {
      "lat": 53.666672,
      "lon": -7.3
    },
    "name": "Castlepollard"
  },
  {
    "country": "IE",
    "id": 2962567,
    "coord": {
      "lat": 54.25,
      "lon": -7
    },
    "name": "County Monaghan"
  },
  {
    "country": "IE",
    "id": 2962568,
    "coord": {
      "lat": 54.25,
      "lon": -6.96667
    },
    "name": "Monaghan"
  },
  {
    "country": "IE",
    "id": 2964405,
    "coord": {
      "lat": 52.843609,
      "lon": -8.98639
    },
    "name": "Ennis"
  },
  {
    "country": "IE",
    "id": 2963986,
    "coord": {
      "lat": 52.50333,
      "lon": -6.90417
    },
    "name": "Glynn"
  },
  {
    "country": "IE",
    "id": 2961589,
    "coord": {
      "lat": 53.334999,
      "lon": -6.21139
    },
    "name": "Sandymount"
  },
  {
    "country": "IE",
    "id": 2961816,
    "coord": {
      "lat": 53.341942,
      "lon": -6.22639
    },
    "name": "Ringsend"
  },
  {
    "country": "IE",
    "id": 2966360,
    "coord": {
      "lat": 52.448059,
      "lon": -8.0625
    },
    "name": "Bansha"
  },
  {
    "country": "IE",
    "id": 2961388,
    "coord": {
      "lat": 53.24667,
      "lon": -9.30278
    },
    "name": "Spiddal"
  },
  {
    "country": "IE",
    "id": 2962465,
    "coord": {
      "lat": 52.99889,
      "lon": -7.47278
    },
    "name": "Mountrath"
  },
  {
    "country": "IE",
    "id": 2967092,
    "coord": {
      "lat": 52.89917,
      "lon": -7.3575
    },
    "name": "Abbeyleix"
  },
  {
    "country": "IE",
    "id": 2966131,
    "coord": {
      "lat": 53.301498,
      "lon": -6.1778
    },
    "name": "Blackrock"
  },
  {
    "country": "IE",
    "id": 6691046,
    "coord": {
      "lat": 53.303799,
      "lon": -6.18642
    },
    "name": "Sion Hill"
  },
  {
    "country": "IE",
    "id": 2964403,
    "coord": {
      "lat": 52.500832,
      "lon": -6.55778
    },
    "name": "Enniscorthy"
  },
  {
    "country": "IE",
    "id": 3315319,
    "coord": {
      "lat": 53.36694,
      "lon": -6.29444
    },
    "name": "Cabra"
  },
  {
    "country": "IE",
    "id": 3315278,
    "coord": {
      "lat": 53.2747,
      "lon": -6.2253
    },
    "name": "Sandyford"
  },
  {
    "country": "IE",
    "id": 2962961,
    "coord": {
      "lat": 54.950001,
      "lon": -7.73333
    },
    "name": "Letterkenny"
  },
  {
    "country": "IE",
    "id": 2962290,
    "coord": {
      "lat": 53.181938,
      "lon": -6.79667
    },
    "name": "Droichead Nua"
  },
  {
    "country": "IE",
    "id": 2966356,
    "coord": {
      "lat": 51.683331,
      "lon": -9.45
    },
    "name": "Bantry"
  },
  {
    "country": "IE",
    "id": 2965664,
    "coord": {
      "lat": 52.515831,
      "lon": -7.88556
    },
    "name": "Cashel"
  },
  {
    "country": "IE",
    "id": 2964528,
    "coord": {
      "lat": 52.088058,
      "lon": -7.62528
    },
    "name": "Dungarvan"
  },
  {
    "country": "IE",
    "id": 2966154,
    "coord": {
      "lat": 53.091389,
      "lon": -7.91333
    },
    "name": "Birr"
  },
  {
    "country": "IE",
    "id": 2966110,
    "coord": {
      "lat": 53.388062,
      "lon": -6.37556
    },
    "name": "Blanchardstown"
  },
  {
    "country": "IE",
    "id": 3315268,
    "coord": {
      "lat": 53.303059,
      "lon": -6.39667
    },
    "name": "Belgard"
  },
  {
    "country": "IE",
    "id": 2965353,
    "coord": {
      "lat": 52.355,
      "lon": -7.70389
    },
    "name": "Cluain Meala"
  },
  {
    "country": "IE",
    "id": 2966925,
    "coord": {
      "lat": 53.859718,
      "lon": -6.54056
    },
    "name": "Ardee"
  },
  {
    "country": "IE",
    "id": 3311206,
    "coord": {
      "lat": 54.29417,
      "lon": -8.44083
    },
    "name": "Willsborough"
  },
  {
    "country": "IE",
    "id": 3316393,
    "coord": {
      "lat": 53.685001,
      "lon": -6.29972
    },
    "name": "Smithstown"
  },
  {
    "country": "IE",
    "id": 2962974,
    "coord": {
      "lat": 53.365829,
      "lon": -6.49556
    },
    "name": "Leixlip"
  },
  {
    "country": "IE",
    "id": 2963370,
    "coord": {
      "lat": 52.049999,
      "lon": -9.51667
    },
    "name": "Cill Airne"
  },
  {
    "country": "IE",
    "id": 3315315,
    "coord": {
      "lat": 53.398071,
      "lon": -6.26693
    },
    "name": "Ballymun"
  },
  {
    "country": "IE",
    "id": 3310979,
    "coord": {
      "lat": 54.022781,
      "lon": -8.90806
    },
    "name": "Claddagh"
  },
  {
    "country": "IE",
    "id": 2964547,
    "coord": {
      "lat": 53.400002,
      "lon": -6.46667
    },
    "name": "Dunboyne"
  },
  {
    "country": "IE",
    "id": 2965913,
    "coord": {
      "lat": 52.696671,
      "lon": -8.81556
    },
    "name": "Bunratty"
  },
  {
    "country": "IE",
    "id": 3314339,
    "coord": {
      "lat": 53.047218,
      "lon": -7.24556
    },
    "name": "Ballydavis"
  },
  {
    "country": "IE",
    "id": 6691007,
    "coord": {
      "lat": 53.29221,
      "lon": -6.23019
    },
    "name": "Goatstown"
  },
  {
    "country": "IE",
    "id": 2962668,
    "coord": {
      "lat": 53.384998,
      "lon": -6.59361
    },
    "name": "Maynooth"
  },
  {
    "country": "IE",
    "id": 2961872,
    "coord": {
      "lat": 53.50806,
      "lon": -6.4625
    },
    "name": "Ratoath"
  },
  {
    "country": "IE",
    "id": 2964892,
    "coord": {
      "lat": 53.278332,
      "lon": -6.10028
    },
    "name": "Dalkey"
  },
  {
    "country": "IE",
    "id": 2964724,
    "coord": {
      "lat": 53.022499,
      "lon": -9.39333
    },
    "name": "Doolin"
  },
  {
    "country": "IE",
    "id": 2961312,
    "coord": {
      "lat": 53.47694,
      "lon": -6.73639
    },
    "name": "Summerhill"
  },
  {
    "country": "IE",
    "id": 2966044,
    "coord": {
      "lat": 53.966671,
      "lon": -8.3
    },
    "name": "Boyle"
  },
  {
    "country": "IE",
    "id": 2961327,
    "coord": {
      "lat": 53.783329,
      "lon": -8.1
    },
    "name": "Strokestown"
  },
  {
    "country": "IE",
    "id": 3312466,
    "coord": {
      "lat": 53.375832,
      "lon": -9.065
    },
    "name": "Woodpark"
  },
  {
    "country": "IE",
    "id": 2962084,
    "coord": {
      "lat": 53.566669,
      "lon": -7.7
    },
    "name": "Pallas"
  },
  {
    "country": "IE",
    "id": 2963722,
    "coord": {
      "lat": 53.387779,
      "lon": -6.06528
    },
    "name": "Howth"
  },
  {
    "country": "IE",
    "id": 2965536,
    "coord": {
      "lat": 52.41333,
      "lon": -9.73194
    },
    "name": "Causeway"
  },
  {
    "country": "IE",
    "id": 2966778,
    "coord": {
      "lat": 54.116669,
      "lon": -9.16667
    },
    "name": "Ballina"
  },
  {
    "country": "IE",
    "id": 2962725,
    "coord": {
      "lat": 53.450829,
      "lon": -6.15444
    },
    "name": "Malahide"
  },
  {
    "country": "IE",
    "id": 2964745,
    "coord": {
      "lat": 53.313751,
      "lon": -6.22274
    },
    "name": "Donnybrook"
  },
  {
    "country": "IE",
    "id": 3315432,
    "coord": {
      "lat": 53.323608,
      "lon": -6.35583
    },
    "name": "Fox and Geese"
  },
  {
    "country": "IE",
    "id": 2961107,
    "coord": {
      "lat": 53.555,
      "lon": -6.79167
    },
    "name": "Trim"
  },
  {
    "country": "IE",
    "id": 2960926,
    "coord": {
      "lat": 53.29361,
      "lon": -6.31194
    },
    "name": "Willbrook"
  },
  {
    "country": "IE",
    "id": 3315404,
    "coord": {
      "lat": 53.29528,
      "lon": -6.30889
    },
    "name": "Templeogue"
  },
  {
    "country": "IE",
    "id": 2963169,
    "coord": {
      "lat": 53.908058,
      "lon": -6.80556
    },
    "name": "Kingscourt"
  },
  {
    "country": "IE",
    "id": 2964102,
    "coord": {
      "lat": 53.38028,
      "lon": -6.26417
    },
    "name": "Glasnevin"
  },
  {
    "country": "IE",
    "id": 3290679,
    "coord": {
      "lat": 52.054722,
      "lon": -9.24417
    },
    "name": "Raheen"
  },
  {
    "country": "IE",
    "id": 2963522,
    "coord": {
      "lat": 51.883331,
      "lon": -9.58333
    },
    "name": "Kenmare"
  },
  {
    "country": "IE",
    "id": 2964303,
    "coord": {
      "lat": 53.389172,
      "lon": -6.29694
    },
    "name": "Finglas"
  },
  {
    "country": "IE",
    "id": 3315279,
    "coord": {
      "lat": 53.26833,
      "lon": -6.19972
    },
    "name": "Leopardstown"
  },
  {
    "country": "IE",
    "id": 2962217,
    "coord": {
      "lat": 53.822781,
      "lon": -6.75056
    },
    "name": "Nobber"
  },
  {
    "country": "IE",
    "id": 3315295,
    "coord": {
      "lat": 53.32526,
      "lon": -6.25504
    },
    "name": "Ranelagh"
  },
  {
    "country": "IE",
    "id": 2964436,
    "coord": {
      "lat": 53.34528,
      "lon": -7.04972
    },
    "name": "Edenderry"
  },
  {
    "country": "IE",
    "id": 2964963,
    "coord": {
      "lat": 53.324169,
      "lon": -6.32861
    },
    "name": "Crumlin"
  },
  {
    "country": "IE",
    "id": 3313053,
    "coord": {
      "lat": 53.14806,
      "lon": -8.335
    },
    "name": "Feebrack"
  },
  {
    "country": "IE",
    "id": 2966870,
    "coord": {
      "lat": 53.51083,
      "lon": -6.42722
    },
    "name": "Ashbourne"
  },
  {
    "country": "IE",
    "id": 2965372,
    "coord": {
      "lat": 53.411671,
      "lon": -6.44417
    },
    "name": "Clonee"
  },
  {
    "country": "IE",
    "id": 2962785,
    "coord": {
      "lat": 53.359169,
      "lon": -6.43889
    },
    "name": "Lucan"
  },
  {
    "country": "IE",
    "id": 2962997,
    "coord": {
      "lat": 51.592499,
      "lon": -9.13
    },
    "name": "Leap"
  },
  {
    "country": "IE",
    "id": 2965408,
    "coord": {
      "lat": 53.433891,
      "lon": -6.22639
    },
    "name": "Cloghran"
  },
  {
    "country": "IE",
    "id": 2966753,
    "coord": {
      "lat": 53.327499,
      "lon": -8.21944
    },
    "name": "Ballinasloe"
  },
  {
    "country": "IE",
    "id": 2963218,
    "coord": {
      "lat": 52.639721,
      "lon": -9.48333
    },
    "name": "Kilrush"
  },
  {
    "country": "IE",
    "id": 2961911,
    "coord": {
      "lat": 53.30056,
      "lon": -6.28278
    },
    "name": "Rathfarnham"
  },
  {
    "country": "IE",
    "id": 2961730,
    "coord": {
      "lat": 52.951111,
      "lon": -7.80167
    },
    "name": "Roscrea"
  },
  {
    "country": "IE",
    "id": 2965529,
    "coord": {
      "lat": 53.338612,
      "lon": -6.54361
    },
    "name": "Celbridge"
  },
  {
    "country": "IE",
    "id": 2962262,
    "coord": {
      "lat": 52.759998,
      "lon": -8.89556
    },
    "name": "Newmarket on Fergus"
  },
  {
    "country": "IE",
    "id": 3315282,
    "coord": {
      "lat": 53.279171,
      "lon": -6.14058
    },
    "name": "Sallynoggin"
  },
  {
    "country": "IE",
    "id": 2966848,
    "coord": {
      "lat": 53.61861,
      "lon": -6.92056
    },
    "name": "Athboy"
  },
  {
    "country": "IE",
    "id": 2961929,
    "coord": {
      "lat": 53.28278,
      "lon": -6.47278
    },
    "name": "Rathcoole"
  },
  {
    "country": "IE",
    "id": 2961214,
    "coord": {
      "lat": 52.681938,
      "lon": -7.80222
    },
    "name": "Thurles"
  },
  {
    "country": "IE",
    "id": 2965504,
    "coord": {
      "lat": 52.066669,
      "lon": -9.68333
    },
    "name": "Churchtown"
  },
  {
    "country": "IE",
    "id": 2961651,
    "coord": {
      "lat": 53.522301,
      "lon": -6.09308
    },
    "name": "An Ros"
  },
  {
    "country": "IE",
    "id": 2963155,
    "coord": {
      "lat": 51.7075,
      "lon": -8.53056
    },
    "name": "Kinsale"
  },
  {
    "country": "IE",
    "id": 3301879,
    "coord": {
      "lat": 52.284168,
      "lon": -6.76444
    },
    "name": "Rochestown"
  },
  {
    "country": "IE",
    "id": 2963341,
    "coord": {
      "lat": 53.213329,
      "lon": -7.44944
    },
    "name": "Killeigh"
  },
  {
    "country": "IE",
    "id": 2654332,
    "coord": {
      "lat": 55.133331,
      "lon": -7.45
    },
    "name": "Buncrana"
  },
  {
    "country": "IE",
    "id": 2961362,
    "coord": {
      "lat": 53.290489,
      "lon": -6.19487
    },
    "name": "Stillorgan"
  },
  {
    "country": "IE",
    "id": 6691008,
    "coord": {
      "lat": 53.287029,
      "lon": -6.21539
    },
    "name": "Kilmacud"
  },
  {
    "country": "IE",
    "id": 2964782,
    "coord": {
      "lat": 52.140831,
      "lon": -10.26889
    },
    "name": "Dingle"
  },
  {
    "country": "IE",
    "id": 2962580,
    "coord": {
      "lat": 53.549999,
      "lon": -7.71667
    },
    "name": "Moate"
  },
  {
    "country": "IE",
    "id": 3311141,
    "coord": {
      "lat": 54.08778,
      "lon": -8.32583
    },
    "name": "Derry"
  },
  {
    "country": "IE",
    "id": 3312394,
    "coord": {
      "lat": 53.28611,
      "lon": -9.0075
    },
    "name": "Ballybaan"
  },
  {
    "country": "IE",
    "id": 2966370,
    "coord": {
      "lat": 51.746941,
      "lon": -8.7425
    },
    "name": "Bandon"
  },
  {
    "country": "IE",
    "id": 2962476,
    "coord": {
      "lat": 53.113609,
      "lon": -7.32
    },
    "name": "Mountmellick"
  },
  {
    "country": "IE",
    "id": 3315335,
    "coord": {
      "lat": 53.374439,
      "lon": -6.40556
    },
    "name": "Annfield"
  },
  {
    "country": "IE",
    "id": 2961299,
    "coord": {
      "lat": 53.950001,
      "lon": -8.95
    },
    "name": "Swinford"
  },
  {
    "country": "IE",
    "id": 2964817,
    "coord": {
      "lat": 55.083328,
      "lon": -8.28944
    },
    "name": "Derrybeg"
  },
  {
    "country": "IE",
    "id": 2962800,
    "coord": {
      "lat": 53.196941,
      "lon": -8.56694
    },
    "name": "Loughrea"
  },
  {
    "country": "IE",
    "id": 2962304,
    "coord": {
      "lat": 52.861938,
      "lon": -8.19667
    },
    "name": "Nenagh"
  },
  {
    "country": "IE",
    "id": 2965350,
    "coord": {
      "lat": 52.824718,
      "lon": -6.56889
    },
    "name": "Clonmore"
  },
  {
    "country": "IE",
    "id": 2966843,
    "coord": {
      "lat": 53.296391,
      "lon": -8.74306
    },
    "name": "Athenry"
  },
  {
    "country": "IE",
    "id": 2964558,
    "coord": {
      "lat": 53.65667,
      "lon": -6.41917
    },
    "name": "Duleek"
  },
  {
    "country": "IE",
    "id": 2964764,
    "coord": {
      "lat": 53.713329,
      "lon": -6.27917
    },
    "name": "Donacarney"
  },
  {
    "country": "IE",
    "id": 2966940,
    "coord": {
      "lat": 53.897781,
      "lon": -6.74306
    },
    "name": "Ardagh"
  },
  {
    "country": "IE",
    "id": 2965604,
    "coord": {
      "lat": 52.23333,
      "lon": -9.46667
    },
    "name": "Castleisland"
  },
  {
    "country": "IE",
    "id": 2963454,
    "coord": {
      "lat": 52.049999,
      "lon": -8.95
    },
    "name": "Kilcorney"
  },
  {
    "country": "IE",
    "id": 2966715,
    "coord": {
      "lat": 53.633331,
      "lon": -9.23333
    },
    "name": "Ballinrobe"
  },
  {
    "country": "IE",
    "id": 3312222,
    "coord": {
      "lat": 53.249401,
      "lon": -9.21495
    },
    "name": "Furbogh"
  },
  {
    "country": "IE",
    "id": 3315311,
    "coord": {
      "lat": 53.391392,
      "lon": -6.24056
    },
    "name": "Beaumont"
  },
  {
    "country": "IE",
    "id": 2961980,
    "coord": {
      "lat": 52.818611,
      "lon": -8.86694
    },
    "name": "Quin"
  },
  {
    "country": "IE",
    "id": 2964504,
    "coord": {
      "lat": 53.834999,
      "lon": -6.39611
    },
    "name": "Dunleer"
  },
  {
    "country": "IE",
    "id": 2962605,
    "coord": {
      "lat": 53.981941,
      "lon": -6.91306
    },
    "name": "Milltown"
  },
  {
    "country": "IE",
    "id": 2965852,
    "coord": {
      "lat": 51.948608,
      "lon": -10.22222
    },
    "name": "Cahersiveen"
  },
  {
    "country": "IE",
    "id": 2961497,
    "coord": {
      "lat": 54,
      "lon": -6.9
    },
    "name": "Shercock"
  },
  {
    "country": "IE",
    "id": 2962026,
    "coord": {
      "lat": 53.034409,
      "lon": -7.29979
    },
    "name": "Portlaoise"
  },
  {
    "country": "IE",
    "id": 2962945,
    "coord": {
      "lat": 54.83194,
      "lon": -7.48361
    },
    "name": "Leifear"
  },
  {
    "country": "IE",
    "id": 2962144,
    "coord": {
      "lat": 53.416672,
      "lon": -9.33333
    },
    "name": "Oughterard"
  },
  {
    "country": "IE",
    "id": 2961046,
    "coord": {
      "lat": 53.149441,
      "lon": -8.3725
    },
    "name": "Tynagh"
  },
  {
    "country": "IE",
    "id": 2965944,
    "coord": {
      "lat": 52.42194,
      "lon": -8.66417
    },
    "name": "Bruree"
  },
  {
    "country": "IE",
    "id": 2961208,
    "coord": {
      "lat": 53.334999,
      "lon": -6.83861
    },
    "name": "Timahoe"
  },
  {
    "country": "IE",
    "id": 2966911,
    "coord": {
      "lat": 51.949169,
      "lon": -7.72528
    },
    "name": "Ardmore"
  },
  {
    "country": "IE",
    "id": 2965340,
    "coord": {
      "lat": 53.383331,
      "lon": -6.41667
    },
    "name": "Clonsilla"
  },
  {
    "country": "IE",
    "id": 3301942,
    "coord": {
      "lat": 52.352219,
      "lon": -6.64028
    },
    "name": "Harristown"
  },
  {
    "country": "IE",
    "id": 2963217,
    "coord": {
      "lat": 53.89056,
      "lon": -6.38889
    },
    "name": "Kilsaran"
  },
  {
    "country": "IE",
    "id": 2961787,
    "coord": {
      "lat": 54.131672,
      "lon": -8.39444
    },
    "name": "Riverstown"
  },
  {
    "country": "IE",
    "id": 2962179,
    "coord": {
      "lat": 53.76833,
      "lon": -7.15861
    },
    "name": "Oldcastle"
  },
  {
    "country": "IE",
    "id": 7838920,
    "coord": {
      "lat": 53.230438,
      "lon": -6.19509
    },
    "name": "Kilternan"
  },
  {
    "country": "IE",
    "id": 3230593,
    "coord": {
      "lat": 53.165001,
      "lon": -9.07944
    },
    "name": "Aughinish"
  },
  {
    "country": "IE",
    "id": 2962153,
    "coord": {
      "lat": 53.26833,
      "lon": -8.92
    },
    "name": "Oranmore"
  },
  {
    "country": "IE",
    "id": 2965474,
    "coord": {
      "lat": 53.338612,
      "lon": -8.945
    },
    "name": "Claregalway"
  },
  {
    "country": "IE",
    "id": 2962353,
    "coord": {
      "lat": 52.63583,
      "lon": -8.69667
    },
    "name": "Mungret"
  },
  {
    "country": "IE",
    "id": 2961470,
    "coord": {
      "lat": 52.74139,
      "lon": -8.77417
    },
    "name": "Sixmilebridge"
  },
  {
    "country": "IE",
    "id": 3301124,
    "coord": {
      "lat": 52.068329,
      "lon": -7.64333
    },
    "name": "Newtown"
  },
  {
    "country": "IE",
    "id": 3315303,
    "coord": {
      "lat": 53.391392,
      "lon": -6.14583
    },
    "name": "Kilbarrack"
  },
  {
    "country": "IE",
    "id": 3312393,
    "coord": {
      "lat": 53.29694,
      "lon": -8.99361
    },
    "name": "Ballybrit"
  },
  {
    "country": "IE",
    "id": 3316260,
    "coord": {
      "lat": 54.198059,
      "lon": -9.20528
    },
    "name": "Meelick"
  },
  {
    "country": "IE",
    "id": 2962345,
    "coord": {
      "lat": 53.783329,
      "lon": -9.65
    },
    "name": "Murrisk"
  },
  {
    "country": "IE",
    "id": 2966396,
    "coord": {
      "lat": 53.118061,
      "lon": -9.15028
    },
    "name": "Ballyvaghan"
  },
  {
    "country": "IE",
    "id": 2965367,
    "coord": {
      "lat": 54.183331,
      "lon": -7.23333
    },
    "name": "Clones"
  },
  {
    "country": "IE",
    "id": 2965402,
    "coord": {
      "lat": 51.623058,
      "lon": -8.87056
    },
    "name": "Clonakilty"
  },
  {
    "country": "IE",
    "id": 2961459,
    "coord": {
      "lat": 51.549999,
      "lon": -9.26667
    },
    "name": "Skibbereen"
  },
  {
    "country": "IE",
    "id": 2963962,
    "coord": {
      "lat": 52.674721,
      "lon": -6.2925
    },
    "name": "Gorey"
  },
  {
    "country": "IE",
    "id": 2960951,
    "coord": {
      "lat": 52.949169,
      "lon": -8.37139
    },
    "name": "Whitegate"
  },
  {
    "country": "IE",
    "id": 2962975,
    "coord": {
      "lat": 54.116669,
      "lon": -8
    },
    "name": "County Leitrim"
  },
  {
    "country": "IE",
    "id": 3311596,
    "coord": {
      "lat": 54.459438,
      "lon": -8.28222
    },
    "name": "Gubacreeny"
  },
  {
    "country": "IE",
    "id": 2964846,
    "coord": {
      "lat": 53.610561,
      "lon": -7.0925
    },
    "name": "Delvin"
  },
  {
    "country": "IE",
    "id": 7838916,
    "coord": {
      "lat": 53.365971,
      "lon": -6.23985
    },
    "name": "Fairview"
  },
  {
    "country": "IE",
    "id": 2965715,
    "coord": {
      "lat": 51.811668,
      "lon": -8.39861
    },
    "name": "Carrigaline"
  },
  {
    "country": "IE",
    "id": 2963888,
    "coord": {
      "lat": 53.82056,
      "lon": -6.33472
    },
    "name": "Grangebellew"
  },
  {
    "country": "IE",
    "id": 2962310,
    "coord": {
      "lat": 53.58667,
      "lon": -6.28972
    },
    "name": "Naul"
  },
  {
    "country": "IE",
    "id": 2965733,
    "coord": {
      "lat": 53.972778,
      "lon": -6.71889
    },
    "name": "Carrickmacross"
  },
  {
    "country": "IE",
    "id": 2964743,
    "coord": {
      "lat": 53.693062,
      "lon": -6.41972
    },
    "name": "Donore"
  },
  {
    "country": "IE",
    "id": 2964326,
    "coord": {
      "lat": 52.157501,
      "lon": -7.22639
    },
    "name": "Fennor"
  },
  {
    "country": "IE",
    "id": 3310833,
    "coord": {
      "lat": 54.089439,
      "lon": -8.09444
    },
    "name": "Greagh"
  },
  {
    "country": "IE",
    "id": 2964408,
    "coord": {
      "lat": 54.340561,
      "lon": -6.95917
    },
    "name": "Emyvale"
  },
  {
    "country": "IE",
    "id": 3310670,
    "coord": {
      "lat": 54.356941,
      "lon": -7.02778
    },
    "name": "Carrickroe"
  },
  {
    "country": "IE",
    "id": 2963970,
    "coord": {
      "lat": 54.333328,
      "lon": -7.05
    },
    "name": "Golan"
  },
  {
    "country": "IE",
    "id": 2964103,
    "coord": {
      "lat": 54.318611,
      "lon": -6.895
    },
    "name": "Glaslough"
  },
  {
    "country": "IE",
    "id": 2961303,
    "coord": {
      "lat": 54.194721,
      "lon": -7.70444
    },
    "name": "Swanlinbar"
  },
  {
    "country": "IE",
    "id": 2965773,
    "coord": {
      "lat": 53.757778,
      "lon": -6.83944
    },
    "name": "Carlanstown"
  },
  {
    "country": "IE",
    "id": 2963235,
    "coord": {
      "lat": 53.866669,
      "lon": -7.31667
    },
    "name": "Kilnaleck"
  },
  {
    "country": "IE",
    "id": 2966550,
    "coord": {
      "lat": 53.86528,
      "lon": -7.20278
    },
    "name": "Ballyjamesduff"
  },
  {
    "country": "IE",
    "id": 2965352,
    "coord": {
      "lat": 53.662498,
      "lon": -7.01056
    },
    "name": "Clonmellon"
  },
  {
    "country": "IE",
    "id": 2960874,
    "coord": {
      "lat": 53.673328,
      "lon": -6.57167
    },
    "name": "Yellow Furze"
  },
  {
    "country": "IE",
    "id": 2963885,
    "coord": {
      "lat": 53.762779,
      "lon": -6.54667
    },
    "name": "Grangegeeth"
  },
  {
    "country": "IE",
    "id": 2965420,
    "coord": {
      "lat": 53.79361,
      "lon": -6.2375
    },
    "name": "Clogherhead"
  },
  {
    "country": "IE",
    "id": 2962378,
    "coord": {
      "lat": 53.456669,
      "lon": -6.63167
    },
    "name": "Mullagh"
  },
  {
    "country": "IE",
    "id": 2963557,
    "coord": {
      "lat": 53.677219,
      "lon": -6.31917
    },
    "name": "Julianstown"
  },
  {
    "country": "IE",
    "id": 3316390,
    "coord": {
      "lat": 53.666389,
      "lon": -6.24083
    },
    "name": "Mosney"
  },
  {
    "country": "IE",
    "id": 2961207,
    "coord": {
      "lat": 51.64222,
      "lon": -8.77306
    },
    "name": "Timoleague"
  },
  {
    "country": "IE",
    "id": 2965887,
    "coord": {
      "lat": 51.597221,
      "lon": -8.72694
    },
    "name": "Butlerstown"
  },
  {
    "country": "IE",
    "id": 3316294,
    "coord": {
      "lat": 53.477501,
      "lon": -6.14306
    },
    "name": "Corballis"
  },
  {
    "country": "IE",
    "id": 2963958,
    "coord": {
      "lat": 53.066391,
      "lon": -8.81667
    },
    "name": "Gort"
  },
  {
    "country": "IE",
    "id": 2963151,
    "coord": {
      "lat": 53.139439,
      "lon": -8.93361
    },
    "name": "Kinvarra"
  },
  {
    "country": "IE",
    "id": 2963792,
    "coord": {
      "lat": 53.466671,
      "lon": -9.1
    },
    "name": "Headford"
  },
  {
    "country": "IE",
    "id": 2961994,
    "coord": {
      "lat": 53.290279,
      "lon": -6.75389
    },
    "name": "Prosperous"
  },
  {
    "country": "IE",
    "id": 2963275,
    "coord": {
      "lat": 52.400002,
      "lon": -8.57722
    },
    "name": "Kilmallock"
  },
  {
    "country": "IE",
    "id": 2962587,
    "coord": {
      "lat": 52.265831,
      "lon": -8.26806
    },
    "name": "Mitchelstown"
  },
  {
    "country": "IE",
    "id": 2964320,
    "coord": {
      "lat": 52.13583,
      "lon": -8.27583
    },
    "name": "Fermoy"
  },
  {
    "country": "IE",
    "id": 2962714,
    "coord": {
      "lat": 52.133331,
      "lon": -8.63333
    },
    "name": "Mallow"
  },
  {
    "country": "IE",
    "id": 2966101,
    "coord": {
      "lat": 53.169998,
      "lon": -6.5325
    },
    "name": "Blessington"
  },
  {
    "country": "IE",
    "id": 2965649,
    "coord": {
      "lat": 54.116669,
      "lon": -6.73333
    },
    "name": "Castleblayney"
  },
  {
    "country": "IE",
    "id": 2962630,
    "coord": {
      "lat": 51.91526,
      "lon": -8.18052
    },
    "name": "Midleton"
  },
  {
    "country": "IE",
    "id": 2964114,
    "coord": {
      "lat": 51.915829,
      "lon": -8.39972
    },
    "name": "Glanmire"
  },
  {
    "country": "IE",
    "id": 2961224,
    "coord": {
      "lat": 52.526669,
      "lon": -7.13722
    },
    "name": "Thomastown"
  },
  {
    "country": "IE",
    "id": 2963460,
    "coord": {
      "lat": 53.102779,
      "lon": -6.065
    },
    "name": "Kilcoole"
  },
  {
    "country": "IE",
    "id": 2961938,
    "coord": {
      "lat": 53.22139,
      "lon": -6.995
    },
    "name": "Rathangan"
  },
  {
    "country": "IE",
    "id": 2965945,
    "coord": {
      "lat": 52.474171,
      "lon": -8.54583
    },
    "name": "Bruff"
  },
  {
    "country": "IE",
    "id": 2963902,
    "coord": {
      "lat": 53.76667,
      "lon": -7.5
    },
    "name": "Granard"
  },
  {
    "country": "IE",
    "id": 2961079,
    "coord": {
      "lat": 52.800282,
      "lon": -6.73694
    },
    "name": "Tullow"
  },
  {
    "country": "IE",
    "id": 2964401,
    "coord": {
      "lat": 53.192501,
      "lon": -6.16917
    },
    "name": "Enniskerry"
  },
  {
    "country": "IE",
    "id": 2963444,
    "coord": {
      "lat": 53.13028,
      "lon": -6.74444
    },
    "name": "Kilcullen"
  },
  {
    "country": "IE",
    "id": 2961655,
    "coord": {
      "lat": 52.700001,
      "lon": -6.98667
    },
    "name": "Royaloak"
  },
  {
    "country": "IE",
    "id": 2966784,
    "coord": {
      "lat": 53.900002,
      "lon": -8.58333
    },
    "name": "Ballaghaderreen"
  },
  {
    "country": "IE",
    "id": 3313832,
    "coord": {
      "lat": 53.174171,
      "lon": -7.72556
    },
    "name": "Kilcormac"
  },
  {
    "country": "IE",
    "id": 2967095,
    "coord": {
      "lat": 52.38139,
      "lon": -9.3025
    },
    "name": "Abbeyfeale"
  },
  {
    "country": "IE",
    "id": 2961918,
    "coord": {
      "lat": 52.926392,
      "lon": -6.23556
    },
    "name": "Rathdrum"
  },
  {
    "country": "IE",
    "id": 2965516,
    "coord": {
      "lat": 52.349998,
      "lon": -8.68333
    },
    "name": "Rath Luirc"
  },
  {
    "country": "IE",
    "id": 2961607,
    "coord": {
      "lat": 53.24889,
      "lon": -6.66611
    },
    "name": "Sallins"
  },
  {
    "country": "IE",
    "id": 2966668,
    "coord": {
      "lat": 54.799999,
      "lon": -7.78333
    },
    "name": "Ballybofey"
  },
  {
    "country": "IE",
    "id": 2963555,
    "coord": {
      "lat": 52.166672,
      "lon": -8.9
    },
    "name": "Kanturk"
  },
  {
    "country": "IE",
    "id": 2965726,
    "coord": {
      "lat": 52.349171,
      "lon": -7.41306
    },
    "name": "Carrick-on-Suir"
  },
  {
    "country": "IE",
    "id": 2963472,
    "coord": {
      "lat": 53.402222,
      "lon": -6.67083
    },
    "name": "Kilcock"
  },
  {
    "country": "IE",
    "id": 2966796,
    "coord": {
      "lat": 53.916672,
      "lon": -6.96667
    },
    "name": "Bailieborough"
  },
  {
    "country": "IE",
    "id": 2965484,
    "coord": {
      "lat": 53.291389,
      "lon": -6.68917
    },
    "name": "Clane"
  },
  {
    "country": "IE",
    "id": 2965653,
    "coord": {
      "lat": 53.900829,
      "lon": -6.39028
    },
    "name": "Castlebellingham"
  },
  {
    "country": "IE",
    "id": 2961077,
    "coord": {
      "lat": 53.736111,
      "lon": -6.42278
    },
    "name": "Tullyallen"
  },
  {
    "country": "IE",
    "id": 2965643,
    "coord": {
      "lat": 52.80611,
      "lon": -7.21056
    },
    "name": "Castlecomer"
  },
  {
    "country": "IE",
    "id": 2962769,
    "coord": {
      "lat": 53.527431,
      "lon": -6.16423
    },
    "name": "Lusk"
  },
  {
    "country": "IE",
    "id": 2966201,
    "coord": {
      "lat": 54.099998,
      "lon": -7.45
    },
    "name": "Belturbet"
  },
  {
    "country": "IE",
    "id": 2965158,
    "coord": {
      "lat": 54.072498,
      "lon": -7.08194
    },
    "name": "Cootehill"
  },
  {
    "country": "IE",
    "id": 2965873,
    "coord": {
      "lat": 52.376942,
      "lon": -7.92167
    },
    "name": "Cahir"
  },
  {
    "country": "IE",
    "id": 2962804,
    "coord": {
      "lat": 53.243889,
      "lon": -6.13306
    },
    "name": "Loughlinstown"
  },
  {
    "country": "IE",
    "id": 2964765,
    "coord": {
      "lat": 53.487221,
      "lon": -6.15194
    },
    "name": "Donabate"
  },
  {
    "country": "IE",
    "id": 2962706,
    "coord": {
      "lat": 54.306389,
      "lon": -8.17611
    },
    "name": "Manorhamilton"
  },
  {
    "country": "IE",
    "id": 3308992,
    "coord": {
      "lat": 54.89056,
      "lon": -8.14667
    },
    "name": "Drumnaha"
  },
  {
    "country": "IE",
    "id": 2961905,
    "coord": {
      "lat": 52.524441,
      "lon": -8.93806
    },
    "name": "Rathkeale"
  },
  {
    "country": "IE",
    "id": 2962283,
    "coord": {
      "lat": 52.449169,
      "lon": -9.06111
    },
    "name": "Newcastle West"
  },
  {
    "country": "IE",
    "id": 2965421,
    "coord": {
      "lat": 53.75,
      "lon": -9.23333
    },
    "name": "Clogher"
  },
  {
    "country": "IE",
    "id": 2961237,
    "coord": {
      "lat": 52.79472,
      "lon": -7.83389
    },
    "name": "Templemore"
  },
  {
    "country": "IE",
    "id": 2963376,
    "coord": {
      "lat": 52.806671,
      "lon": -8.44361
    },
    "name": "Killaloe"
  },
  {
    "country": "IE",
    "id": 2965267,
    "coord": {
      "lat": 51.900002,
      "lon": -8.78333
    },
    "name": "Coachford"
  },
  {
    "country": "IE",
    "id": 2963400,
    "coord": {
      "lat": 52.679169,
      "lon": -9.64417
    },
    "name": "Kilkee"
  },
  {
    "country": "IE",
    "id": 3316137,
    "coord": {
      "lat": 54.180828,
      "lon": -9.72972
    },
    "name": "Glencullin Lower"
  },
  {
    "country": "IE",
    "id": 2966107,
    "coord": {
      "lat": 51.933331,
      "lon": -8.56667
    },
    "name": "Blarney"
  },
  {
    "country": "IE",
    "id": 2963277,
    "coord": {
      "lat": 52.827782,
      "lon": -9.11806
    },
    "name": "Kilmaley"
  },
  {
    "country": "IE",
    "id": 2965570,
    "coord": {
      "lat": 53.76667,
      "lon": -8.5
    },
    "name": "Castlerea"
  },
  {
    "country": "IE",
    "id": 2962539,
    "coord": {
      "lat": 52.975559,
      "lon": -6.815
    },
    "name": "Moone"
  },
  {
    "country": "IE",
    "id": 2964995,
    "coord": {
      "lat": 52.384998,
      "lon": -6.49528
    },
    "name": "Crossabeg"
  },
  {
    "country": "IE",
    "id": 2960869,
    "coord": {
      "lat": 51.950001,
      "lon": -7.85056
    },
    "name": "Youghal"
  },
  {
    "country": "IE",
    "id": 2966406,
    "coord": {
      "lat": 54.5,
      "lon": -8.18333
    },
    "name": "Ballyshannon"
  },
  {
    "country": "IE",
    "id": 2964802,
    "coord": {
      "lat": 52.909439,
      "lon": -8.57333
    },
    "name": "Derrymore"
  },
  {
    "country": "IE",
    "id": 2962745,
    "coord": {
      "lat": 51.900002,
      "lon": -8.95
    },
    "name": "Macroom"
  },
  {
    "country": "IE",
    "id": 2966788,
    "coord": {
      "lat": 53.799999,
      "lon": -9.13333
    },
    "name": "Balla"
  },
  {
    "country": "IE",
    "id": 2965073,
    "coord": {
      "lat": 52.695,
      "lon": -8.75972
    },
    "name": "Cratloe"
  },
  {
    "country": "IE",
    "id": 2963389,
    "coord": {
      "lat": 52.806671,
      "lon": -8.74583
    },
    "name": "Kilkishen"
  },
  {
    "country": "IE",
    "id": 2961096,
    "coord": {
      "lat": 52.864719,
      "lon": -8.76056
    },
    "name": "Tulla"
  },
  {
    "country": "IE",
    "id": 6691005,
    "coord": {
      "lat": 53.31065,
      "lon": -6.22066
    },
    "name": "Belfield"
  },
  {
    "country": "IE",
    "id": 2966371,
    "coord": {
      "lat": 53.18861,
      "lon": -7.98667
    },
    "name": "Banagher"
  },
  {
    "country": "IE",
    "id": 2961920,
    "coord": {
      "lat": 52.854721,
      "lon": -7.58028
    },
    "name": "Rathdowney"
  },
  {
    "country": "IE",
    "id": 3311782,
    "coord": {
      "lat": 53.000278,
      "lon": -9.12611
    },
    "name": "Deerpark"
  },
  {
    "country": "IE",
    "id": 2963669,
    "coord": {
      "lat": 51.7654,
      "lon": -8.65705
    },
    "name": "Innishannon"
  },
  {
    "country": "IE",
    "id": 3312236,
    "coord": {
      "lat": 53.34444,
      "lon": -9.20583
    },
    "name": "Drimmavohaun"
  },
  {
    "country": "IE",
    "id": 2961960,
    "coord": {
      "lat": 53.38681,
      "lon": -6.18067
    },
    "name": "Raheny"
  },
  {
    "country": "IE",
    "id": 2961523,
    "coord": {
      "lat": 53.226109,
      "lon": -6.12444
    },
    "name": "Shankill"
  },
  {
    "country": "IE",
    "id": 2962459,
    "coord": {
      "lat": 52.930561,
      "lon": -8.42583
    },
    "name": "Mountshannon"
  },
  {
    "country": "IE",
    "id": 3315323,
    "coord": {
      "lat": 53.375278,
      "lon": -6.33056
    },
    "name": "Ashtown"
  },
  {
    "country": "IE",
    "id": 2965731,
    "coord": {
      "lat": 53.251942,
      "lon": -6.17111
    },
    "name": "Carrickmines"
  },
  {
    "country": "IE",
    "id": 2961171,
    "coord": {
      "lat": 53.842781,
      "lon": -6.30278
    },
    "name": "Togher"
  },
  {
    "country": "IE",
    "id": 2964524,
    "coord": {
      "lat": 54.951111,
      "lon": -8.35917
    },
    "name": "Dungloe"
  },
  {
    "country": "IE",
    "id": 2966916,
    "coord": {
      "lat": 51.740559,
      "lon": -9.89556
    },
    "name": "Ardgroom"
  },
  {
    "country": "IE",
    "id": 2961282,
    "coord": {
      "lat": 52.092781,
      "lon": -8.00806
    },
    "name": "Tallow"
  },
  {
    "country": "IE",
    "id": 3315276,
    "coord": {
      "lat": 53.28167,
      "lon": -6.33917
    },
    "name": "Firhouse"
  },
  {
    "country": "IE",
    "id": 3307633,
    "coord": {
      "lat": 55.030281,
      "lon": -7.38861
    },
    "name": "Bunnamayne"
  },
  {
    "country": "IE",
    "id": 3311631,
    "coord": {
      "lat": 54.273609,
      "lon": -7.90278
    },
    "name": "Cornagee"
  },
  {
    "country": "IE",
    "id": 2963421,
    "coord": {
      "lat": 52.28083,
      "lon": -9.84139
    },
    "name": "Kilfenora"
  },
  {
    "country": "IE",
    "id": 2965207,
    "coord": {
      "lat": 52.756939,
      "lon": -7.12222
    },
    "name": "Coolcullen"
  },
  {
    "country": "IE",
    "id": 3315281,
    "coord": {
      "lat": 53.253868,
      "lon": -6.13526
    },
    "name": "Ballybrack"
  },
  {
    "country": "IE",
    "id": 2963295,
    "coord": {
      "lat": 54.633331,
      "lon": -8.45
    },
    "name": "Killybegs"
  },
  {
    "country": "IE",
    "id": 2964496,
    "coord": {
      "lat": 51.716671,
      "lon": -9.11667
    },
    "name": "Dunmanway"
  },
  {
    "country": "IE",
    "id": 3313946,
    "coord": {
      "lat": 53.353611,
      "lon": -7.41917
    },
    "name": "Cappanrush"
  },
  {
    "country": "IE",
    "id": 3311784,
    "coord": {
      "lat": 53.041111,
      "lon": -9.1475
    },
    "name": "Caherconnell"
  },
  {
    "country": "IE",
    "id": 2963426,
    "coord": {
      "lat": 52.246109,
      "lon": -8.42722
    },
    "name": "Kildorrery"
  },
  {
    "country": "IE",
    "id": 3309287,
    "coord": {
      "lat": 54.968891,
      "lon": -7.44139
    },
    "name": "Cloon"
  },
  {
    "country": "IE",
    "id": 3311217,
    "coord": {
      "lat": 54.339439,
      "lon": -8.50111
    },
    "name": "Milltown"
  },
  {
    "country": "IE",
    "id": 2966082,
    "coord": {
      "lat": 52.619999,
      "lon": -8.46111
    },
    "name": "Boher"
  },
  {
    "country": "IE",
    "id": 2966749,
    "coord": {
      "lat": 51.883331,
      "lon": -8.58333
    },
    "name": "Ballincollig"
  },
  {
    "country": "IE",
    "id": 2961235,
    "coord": {
      "lat": 53.309719,
      "lon": -6.28528
    },
    "name": "Terenure"
  },
  {
    "country": "IE",
    "id": 2965249,
    "coord": {
      "lat": 53.781109,
      "lon": -6.48694
    },
    "name": "Collon"
  },
  {
    "country": "IE",
    "id": 2963487,
    "coord": {
      "lat": 53.456108,
      "lon": -6.39639
    },
    "name": "Kilbride Cross Roads"
  },
  {
    "country": "IE",
    "id": 3315280,
    "coord": {
      "lat": 53.26667,
      "lon": -6.17417
    },
    "name": "Foxrock"
  },
  {
    "country": "IE",
    "id": 3292102,
    "coord": {
      "lat": 51.999722,
      "lon": -9.06139
    },
    "name": "Glantane"
  },
  {
    "country": "IE",
    "id": 2962010,
    "coord": {
      "lat": 53.089169,
      "lon": -8.21889
    },
    "name": "Portumna"
  },
  {
    "country": "IE",
    "id": 2963963,
    "coord": {
      "lat": 52.631111,
      "lon": -6.99472
    },
    "name": "Goresbridge"
  },
  {
    "country": "IE",
    "id": 3290748,
    "coord": {
      "lat": 52.089722,
      "lon": -9.56528
    },
    "name": "Aghacurreen"
  },
  {
    "country": "IE",
    "id": 6691049,
    "coord": {
      "lat": 53.378311,
      "lon": -6.20573
    },
    "name": "Kilester"
  },
  {
    "country": "IE",
    "id": 3292071,
    "coord": {
      "lat": 52.028889,
      "lon": -8.74611
    },
    "name": "Beenalaght"
  },
  {
    "country": "IE",
    "id": 2961364,
    "coord": {
      "lat": 53.252499,
      "lon": -6.21361
    },
    "name": "Stepaside"
  },
  {
    "country": "IE",
    "id": 3315322,
    "coord": {
      "lat": 53.329639,
      "lon": -6.33963
    },
    "name": "Walkinstown"
  },
  {
    "country": "IE",
    "id": 2962851,
    "coord": {
      "lat": 52.40556,
      "lon": -9.61694
    },
    "name": "Lixnaw"
  },
  {
    "country": "IE",
    "id": 2965896,
    "coord": {
      "lat": 54.985561,
      "lon": -8.43111
    },
    "name": "Burtonport"
  },
  {
    "country": "IE",
    "id": 2964352,
    "coord": {
      "lat": 52.166672,
      "lon": -9.55
    },
    "name": "Farranfore"
  },
  {
    "country": "IE",
    "id": 2966842,
    "coord": {
      "lat": 53.153889,
      "lon": -6.805
    },
    "name": "Athgarvan"
  },
  {
    "country": "IE",
    "id": 2964822,
    "coord": {
      "lat": 53.341671,
      "lon": -6.94111
    },
    "name": "Derrinturn"
  },
  {
    "country": "IE",
    "id": 2966529,
    "coord": {
      "lat": 52.943611,
      "lon": -7.04222
    },
    "name": "Ballylynan"
  },
  {
    "country": "IE",
    "id": 2965356,
    "coord": {
      "lat": 55.26667,
      "lon": -7.41667
    },
    "name": "Clonmany"
  },
  {
    "country": "IE",
    "id": 3309350,
    "coord": {
      "lat": 54.10833,
      "lon": -6.3475
    },
    "name": "Edentober"
  },
  {
    "country": "IE",
    "id": 2966689,
    "coord": {
      "lat": 52.740559,
      "lon": -6.76778
    },
    "name": "Ballon"
  },
  {
    "country": "IE",
    "id": 2961910,
    "coord": {
      "lat": 53.593609,
      "lon": -6.48611
    },
    "name": "Rathfeigh"
  },
  {
    "country": "IE",
    "id": 3230815,
    "coord": {
      "lat": 51.962219,
      "lon": -7.7175
    },
    "name": "Curragh"
  },
  {
    "country": "IE",
    "id": 2964409,
    "coord": {
      "lat": 53.096111,
      "lon": -7.21
    },
    "name": "Emo"
  },
  {
    "country": "IE",
    "id": 2964529,
    "coord": {
      "lat": 52.342781,
      "lon": -6.97444
    },
    "name": "Dunganstown"
  },
  {
    "country": "IE",
    "id": 3302279,
    "coord": {
      "lat": 52.455559,
      "lon": -6.95694
    },
    "name": "The Rower"
  },
  {
    "country": "IE",
    "id": 2966608,
    "coord": {
      "lat": 52.146671,
      "lon": -8.05361
    },
    "name": "Ballyduff"
  },
  {
    "country": "IE",
    "id": 2961409,
    "coord": {
      "lat": 51.833328,
      "lon": -9.9
    },
    "name": "Sneem"
  },
  {
    "country": "IE",
    "id": 2963301,
    "coord": {
      "lat": 53.51194,
      "lon": -7.1425
    },
    "name": "Killucan"
  },
  {
    "country": "IE",
    "id": 2962019,
    "coord": {
      "lat": 53.423061,
      "lon": -6.1375
    },
    "name": "Portmarnock"
  },
  {
    "country": "IE",
    "id": 2965467,
    "coord": {
      "lat": 52.632221,
      "lon": -8.72889
    },
    "name": "Clarina"
  },
  {
    "country": "IE",
    "id": 2966981,
    "coord": {
      "lat": 53.392502,
      "lon": -9.06639
    },
    "name": "Annaghdown"
  },
  {
    "country": "IE",
    "id": 2965727,
    "coord": {
      "lat": 53.946941,
      "lon": -8.09
    },
    "name": "Carrick-on-Shannon"
  },
  {
    "country": "IE",
    "id": 2965932,
    "coord": {
      "lat": 52.655281,
      "lon": -6.65611
    },
    "name": "Bunclody"
  },
  {
    "country": "IE",
    "id": 2965388,
    "coord": {
      "lat": 53.533329,
      "lon": -9.36667
    },
    "name": "Clonbur"
  },
  {
    "country": "IE",
    "id": 2962597,
    "coord": {
      "lat": 52.855282,
      "lon": -9.39833
    },
    "name": "Miltown Malbay"
  },
  {
    "country": "IE",
    "id": 2962298,
    "coord": {
      "lat": 52.340279,
      "lon": -6.78444
    },
    "name": "Newbawn"
  },
  {
    "country": "IE",
    "id": 2963162,
    "coord": {
      "lat": 54.450001,
      "lon": -8.28333
    },
    "name": "Kinlough"
  },
  {
    "country": "IE",
    "id": 2964848,
    "coord": {
      "lat": 53.130829,
      "lon": -6.09139
    },
    "name": "Delgany"
  },
  {
    "country": "IE",
    "id": 3311855,
    "coord": {
      "lat": 52.917221,
      "lon": -8.58056
    },
    "name": "Capparoe"
  },
  {
    "country": "IE",
    "id": 2964466,
    "coord": {
      "lat": 52.14444,
      "lon": -7.51778
    },
    "name": "Durrow Cross Roads"
  },
  {
    "country": "IE",
    "id": 2966585,
    "coord": {
      "lat": 51.827499,
      "lon": -8.46389
    },
    "name": "Ballygarvan"
  },
  {
    "country": "IE",
    "id": 2966056,
    "coord": {
      "lat": 52.93639,
      "lon": -7.63639
    },
    "name": "Borris in Ossory"
  },
  {
    "country": "IE",
    "id": 2964311,
    "coord": {
      "lat": 52.191669,
      "lon": -6.85167
    },
    "name": "Fethard"
  },
  {
    "country": "IE",
    "id": 2967096,
    "coord": {
      "lat": 52.349998,
      "lon": -9.68333
    },
    "name": "Abbeydorney"
  },
  {
    "country": "IE",
    "id": 2960955,
    "coord": {
      "lat": 52.10944,
      "lon": -7.74944
    },
    "name": "Whitechurch"
  },
  {
    "country": "IE",
    "id": 2963640,
    "coord": {
      "lat": 54,
      "lon": -6.58333
    },
    "name": "Inniskeen"
  },
  {
    "country": "IE",
    "id": 3309085,
    "coord": {
      "lat": 54.958889,
      "lon": -8.39111
    },
    "name": "Meenmore"
  },
  {
    "country": "IE",
    "id": 2963959,
    "coord": {
      "lat": 53.64056,
      "lon": -6.23778
    },
    "name": "Gormanston"
  },
  {
    "country": "IE",
    "id": 2961981,
    "coord": {
      "lat": 52.81694,
      "lon": -9.45083
    },
    "name": "Quilty"
  },
  {
    "country": "IE",
    "id": 2966922,
    "coord": {
      "lat": 52.333328,
      "lon": -9.78333
    },
    "name": "Ardfert"
  },
  {
    "country": "IE",
    "id": 2966857,
    "coord": {
      "lat": 52.59972,
      "lon": -8.97556
    },
    "name": "Askeaton"
  },
  {
    "country": "IE",
    "id": 2964747,
    "coord": {
      "lat": 52.216671,
      "lon": -8.58333
    },
    "name": "Doneraile"
  },
  {
    "country": "IE",
    "id": 2963718,
    "coord": {
      "lat": 52.452499,
      "lon": -7.24667
    },
    "name": "Hugginstown"
  },
  {
    "country": "IE",
    "id": 2965857,
    "coord": {
      "lat": 53.5,
      "lon": -9.01667
    },
    "name": "Caherlistrane"
  },
  {
    "country": "IE",
    "id": 2965248,
    "coord": {
      "lat": 54.183331,
      "lon": -8.5
    },
    "name": "Collooney"
  },
  {
    "country": "IE",
    "id": 2962919,
    "coord": {
      "lat": 53.03278,
      "lon": -9.28833
    },
    "name": "Lisdoonvarna"
  },
  {
    "country": "IE",
    "id": 2966956,
    "coord": {
      "lat": 52.138062,
      "lon": -7.30444
    },
    "name": "Annestown"
  },
  {
    "country": "IE",
    "id": 2963499,
    "coord": {
      "lat": 53.369438,
      "lon": -7.50333
    },
    "name": "Kilbeggan"
  },
  {
    "country": "IE",
    "id": 2966058,
    "coord": {
      "lat": 52.599998,
      "lon": -6.9175
    },
    "name": "Borris"
  },
  {
    "country": "IE",
    "id": 2964985,
    "coord": {
      "lat": 51.798328,
      "lon": -8.30083
    },
    "name": "Crosshaven"
  },
  {
    "country": "IE",
    "id": 2965841,
    "coord": {
      "lat": 52.544998,
      "lon": -7.39111
    },
    "name": "Callan"
  },
  {
    "country": "IE",
    "id": 2965216,
    "coord": {
      "lat": 54.178059,
      "lon": -8.59972
    },
    "name": "Coolaney"
  },
  {
    "country": "IE",
    "id": 2965980,
    "coord": {
      "lat": 52.804722,
      "lon": -8.63222
    },
    "name": "Broadford"
  },
  {
    "country": "IE",
    "id": 3312417,
    "coord": {
      "lat": 53.275829,
      "lon": -9.20556
    },
    "name": "Shannafreaghoge"
  },
  {
    "country": "IE",
    "id": 2963136,
    "coord": {
      "lat": 52.450001,
      "lon": -8.96667
    },
    "name": "Knockaderry"
  },
  {
    "country": "IE",
    "id": 2965466,
    "coord": {
      "lat": 53.228611,
      "lon": -8.8775
    },
    "name": "Clarinbridge"
  },
  {
    "country": "IE",
    "id": 2964233,
    "coord": {
      "lat": 53.98333,
      "lon": -9.11667
    },
    "name": "Foxford"
  },
  {
    "country": "IE",
    "id": 3315082,
    "coord": {
      "lat": 53.109169,
      "lon": -6.10667
    },
    "name": "Kilpedder"
  },
  {
    "country": "IE",
    "id": 3315009,
    "coord": {
      "lat": 53.003891,
      "lon": -6.20056
    },
    "name": "Ballycullen"
  },
  {
    "country": "IE",
    "id": 2966208,
    "coord": {
      "lat": 54.224998,
      "lon": -9.99083
    },
    "name": "Belmullet"
  },
  {
    "country": "IE",
    "id": 2962658,
    "coord": {
      "lat": 53.173061,
      "lon": -8.0875
    },
    "name": "Meelick"
  },
  {
    "country": "IE",
    "id": 3313244,
    "coord": {
      "lat": 53.210831,
      "lon": -8.22111
    },
    "name": "Craughwell"
  },
  {
    "country": "IE",
    "id": 2965111,
    "coord": {
      "lat": 52.947781,
      "lon": -9.06306
    },
    "name": "Corofin"
  },
  {
    "country": "IE",
    "id": 2965616,
    "coord": {
      "lat": 52.25806,
      "lon": -10.0225
    },
    "name": "Castlegregory"
  },
  {
    "country": "IE",
    "id": 2965396,
    "coord": {
      "lat": 53.147499,
      "lon": -7.52444
    },
    "name": "Clonaslee"
  },
  {
    "country": "IE",
    "id": 3316286,
    "coord": {
      "lat": 53.43528,
      "lon": -6.1775
    },
    "name": "Feltrim"
  },
  {
    "country": "IE",
    "id": 2966492,
    "coord": {
      "lat": 54.083328,
      "lon": -8.51667
    },
    "name": "Ballymote"
  },
  {
    "country": "IE",
    "id": 2966690,
    "coord": {
      "lat": 53.53167,
      "lon": -6.96111
    },
    "name": "Ballivor"
  },
  {
    "country": "IE",
    "id": 2966596,
    "coord": {
      "lat": 54.068062,
      "lon": -8.19944
    },
    "name": "Ballyfarnan"
  },
  {
    "country": "IE",
    "id": 2961342,
    "coord": {
      "lat": 53.315559,
      "lon": -6.63472
    },
    "name": "Straffan"
  },
  {
    "country": "IE",
    "id": 2964973,
    "coord": {
      "lat": 55.133331,
      "lon": -8.1
    },
    "name": "Falcarragh"
  },
  {
    "country": "IE",
    "id": 2963609,
    "coord": {
      "lat": 52.488892,
      "lon": -7.06278
    },
    "name": "Inistioge"
  },
  {
    "country": "IE",
    "id": 2963208,
    "coord": {
      "lat": 53.849998,
      "lon": -9
    },
    "name": "Kiltamagh"
  },
  {
    "country": "IE",
    "id": 2961358,
    "coord": {
      "lat": 52.60722,
      "lon": -8.87306
    },
    "name": "Stonehall"
  },
  {
    "country": "IE",
    "id": 2961574,
    "coord": {
      "lat": 52.898891,
      "lon": -8.50917
    },
    "name": "Scarriff"
  },
  {
    "country": "IE",
    "id": 3307495,
    "coord": {
      "lat": 55.049171,
      "lon": -7.81639
    },
    "name": "Termon"
  },
  {
    "country": "IE",
    "id": 2964507,
    "coord": {
      "lat": 53.055561,
      "lon": -6.70389
    },
    "name": "Dunlavin"
  },
  {
    "country": "IE",
    "id": 2965226,
    "coord": {
      "lat": 54.860828,
      "lon": -7.66556
    },
    "name": "Convoy"
  },
  {
    "country": "IE",
    "id": 2961481,
    "coord": {
      "lat": 53.516811,
      "lon": -9.08902
    },
    "name": "Shrule"
  },
  {
    "country": "IE",
    "id": 2961884,
    "coord": {
      "lat": 52.990559,
      "lon": -6.08528
    },
    "name": "Rathnew"
  },
  {
    "country": "IE",
    "id": 3313413,
    "coord": {
      "lat": 53.40583,
      "lon": -7.97333
    },
    "name": "Kilnamanagh"
  },
  {
    "country": "IE",
    "id": 3300045,
    "coord": {
      "lat": 51.971661,
      "lon": -8.26498
    },
    "name": "Leamlara"
  },
  {
    "country": "IE",
    "id": 2966132,
    "coord": {
      "lat": 51.896938,
      "lon": -8.41
    },
    "name": "Blackrock"
  },
  {
    "country": "IE",
    "id": 2961770,
    "coord": {
      "lat": 53.414169,
      "lon": -7.29611
    },
    "name": "Rochfortbridge"
  },
  {
    "country": "IE",
    "id": 2967076,
    "coord": {
      "lat": 52.561939,
      "lon": -8.79556
    },
    "name": "Adare"
  },
  {
    "country": "IE",
    "id": 3305688,
    "coord": {
      "lat": 52.888062,
      "lon": -8.4575
    },
    "name": "Ogonnelloe"
  },
  {
    "country": "IE",
    "id": 2961228,
    "coord": {
      "lat": 53.050282,
      "lon": -8.19889
    },
    "name": "Terryglass"
  },
  {
    "country": "IE",
    "id": 2966245,
    "coord": {
      "lat": 51.738892,
      "lon": -8.49
    },
    "name": "Belgooly"
  },
  {
    "country": "IE",
    "id": 2962226,
    "coord": {
      "lat": 53.166111,
      "lon": -9.02083
    },
    "name": "Newtownlynch"
  },
  {
    "country": "IE",
    "id": 3313917,
    "coord": {
      "lat": 53.269169,
      "lon": -7.77639
    },
    "name": "Kilcolgan"
  },
  {
    "country": "IE",
    "id": 2966555,
    "coord": {
      "lat": 52.149441,
      "lon": -8.40056
    },
    "name": "Ballyhooly"
  },
  {
    "country": "IE",
    "id": 2964584,
    "coord": {
      "lat": 54.049999,
      "lon": -8.03333
    },
    "name": "Drumshanbo"
  },
  {
    "country": "IE",
    "id": 2966122,
    "coord": {
      "lat": 52.446671,
      "lon": -6.34528
    },
    "name": "Blackwater"
  },
  {
    "country": "IE",
    "id": 2963259,
    "coord": {
      "lat": 52.72139,
      "lon": -9.31861
    },
    "name": "Kilmihil"
  },
  {
    "country": "IE",
    "id": 2962540,
    "coord": {
      "lat": 52.28944,
      "lon": -7.24833
    },
    "name": "Mooncoin"
  },
  {
    "country": "IE",
    "id": 2966037,
    "coord": {
      "lat": 52.166672,
      "lon": -9.7
    },
    "name": "Brackhill"
  },
  {
    "country": "IE",
    "id": 3309865,
    "coord": {
      "lat": 54.1325,
      "lon": -7.07583
    },
    "name": "Kilmore"
  },
  {
    "country": "IE",
    "id": 2965413,
    "coord": {
      "lat": 52.940281,
      "lon": -8.03556
    },
    "name": "Cloughjordan"
  },
  {
    "country": "IE",
    "id": 2964120,
    "coord": {
      "lat": 51.573059,
      "lon": -9.11889
    },
    "name": "Glandore"
  },
  {
    "country": "IE",
    "id": 2961617,
    "coord": {
      "lat": 52.597221,
      "lon": -8.70889
    },
    "name": "Patrickswell"
  },
  {
    "country": "IE",
    "id": 2964329,
    "coord": {
      "lat": 52.28083,
      "lon": -9.8675
    },
    "name": "Fenit"
  },
  {
    "country": "IE",
    "id": 2966719,
    "coord": {
      "lat": 53.73333,
      "lon": -8.63333
    },
    "name": "Ballinlough"
  },
  {
    "country": "IE",
    "id": 2963399,
    "coord": {
      "lat": 53.866669,
      "lon": -8.85
    },
    "name": "Kilkelly"
  },
  {
    "country": "IE",
    "id": 2964052,
    "coord": {
      "lat": 52.962219,
      "lon": -6.14583
    },
    "name": "Glenealy"
  },
  {
    "country": "IE",
    "id": 3301342,
    "coord": {
      "lat": 52.200829,
      "lon": -7.3
    },
    "name": "Carrickphilip"
  },
  {
    "country": "IE",
    "id": 2965780,
    "coord": {
      "lat": 53.358608,
      "lon": -6.96583
    },
    "name": "Carbury"
  },
  {
    "country": "IE",
    "id": 2961043,
    "coord": {
      "lat": 53.388889,
      "lon": -7.37361
    },
    "name": "Tyrrellspass"
  },
  {
    "country": "IE",
    "id": 2963062,
    "coord": {
      "lat": 53.366669,
      "lon": -8.86667
    },
    "name": "Lackagh"
  },
  {
    "country": "IE",
    "id": 2964589,
    "coord": {
      "lat": 53.866669,
      "lon": -7.91667
    },
    "name": "Dromod"
  },
  {
    "country": "IE",
    "id": 3315306,
    "coord": {
      "lat": 53.409439,
      "lon": -6.17417
    },
    "name": "Balgriffin"
  },
  {
    "country": "IE",
    "id": 2966231,
    "coord": {
      "lat": 53.933331,
      "lon": -7.41667
    },
    "name": "Bellananagh"
  },
  {
    "country": "IE",
    "id": 2960948,
    "coord": {
      "lat": 53.75,
      "lon": -7.93333
    },
    "name": "Whitehall"
  },
  {
    "country": "IE",
    "id": 2963736,
    "coord": {
      "lat": 52.61639,
      "lon": -7.77528
    },
    "name": "Horse and Jockey"
  },
  {
    "country": "IE",
    "id": 2965645,
    "coord": {
      "lat": 52.386391,
      "lon": -6.44944
    },
    "name": "Castlebridge"
  },
  {
    "country": "IE",
    "id": 2964293,
    "coord": {
      "lat": 53.76667,
      "lon": -7.38333
    },
    "name": "Finnea"
  },
  {
    "country": "IE",
    "id": 3312459,
    "coord": {
      "lat": 53.399719,
      "lon": -8.99917
    },
    "name": "Corrandulla"
  },
  {
    "country": "IE",
    "id": 2963998,
    "coord": {
      "lat": 52.570278,
      "lon": -9.28278
    },
    "name": "Glin"
  },
  {
    "country": "IE",
    "id": 2966650,
    "coord": {
      "lat": 52.580559,
      "lon": -6.56806
    },
    "name": "Ballycarney"
  },
  {
    "country": "IE",
    "id": 2966726,
    "coord": {
      "lat": 51.814171,
      "lon": -8.53694
    },
    "name": "Ballinhassig"
  },
  {
    "country": "IE",
    "id": 2965834,
    "coord": {
      "lat": 53.599998,
      "lon": -7.93333
    },
    "name": "Caltragh"
  },
  {
    "country": "IE",
    "id": 2961182,
    "coord": {
      "lat": 54.049999,
      "lon": -8.73333
    },
    "name": "Tobercurry"
  },
  {
    "country": "IE",
    "id": 2966530,
    "coord": {
      "lat": 52.326939,
      "lon": -7.97889
    },
    "name": "Ballylooby"
  },
  {
    "country": "IE",
    "id": 2966649,
    "coord": {
      "lat": 53.799999,
      "lon": -9.21667
    },
    "name": "Belcarra"
  },
  {
    "country": "IE",
    "id": 2962025,
    "coord": {
      "lat": 52.28833,
      "lon": -7.32056
    },
    "name": "Portlaw"
  },
  {
    "country": "IE",
    "id": 2964318,
    "coord": {
      "lat": 52.588329,
      "lon": -6.49972
    },
    "name": "Ferns"
  },
  {
    "country": "IE",
    "id": 3311721,
    "coord": {
      "lat": 52.961109,
      "lon": -9.23583
    },
    "name": "Ballagh"
  },
  {
    "country": "IE",
    "id": 2962472,
    "coord": {
      "lat": 53.816669,
      "lon": -7.25
    },
    "name": "Mount Nugent"
  },
  {
    "country": "IE",
    "id": 2964109,
    "coord": {
      "lat": 52.186668,
      "lon": -8.3575
    },
    "name": "Glanworth"
  },
  {
    "country": "IE",
    "id": 2966271,
    "coord": {
      "lat": 52.066669,
      "lon": -9.63333
    },
    "name": "Beaufort House"
  },
  {
    "country": "IE",
    "id": 2964755,
    "coord": {
      "lat": 53.019169,
      "lon": -6.61472
    },
    "name": "Donard"
  },
  {
    "country": "IE",
    "id": 2964152,
    "coord": {
      "lat": 53.566109,
      "lon": -6.38556
    },
    "name": "Garristown"
  },
  {
    "country": "IE",
    "id": 2964976,
    "coord": {
      "lat": 52.773331,
      "lon": -7.61139
    },
    "name": "Crosspatrick"
  },
  {
    "country": "IE",
    "id": 2966844,
    "coord": {
      "lat": 52.459721,
      "lon": -9.28944
    },
    "name": "Athea"
  },
  {
    "country": "IE",
    "id": 3315233,
    "coord": {
      "lat": 53.246109,
      "lon": -6.55139
    },
    "name": "Porterstown"
  },
  {
    "country": "IE",
    "id": 2962981,
    "coord": {
      "lat": 52.936668,
      "lon": -9.34528
    },
    "name": "Lehinch"
  },
  {
    "country": "IE",
    "id": 3314744,
    "coord": {
      "lat": 53.348888,
      "lon": -7.21556
    },
    "name": "Killure"
  },
  {
    "country": "IE",
    "id": 2964951,
    "coord": {
      "lat": 55.283329,
      "lon": -7.16667
    },
    "name": "Culdaff"
  },
  {
    "country": "IE",
    "id": 2965761,
    "coord": {
      "lat": 55.25,
      "lon": -7.26667
    },
    "name": "Carndonagh"
  },
  {
    "country": "IE",
    "id": 2965694,
    "coord": {
      "lat": 51.908329,
      "lon": -8.26333
    },
    "name": "Carrigtwohill"
  },
  {
    "country": "IE",
    "id": 2963158,
    "coord": {
      "lat": 53.452221,
      "lon": -7.09972
    },
    "name": "Kinnegad"
  },
  {
    "country": "IE",
    "id": 2965590,
    "coord": {
      "lat": 51.910278,
      "lon": -8.05389
    },
    "name": "Castlemartyr"
  },
  {
    "country": "IE",
    "id": 6691027,
    "coord": {
      "lat": 53.367149,
      "lon": -6.2683
    },
    "name": "Drumcondra"
  },
  {
    "country": "IE",
    "id": 2966667,
    "coord": {
      "lat": 53.52528,
      "lon": -6.2625
    },
    "name": "Ballyboghil"
  },
  {
    "country": "IE",
    "id": 2963036,
    "coord": {
      "lat": 53.666672,
      "lon": -7.98333
    },
    "name": "Lanesborough"
  },
  {
    "country": "IE",
    "id": 2964322,
    "coord": {
      "lat": 53.26944,
      "lon": -7.82694
    },
    "name": "Ferbane"
  },
  {
    "country": "IE",
    "id": 2965276,
    "coord": {
      "lat": 51.862782,
      "lon": -8.12444
    },
    "name": "Cloyne"
  },
  {
    "country": "IE",
    "id": 3303300,
    "coord": {
      "lat": 52.752499,
      "lon": -6.70389
    },
    "name": "Ardattin"
  },
  {
    "country": "IE",
    "id": 2961231,
    "coord": {
      "lat": 53.763329,
      "lon": -6.26778
    },
    "name": "Termonfeckin"
  },
  {
    "country": "IE",
    "id": 2965145,
    "coord": {
      "lat": 53.957218,
      "lon": -6.62361
    },
    "name": "Corcreeghagh"
  },
  {
    "country": "IE",
    "id": 2965946,
    "coord": {
      "lat": 54.636391,
      "lon": -8.38333
    },
    "name": "Bruckless"
  },
  {
    "country": "IE",
    "id": 2960987,
    "coord": {
      "lat": 52.011391,
      "lon": -8.34417
    },
    "name": "Watergrasshill"
  },
  {
    "country": "IE",
    "id": 2961792,
    "coord": {
      "lat": 51.7775,
      "lon": -8.49778
    },
    "name": "Riverstick"
  },
  {
    "country": "IE",
    "id": 2963283,
    "coord": {
      "lat": 52.209721,
      "lon": -7.42583
    },
    "name": "Kilmacthomas"
  },
  {
    "country": "IE",
    "id": 2960924,
    "coord": {
      "lat": 53.683331,
      "lon": -8.58333
    },
    "name": "Williamstown"
  },
  {
    "country": "IE",
    "id": 2964710,
    "coord": {
      "lat": 52.731941,
      "lon": -9.52278
    },
    "name": "Doonbeg"
  },
  {
    "country": "IE",
    "id": 2963850,
    "coord": {
      "lat": 52.015259,
      "lon": -8.60882
    },
    "name": "Grenagh"
  },
  {
    "country": "IE",
    "id": 2966357,
    "coord": {
      "lat": 52.116669,
      "lon": -8.9
    },
    "name": "Banteer"
  },
  {
    "country": "IE",
    "id": 2965902,
    "coord": {
      "lat": 53.146671,
      "lon": -9.07556
    },
    "name": "Burren"
  },
  {
    "country": "IE",
    "id": 2965872,
    "coord": {
      "lat": 52.964722,
      "lon": -8.64528
    },
    "name": "Caher"
  },
  {
    "country": "IE",
    "id": 2962362,
    "coord": {
      "lat": 52.367222,
      "lon": -7.16472
    },
    "name": "Mullinavat"
  },
  {
    "country": "IE",
    "id": 2962570,
    "coord": {
      "lat": 53.916672,
      "lon": -7.86667
    },
    "name": "Mohill"
  },
  {
    "country": "IE",
    "id": 2962139,
    "coord": {
      "lat": 52.852779,
      "lon": -6.21694
    },
    "name": "Avoca"
  },
  {
    "country": "IE",
    "id": 2965595,
    "coord": {
      "lat": 52.086941,
      "lon": -8.27889
    },
    "name": "Castlelyons"
  },
  {
    "country": "IE",
    "id": 2964212,
    "coord": {
      "lat": 53.866669,
      "lon": -8.4
    },
    "name": "Frenchpark"
  },
  {
    "country": "IE",
    "id": 2960980,
    "coord": {
      "lat": 52.263329,
      "lon": -6.77833
    },
    "name": "Wellingtonbridge"
  },
  {
    "country": "IE",
    "id": 2963261,
    "coord": {
      "lat": 53.55917,
      "lon": -6.65667
    },
    "name": "Kilmessan"
  },
  {
    "country": "IE",
    "id": 2967030,
    "coord": {
      "lat": 51.85722,
      "lon": -8.73889
    },
    "name": "Aherla"
  },
  {
    "country": "IE",
    "id": 3299481,
    "coord": {
      "lat": 51.869999,
      "lon": -8.38306
    },
    "name": "Rochestown"
  },
  {
    "country": "IE",
    "id": 2964006,
    "coord": {
      "lat": 54.797501,
      "lon": -8.2825
    },
    "name": "Glenties"
  },
  {
    "country": "IE",
    "id": 2962523,
    "coord": {
      "lat": 53.723331,
      "lon": -6.2825
    },
    "name": "Mornington"
  },
  {
    "country": "IE",
    "id": 2962054,
    "coord": {
      "lat": 53.296108,
      "lon": -7.28944
    },
    "name": "Daingean"
  },
  {
    "country": "IE",
    "id": 2965476,
    "coord": {
      "lat": 52.815559,
      "lon": -8.96667
    },
    "name": "Clarecastle"
  },
  {
    "country": "IE",
    "id": 2966531,
    "coord": {
      "lat": 52.54583,
      "lon": -9.47417
    },
    "name": "Ballylongford"
  },
  {
    "country": "IE",
    "id": 2962795,
    "coord": {
      "lat": 53.76667,
      "lon": -9.81667
    },
    "name": "Louisburgh"
  },
  {
    "country": "IE",
    "id": 2964339,
    "coord": {
      "lat": 52.924721,
      "lon": -8.64528
    },
    "name": "Feakle"
  },
  {
    "country": "IE",
    "id": 2964763,
    "coord": {
      "lat": 53.350281,
      "lon": -6.74583
    },
    "name": "Donadea"
  },
  {
    "country": "IE",
    "id": 2966625,
    "coord": {
      "lat": 53.32444,
      "lon": -7.68278
    },
    "name": "Ballycumber"
  },
  {
    "country": "IE",
    "id": 2966055,
    "coord": {
      "lat": 52.995281,
      "lon": -8.12806
    },
    "name": "Borrisokane"
  },
  {
    "country": "IE",
    "id": 2963600,
    "coord": {
      "lat": 53.242222,
      "lon": -9.42917
    },
    "name": "Inveran"
  },
  {
    "country": "IE",
    "id": 2965632,
    "coord": {
      "lat": 52.90889,
      "lon": -6.84222
    },
    "name": "Castledermot"
  },
  {
    "country": "IE",
    "id": 2964999,
    "coord": {
      "lat": 52.51944,
      "lon": -8.71778
    },
    "name": "Croom"
  },
  {
    "country": "IE",
    "id": 2964642,
    "coord": {
      "lat": 53.927502,
      "lon": -6.41139
    },
    "name": "Dromiskin"
  },
  {
    "country": "IE",
    "id": 2962080,
    "coord": {
      "lat": 52.643059,
      "lon": -8.86889
    },
    "name": "Pallaskenry"
  },
  {
    "country": "IE",
    "id": 2961025,
    "coord": {
      "lat": 52.720558,
      "lon": -7.5825
    },
    "name": "Urlingford"
  },
  {
    "country": "IE",
    "id": 2964132,
    "coord": {
      "lat": 53.235279,
      "lon": -7.32
    },
    "name": "Geashill"
  },
  {
    "country": "IE",
    "id": 2961283,
    "coord": {
      "lat": 53.922779,
      "lon": -6.54639
    },
    "name": "Tallanstown"
  },
  {
    "country": "IE",
    "id": 2965714,
    "coord": {
      "lat": 53.977219,
      "lon": -7.64583
    },
    "name": "Carrigallen"
  },
  {
    "country": "IE",
    "id": 2963918,
    "coord": {
      "lat": 52.62944,
      "lon": -7.07333
    },
    "name": "Gowran"
  },
  {
    "country": "IE",
    "id": 2966569,
    "coord": {
      "lat": 52.46806,
      "lon": -7.19639
    },
    "name": "Ballyhale"
  },
  {
    "country": "IE",
    "id": 2965234,
    "coord": {
      "lat": 52.090832,
      "lon": -8.11056
    },
    "name": "Conna"
  },
  {
    "country": "IE",
    "id": 2961095,
    "coord": {
      "lat": 54.46833,
      "lon": -8.33111
    },
    "name": "Tullaghan"
  },
  {
    "country": "IE",
    "id": 2966684,
    "coord": {
      "lat": 52.964169,
      "lon": -7.08167
    },
    "name": "Ballyadams"
  },
  {
    "country": "IE",
    "id": 2965095,
    "coord": {
      "lat": 51.631939,
      "lon": -8.71306
    },
    "name": "Courtmacsherry"
  },
  {
    "country": "IE",
    "id": 2966737,
    "coord": {
      "lat": 51.736938,
      "lon": -8.95694
    },
    "name": "Ballineen"
  },
  {
    "country": "IE",
    "id": 2962504,
    "coord": {
      "lat": 52.316669,
      "lon": -9.23333
    },
    "name": "Mountcollins"
  },
  {
    "country": "IE",
    "id": 2963124,
    "coord": {
      "lat": 52.869999,
      "lon": -6.49556
    },
    "name": "Knockananna"
  },
  {
    "country": "IE",
    "id": 2962594,
    "coord": {
      "lat": 51.764439,
      "lon": -8.37417
    },
    "name": "Minane Bridge"
  },
  {
    "country": "IE",
    "id": 2967061,
    "coord": {
      "lat": 51.839169,
      "lon": -8.21222
    },
    "name": "Aghada"
  },
  {
    "country": "IE",
    "id": 3300460,
    "coord": {
      "lat": 52.151939,
      "lon": -8.50389
    },
    "name": "Castletownroche"
  },
  {
    "country": "IE",
    "id": 2966670,
    "coord": {
      "lat": 53.28056,
      "lon": -6.31639
    },
    "name": "Ballyboden"
  },
  {
    "country": "IE",
    "id": 2961882,
    "coord": {
      "lat": 53.650002,
      "lon": -7.5
    },
    "name": "Rathowen"
  },
  {
    "country": "IE",
    "id": 2964598,
    "coord": {
      "lat": 54.166672,
      "lon": -8.15
    },
    "name": "Drumkeeran"
  },
  {
    "country": "IE",
    "id": 2961533,
    "coord": {
      "lat": 51.854439,
      "lon": -8.07083
    },
    "name": "Shanagarry"
  },
  {
    "country": "IE",
    "id": 2963184,
    "coord": {
      "lat": 52.176392,
      "lon": -8.24417
    },
    "name": "Kilworth"
  },
  {
    "country": "IE",
    "id": 2966618,
    "coord": {
      "lat": 51.549999,
      "lon": -9.46667
    },
    "name": "Ballydehob"
  },
  {
    "country": "IE",
    "id": 2966496,
    "coord": {
      "lat": 53.133331,
      "lon": -6.61667
    },
    "name": "Ballymore Eustace"
  },
  {
    "country": "IE",
    "id": 2963482,
    "coord": {
      "lat": 54.633888,
      "lon": -8.59333
    },
    "name": "Kilcar"
  },
  {
    "country": "IE",
    "id": 2964020,
    "coord": {
      "lat": 53.606461,
      "lon": -8.56007
    },
    "name": "Glenamaddy"
  },
  {
    "country": "IE",
    "id": 3305640,
    "coord": {
      "lat": 52.71389,
      "lon": -8.49944
    },
    "name": "Castleconnell"
  },
  {
    "country": "IE",
    "id": 2966935,
    "coord": {
      "lat": 54.764439,
      "lon": -8.4075
    },
    "name": "Ardara"
  },
  {
    "country": "IE",
    "id": 3315194,
    "coord": {
      "lat": 53.202221,
      "lon": -6.50111
    },
    "name": "Hempstown"
  },
  {
    "country": "IE",
    "id": 3315332,
    "coord": {
      "lat": 53.393059,
      "lon": -6.42694
    },
    "name": "Hartstown"
  },
  {
    "country": "IE",
    "id": 2961571,
    "coord": {
      "lat": 52.183331,
      "lon": -9.4
    },
    "name": "Scartaglin"
  },
  {
    "country": "IE",
    "id": 2962012,
    "coord": {
      "lat": 52.8825,
      "lon": -8.35028
    },
    "name": "Portroe"
  },
  {
    "country": "IE",
    "id": 2964542,
    "coord": {
      "lat": 52.225281,
      "lon": -6.64583
    },
    "name": "Duncormick"
  },
  {
    "country": "IE",
    "id": 3299471,
    "coord": {
      "lat": 51.91111,
      "lon": -8.36111
    },
    "name": "Glounthaune"
  },
  {
    "country": "IE",
    "id": 2963413,
    "coord": {
      "lat": 51.900002,
      "lon": -9.45
    },
    "name": "Kilgarvan"
  },
  {
    "country": "IE",
    "id": 2965885,
    "coord": {
      "lat": 52.23333,
      "lon": -8.66667
    },
    "name": "Buttevant"
  },
  {
    "country": "IE",
    "id": 2963455,
    "coord": {
      "lat": 52.616669,
      "lon": -8.88333
    },
    "name": "Kilcornan"
  },
  {
    "country": "IE",
    "id": 2963438,
    "coord": {
      "lat": 53.570278,
      "lon": -6.90306
    },
    "name": "Kildalkey"
  },
  {
    "country": "IE",
    "id": 2965436,
    "coord": {
      "lat": 53.221668,
      "lon": -7.88417
    },
    "name": "Cloghan"
  },
  {
    "country": "IE",
    "id": 2964980,
    "coord": {
      "lat": 54.099998,
      "lon": -9.31667
    },
    "name": "Crossmolina"
  },
  {
    "country": "IE",
    "id": 2966301,
    "coord": {
      "lat": 53.469719,
      "lon": -6.53639
    },
    "name": "Batterstown"
  },
  {
    "country": "IE",
    "id": 2964143,
    "coord": {
      "lat": 51.875561,
      "lon": -8.00028
    },
    "name": "Garryvoe"
  },
  {
    "country": "IE",
    "id": 2965161,
    "coord": {
      "lat": 52.700829,
      "lon": -9.42083
    },
    "name": "Cooraclare"
  },
  {
    "country": "IE",
    "id": 2962045,
    "coord": {
      "lat": 52.353329,
      "lon": -7.34028
    },
    "name": "Piltown"
  },
  {
    "country": "IE",
    "id": 2964025,
    "coord": {
      "lat": 52.766941,
      "lon": -9.265
    },
    "name": "Glenmore"
  },
  {
    "country": "IE",
    "id": 2961894,
    "coord": {
      "lat": 53.490002,
      "lon": -6.79861
    },
    "name": "Rathmolyon"
  },
  {
    "country": "IE",
    "id": 2966638,
    "coord": {
      "lat": 54.116669,
      "lon": -7.58333
    },
    "name": "Ballyconnell"
  },
  {
    "country": "IE",
    "id": 3313875,
    "coord": {
      "lat": 53.309441,
      "lon": -7.54806
    },
    "name": "Kildangan"
  },
  {
    "country": "IE",
    "id": 2963056,
    "coord": {
      "lat": 51.895279,
      "lon": -8.04583
    },
    "name": "Ladysbridge"
  },
  {
    "country": "IE",
    "id": 2964989,
    "coord": {
      "lat": 53.883331,
      "lon": -7.28333
    },
    "name": "Crosserlough"
  },
  {
    "country": "IE",
    "id": 2963336,
    "coord": {
      "lat": 53.51667,
      "lon": -8.31667
    },
    "name": "Killeroran"
  },
  {
    "country": "IE",
    "id": 2965250,
    "coord": {
      "lat": 53.644169,
      "lon": -7.20667
    },
    "name": "Collinstown"
  },
  {
    "country": "IE",
    "id": 3314364,
    "coord": {
      "lat": 53.13306,
      "lon": -7.14861
    },
    "name": "Killenard"
  },
  {
    "country": "IE",
    "id": 2961893,
    "coord": {
      "lat": 52.083328,
      "lon": -9.21667
    },
    "name": "Rathmore"
  },
  {
    "country": "IE",
    "id": 2963199,
    "coord": {
      "lat": 52.901112,
      "lon": -6.60722
    },
    "name": "Kiltegan"
  },
  {
    "country": "IE",
    "id": 2963857,
    "coord": {
      "lat": 54.033329,
      "lon": -6.13333
    },
    "name": "Greenore"
  },
  {
    "country": "IE",
    "id": 2964400,
    "coord": {
      "lat": 52.944721,
      "lon": -9.29222
    },
    "name": "Ennistimon"
  },
  {
    "country": "IE",
    "id": 2965449,
    "coord": {
      "lat": 53.48333,
      "lon": -10.01667
    },
    "name": "Clifden"
  },
  {
    "country": "IE",
    "id": 2962424,
    "coord": {
      "lat": 53.900002,
      "lon": -7.63333
    },
    "name": "Moyne"
  },
  {
    "country": "IE",
    "id": 2965760,
    "coord": {
      "lat": 52.708061,
      "lon": -6.49444
    },
    "name": "Carnew"
  },
  {
    "country": "IE",
    "id": 2964666,
    "coord": {
      "lat": 51.916672,
      "lon": -8.75
    },
    "name": "Dripsey"
  },
  {
    "country": "IE",
    "id": 2964632,
    "coord": {
      "lat": 54.23333,
      "lon": -8.3
    },
    "name": "Dromahair"
  },
  {
    "country": "IE",
    "id": 2962363,
    "coord": {
      "lat": 52.509998,
      "lon": -7.50417
    },
    "name": "Mullinahone"
  },
  {
    "country": "IE",
    "id": 2963264,
    "coord": {
      "lat": 52.415001,
      "lon": -8.9175
    },
    "name": "Kilmeedy"
  },
  {
    "country": "IE",
    "id": 2961972,
    "coord": {
      "lat": 53.522499,
      "lon": -7.0925
    },
    "name": "Raharney"
  },
  {
    "country": "IE",
    "id": 3315247,
    "coord": {
      "lat": 53.236938,
      "lon": -6.45222
    },
    "name": "Brittas"
  },
  {
    "country": "IE",
    "id": 2961924,
    "coord": {
      "lat": 52.076939,
      "lon": -8.28194
    },
    "name": "Rathcormac"
  },
  {
    "country": "IE",
    "id": 2961944,
    "coord": {
      "lat": 54.874722,
      "lon": -7.59833
    },
    "name": "Raphoe"
  },
  {
    "country": "IE",
    "id": 2965828,
    "coord": {
      "lat": 52.615559,
      "lon": -6.42056
    },
    "name": "Camolin"
  },
  {
    "country": "IE",
    "id": 3308493,
    "coord": {
      "lat": 54.758888,
      "lon": -7.75056
    },
    "name": "Gortahork"
  },
  {
    "country": "IE",
    "id": 2961855,
    "coord": {
      "lat": 52.88583,
      "lon": -6.14583
    },
    "name": "Redcross"
  },
  {
    "country": "IE",
    "id": 2966515,
    "coord": {
      "lat": 53.566669,
      "lon": -7.76667
    },
    "name": "Ballymahon"
  },
  {
    "country": "IE",
    "id": 2966089,
    "coord": {
      "lat": 52.883888,
      "lon": -8.60111
    },
    "name": "Bodyke"
  },
  {
    "country": "IE",
    "id": 2964582,
    "coord": {
      "lat": 53.933331,
      "lon": -8
    },
    "name": "Drumsna"
  },
  {
    "country": "IE",
    "id": 2963409,
    "coord": {
      "lat": 54.23917,
      "lon": -9.05611
    },
    "name": "Kilglass"
  },
  {
    "country": "IE",
    "id": 2966375,
    "coord": {
      "lat": 52.937222,
      "lon": -6.70917
    },
    "name": "Baltinglass"
  },
  {
    "country": "IE",
    "id": 2963025,
    "coord": {
      "lat": 54.271938,
      "lon": -8.59333
    },
    "name": "Strandhill"
  },
  {
    "country": "IE",
    "id": 3311499,
    "coord": {
      "lat": 54.325829,
      "lon": -8.31389
    },
    "name": "Gurteen"
  },
  {
    "country": "IE",
    "id": 2962160,
    "coord": {
      "lat": 54.086941,
      "lon": -6.26167
    },
    "name": "Omeath"
  },
  {
    "country": "IE",
    "id": 2964225,
    "coord": {
      "lat": 52.611389,
      "lon": -9.11028
    },
    "name": "Foynes"
  },
  {
    "country": "IE",
    "id": 3302374,
    "coord": {
      "lat": 52.593609,
      "lon": -6.98139
    },
    "name": "Skeaghvasteen"
  },
  {
    "country": "IE",
    "id": 3286703,
    "coord": {
      "lat": 51.888889,
      "lon": -8.40417
    },
    "name": "Ballinure"
  },
  {
    "country": "IE",
    "id": 2966507,
    "coord": {
      "lat": 53.700001,
      "lon": -8.46667
    },
    "name": "Ballymoe"
  },
  {
    "country": "IE",
    "id": 2964077,
    "coord": {
      "lat": 52.05806,
      "lon": -9.93778
    },
    "name": "Glenbeigh"
  },
  {
    "country": "IE",
    "id": 2964204,
    "coord": {
      "lat": 53.616669,
      "lon": -8.26667
    },
    "name": "Fuerty"
  },
  {
    "country": "IE",
    "id": 3316342,
    "coord": {
      "lat": 53.555828,
      "lon": -6.30472
    },
    "name": "Damastown"
  },
  {
    "country": "IE",
    "id": 2965463,
    "coord": {
      "lat": 52.003059,
      "lon": -7.81944
    },
    "name": "Clashmore"
  },
  {
    "country": "IE",
    "id": 3309347,
    "coord": {
      "lat": 54.104172,
      "lon": -6.29306
    },
    "name": "Cornamucklagh"
  },
  {
    "country": "IE",
    "id": 2963682,
    "coord": {
      "lat": 51.833328,
      "lon": -9.11667
    },
    "name": "Inchigeelagh"
  },
  {
    "country": "IE",
    "id": 2962165,
    "coord": {
      "lat": 53.52528,
      "lon": -6.31556
    },
    "name": "Oldtown"
  },
  {
    "country": "IE",
    "id": 2965786,
    "coord": {
      "lat": 52.147221,
      "lon": -7.85528
    },
    "name": "Cappoquin"
  },
  {
    "country": "IE",
    "id": 2962707,
    "coord": {
      "lat": 54.950001,
      "lon": -7.61667
    },
    "name": "Manorcunningham"
  },
  {
    "country": "IE",
    "id": 2966740,
    "coord": {
      "lat": 53.666672,
      "lon": -8.96667
    },
    "name": "Ballindine"
  },
  {
    "country": "IE",
    "id": 2961344,
    "coord": {
      "lat": 53.98333,
      "lon": -7.23333
    },
    "name": "Stradone"
  },
  {
    "country": "IE",
    "id": 2966760,
    "coord": {
      "lat": 54.049999,
      "lon": -7.8
    },
    "name": "Ballinamore"
  },
  {
    "country": "IE",
    "id": 2963282,
    "coord": {
      "lat": 52.463058,
      "lon": -7.32861
    },
    "name": "Kilmaganny"
  },
  {
    "country": "IE",
    "id": 2966646,
    "coord": {
      "lat": 54.283329,
      "lon": -9.36667
    },