[

  {
    "country": "KM",
    "id": 1092342,
    "coord": {
      "lat": -11.7125,
      "lon": 43.251389
    },
    "name": "Daché"
  },
  {
    "country": "KM",
    "id": 921882,
    "coord": {
      "lat": -11.58333,
      "lon": 43.333328
    },
    "name": "Île Autonome de Grande Comore"
  },
  {
    "country": "KM",
    "id": 922001,
    "coord": {
      "lat": -12.25,
      "lon": 44.416672
    },
    "name": "Ndzuwani"
  },
  {
    "country": "KM",
    "id": 921753,
    "coord": {
      "lat": -12.16672,
      "lon": 44.399441
    },
    "name": "Moutsamoudou"
  },
  {
    "country": "KM",
    "id": 921929,
    "coord": {
      "lat": -12.23333,
      "lon": 44.44553
    },
    "name": "Union of the Comoros"
  },
  {
    "country": "KM",
    "id": 921721,
    "coord": {
      "lat": -12.13222,
      "lon": 44.425831
    },
    "name": "Ouani"
  },
  {
    "country": "KM",
    "id": 1091088,
    "coord": {
      "lat": -12.13556,
      "lon": 44.431671
    },
    "name": "Barakani"
  },
  {
    "country": "KM",
    "id": 1092003,
    "coord": {
      "lat": -11.55,
      "lon": 43.27417
    },
    "name": "Mbaléni"
  },
  {
    "country": "KM",
    "id": 921772,
    "coord": {
      "lat": -11.70216,
      "lon": 43.255058
    },
    "name": "Moroni"
  },
  {
    "country": "KM",
    "id": 921654,
    "coord": {
      "lat": -12.3375,
      "lon": 43.797501
    },
    "name": "Ouanani"
  },
  {
    "country": "KM",
    "id": 921655,
    "coord": {
      "lat": -12.24417,
      "lon": 44.374439
    },
    "name": "Vouani"
  },
  {
    "country": "KM",
    "id": 921661,
    "coord": {
      "lat": -11.61139,
      "lon": 43.253059
    },
    "name": "Vanambouani"
  },
  {
    "country": "KM",
    "id": 921674,
    "coord": {
      "lat": -11.84556,
      "lon": 43.30917
    },
    "name": "Singani"
  },
  {
    "country": "KM",
    "id": 921675,
    "coord": {
      "lat": -12.19556,
      "lon": 44.276669
    },
    "name": "Sima"
  },
  {
    "country": "KM",
    "id": 921687,
    "coord": {
      "lat": -11.80806,
      "lon": 43.259171
    },
    "name": "Salimani"
  },
  {
    "country": "KM",
    "id": 921703,
    "coord": {
      "lat": -12.15556,
      "lon": 44.437222
    },
    "name": "Patsi"
  },
  {
    "country": "KM",
    "id": 921711,
    "coord": {
      "lat": -12.26722,
      "lon": 44.479721
    },
    "name": "Ouzini"
  },
  {
    "country": "KM",
    "id": 921713,
    "coord": {
      "lat": -11.585,
      "lon": 43.26722
    },
    "name": "Oussivo"
  },
  {
    "country": "KM",
    "id": 921714,
    "coord": {
      "lat": -11.90972,
      "lon": 43.488609
    },
    "name": "Ouroveni"
  },
  {
    "country": "KM",
    "id": 921726,
    "coord": {
      "lat": -12.17028,
      "lon": 44.506939
    },
    "name": "Ongoni"
  },
  {
    "country": "KM",
    "id": 921729,
    "coord": {
      "lat": -11.65972,
      "lon": 43.261391
    },
    "name": "Ntsoudjini"
  },
  {
    "country": "KM",
    "id": 921731,
    "coord": {
      "lat": -11.46583,
      "lon": 43.262779
    },
    "name": "Ntsaoueni"
  },
  {
    "country": "KM",
    "id": 921745,
    "coord": {
      "lat": -12.36139,
      "lon": 43.715279
    },
    "name": "Nioumachoua"
  },
  {
    "country": "KM",
    "id": 921746,
    "coord": {
      "lat": -12.33222,
      "lon": 44.519169
    },
    "name": "Kyo"
  },
  {
    "country": "KM",
    "id": 921756,
    "coord": {
      "lat": -11.60694,
      "lon": 43.380562
    },
    "name": "Mtsamdou"
  },
  {
    "country": "KM",
    "id": 921762,
    "coord": {
      "lat": -12.30833,
      "lon": 44.498611
    },
    "name": "Mremani"
  },
  {
    "country": "KM",
    "id": 921763,
    "coord": {
      "lat": -12.34639,
      "lon": 44.52861
    },
    "name": "Mramani"
  },
  {
    "country": "KM",
    "id": 921764,
    "coord": {
      "lat": -12.30667,
      "lon": 44.437778
    },
    "name": "Moya"
  },
  {
    "country": "KM",
    "id": 921777,
    "coord": {
      "lat": -11.82583,
      "lon": 43.44611
    },
    "name": "Mohoro"
  },
  {
    "country": "KM",
    "id": 921783,
    "coord": {
      "lat": -12.19167,
      "lon": 44.370281
    },
    "name": "Mjimandra"
  },
  {
    "country": "KM",
    "id": 921784,
    "coord": {
      "lat": -12.19361,
      "lon": 44.310001
    },
    "name": "Mjamaoue"
  },
  {
    "country": "KM",
    "id": 921786,
    "coord": {
      "lat": -11.38472,
      "lon": 43.284439
    },
    "name": "Mitsamiouli"
  },
  {
    "country": "KM",
    "id": 921806,
    "coord": {
      "lat": -11.50139,
      "lon": 43.377499
    },
    "name": "Mbeni"
  },
  {
    "country": "KM",
    "id": 921814,
    "coord": {
      "lat": -12.23083,
      "lon": 44.313332
    },
    "name": "Marahare"
  },
  {
    "country": "KM",
    "id": 921834,
    "coord": {
      "lat": -12.22972,
      "lon": 44.48167
    },
    "name": "Koni-Djodjo"
  },
  {
    "country": "KM",
    "id": 921835,
    "coord": {
      "lat": -12.21583,
      "lon": 44.48
    },
    "name": "Koni-Ngani"
  },
  {
    "country": "KM",
    "id": 921838,
    "coord": {
      "lat": -12.17139,
      "lon": 44.441669
    },
    "name": "Koki"
  },
  {
    "country": "KM",
    "id": 921847,
    "coord": {
      "lat": -12.31167,
      "lon": 44.47472
    },
    "name": "Kangani"
  },
  {
    "country": "KM",
    "id": 921852,
    "coord": {
      "lat": -11.3875,
      "lon": 43.386391
    },
    "name": "Ivouani"
  },
  {
    "country": "KM",
    "id": 921856,
    "coord": {
      "lat": -11.67111,
      "lon": 43.254719
    },
    "name": "Itsandra"
  },
  {
    "country": "KM",
    "id": 921858,
    "coord": {
      "lat": -11.54389,
      "lon": 43.379719
    },
    "name": "Heroumbili"
  },
  {
    "country": "KM",
    "id": 921870,
    "coord": {
      "lat": -12.25083,
      "lon": 43.674721
    },
    "name": "Hoani"
  },
  {
    "country": "KM",
    "id": 921884,
    "coord": {
      "lat": -11.86167,
      "lon": 43.484169
    },
    "name": "Foumbouni"
  },
  {
    "country": "KM",
    "id": 921889,
    "coord": {
      "lat": -12.28,
      "lon": 43.7425
    },
    "name": "Fomboni"
  },
  {
    "country": "KM",
    "id": 921897,
    "coord": {
      "lat": -12.18333,
      "lon": 44.48333
    },
    "name": "Dziani"
  },
  {
    "country": "KM",
    "id": 921906,
    "coord": {
      "lat": -12.25694,
      "lon": 44.53194
    },
    "name": "Domoni"
  },
  {
    "country": "KM",
    "id": 921913,
    "coord": {
      "lat": -12.2975,
      "lon": 43.773331
    },
    "name": "Djoyezi"
  },
  {
    "country": "KM",
    "id": 921918,
    "coord": {
      "lat": -11.87361,
      "lon": 43.397781
    },
    "name": "Dembeni"
  },
  {
    "country": "KM",
    "id": 921939,
    "coord": {
      "lat": -12.19111,
      "lon": 44.352501
    },
    "name": "Chironkamba"
  },
  {
    "country": "KM",
    "id": 921942,
    "coord": {
      "lat": -11.92083,
      "lon": 43.48111
    },
    "name": "Chindini"
  },
  {
    "country": "KM",
    "id": 921944,
    "coord": {
      "lat": -11.42806,
      "lon": 43.387501
    },
    "name": "Chezani"
  },
  {
    "country": "KM",
    "id": 921946,
    "coord": {
      "lat": -12.195,
      "lon": 44.464722
    },
    "name": "Chandra"
  },
  {
    "country": "KM",
    "id": 921956,
    "coord": {
      "lat": -11.48694,
      "lon": 43.388329
    },
    "name": "Bouni"
  },
  {
    "country": "KM",
    "id": 921957,
    "coord": {
      "lat": -12.20556,
      "lon": 44.299438
    },
    "name": "Boungoueni"
  },
  {
    "country": "KM",
    "id": 921967,
    "coord": {
      "lat": -12.18833,
      "lon": 44.235561
    },
    "name": "Bimbini"
  },
  {
    "country": "KM",
    "id": 921996,
    "coord": {
      "lat": -12.23306,
      "lon": 44.319721
    },
    "name": "Assimpao"
  },
  {
    "country": "KM",
    "id": 921998,
    "coord": {
      "lat": -12.35639,
      "lon": 44.522499
    },
    "name": "Antsahe"
  },
  {
    "country": "KM",
    "id": 1090583,
    "coord": {
      "lat": -12.26111,
      "lon": 43.703609
    },
    "name": "Mtakoudja"
  },
  {
    "country": "KM",
    "id": 1090640,
    "coord": {
      "lat": -12.3325,
      "lon": 43.7775
    },
    "name": "Ziroudani"
  },
  {
    "country": "KM",
    "id": 1090919,
    "coord": {
      "lat": -12.19194,
      "lon": 44.26944
    },
    "name": "Kavani"
  },
  {
    "country": "KM",
    "id": 1090930,
    "coord": {
      "lat": -12.19167,
      "lon": 44.286942
    },
    "name": "Bandajou"
  },
  {
    "country": "KM",
    "id": 1090960,
    "coord": {
      "lat": -12.18583,
      "lon": 44.33556
    },
    "name": "Chitrouni"
  },
  {
    "country": "KM",
    "id": 1091076,
    "coord": {
      "lat": -12.1175,
      "lon": 44.488331
    },
    "name": "Hajoho"
  },
  {
    "country": "KM",
    "id": 1091102,
    "coord": {
      "lat": -12.14361,
      "lon": 44.498329
    },
    "name": "Harembo"
  },
  {
    "country": "KM",
    "id": 1091117,
    "coord": {
      "lat": -12.15667,
      "lon": 44.408058
    },
    "name": "Mirontsi"
  },
  {
    "country": "KM",
    "id": 1091121,
    "coord": {
      "lat": -12.16972,
      "lon": 44.388062
    },
    "name": "Paje"
  },
  {
    "country": "KM",
    "id": 1091159,
    "coord": {
      "lat": -12.23944,
      "lon": 44.50528
    },
    "name": "Limbi"
  },
  {
    "country": "KM",
    "id": 1091370,
    "coord": {
      "lat": -12.25583,
      "lon": 44.418331
    },
    "name": "Lingoni"
  },
  {
    "country": "KM",
    "id": 1091390,
    "coord": {
      "lat": -12.27806,
      "lon": 44.415829
    },
    "name": "Magnassini-Nindri"
  },
  {
    "country": "KM",
    "id": 1091436,
    "coord": {
      "lat": -12.32583,
      "lon": 44.488609
    },
    "name": "Daji"
  },
  {
    "country": "KM",
    "id": 1091674,
    "coord": {
      "lat": -11.405,
      "lon": 43.282219
    },
    "name": "Ouhozi"
  },
  {
    "country": "KM",
    "id": 1091711,
    "coord": {
      "lat": -11.41806,
      "lon": 43.29528
    },
    "name": "Mandza"
  },
  {
    "country": "KM",
    "id": 1091712,
    "coord": {
      "lat": -11.42111,
      "lon": 43.288891
    },
    "name": "Douniani"
  },
  {
    "country": "KM",
    "id": 1091713,
    "coord": {
      "lat": -11.42083,
      "lon": 43.27639
    },
    "name": "Koua"
  },
  {
    "country": "KM",
    "id": 1091828,
    "coord": {
      "lat": -11.42917,
      "lon": 43.402222
    },
    "name": "Hantsindzi"
  },
  {
    "country": "KM",
    "id": 1091868,
    "coord": {
      "lat": -11.47278,
      "lon": 43.384441
    },
    "name": "Itsandzeni"
  },
  {
    "country": "KM",
    "id": 1091870,
    "coord": {
      "lat": -11.47861,
      "lon": 43.37722
    },
    "name": "Bambadjani"
  },
  {
    "country": "KM",
    "id": 1091996,
    "coord": {
      "lat": -11.51778,
      "lon": 43.37389
    },
    "name": "Mnoungou"
  },
  {
    "country": "KM",
    "id": 1092041,
    "coord": {
      "lat": -11.6075,
      "lon": 43.276112
    },
    "name": "Vanadjou"
  },
  {
    "country": "KM",
    "id": 1092065,
    "coord": {
      "lat": -11.63972,
      "lon": 43.284168
    },
    "name": "Bahani"
  },
  {
    "country": "KM",
    "id": 1092157,
    "coord": {
      "lat": -11.65361,
      "lon": 43.28056
    },
    "name": "Ouella"
  },
  {
    "country": "KM",
    "id": 1092169,
    "coord": {
      "lat": -11.69806,
      "lon": 43.26194
    },
    "name": "Tsidje"
  },
  {
    "country": "KM",
    "id": 1092341,
    "coord": {
      "lat": -11.71611,
      "lon": 43.264721
    },
    "name": "Mvouni"
  },
  {
    "country": "KM",
    "id": 1092343,
    "coord": {
      "lat": -11.71639,
      "lon": 43.252499
    },
    "name": "Mavingouni"
  },
  {
    "country": "KM",
    "id": 1092396,
    "coord": {
      "lat": -11.78444,
      "lon": 43.26083
    },
    "name": "Selea"
  },
  {
    "country": "KM",
    "id": 1092516,
    "coord": {
      "lat": -11.82167,
      "lon": 43.278061
    },
    "name": "Madjeoueni"
  },
  {
    "country": "KM",
    "id": 1092529,
    "coord": {
      "lat": -11.85111,
      "lon": 43.437222
    },
    "name": "Nioumamilima"
  },
  {
    "country": "KM",
    "id": 8030185,
    "coord": {
      "lat": -12.31086,
      "lon": 44.437019
    },
    "name": "Mkiriwadjumoi"
  }

]