[

  {
    "country": "KW",
    "id": 285728,
    "coord": {
      "lat": 29.14583,
      "lon": 48.094719
    },
    "name": "Ar Riqqah"
  },
  {
    "country": "KW",
    "id": 285798,
    "coord": {
      "lat": 29.33333,
      "lon": 47.666672
    },
    "name": "Muḩāfaz̧at Jahrā’"
  },
  {
    "country": "KW",
    "id": 285603,
    "coord": {
      "lat": 29.269171,
      "lon": 47.978062
    },
    "name": "Janub as Surrah"
  },
  {
    "country": "KW",
    "id": 285822,
    "coord": {
      "lat": 29.3025,
      "lon": 48.086941
    },
    "name": "Al Bida‘"
  },
  {
    "country": "KW",
    "id": 285663,
    "coord": {
      "lat": 29.3032,
      "lon": 48.048809
    },
    "name": "Bayan"
  },
  {
    "country": "KW",
    "id": 285704,
    "coord": {
      "lat": 29.333891,
      "lon": 48.076111
    },
    "name": "As Salimiyah"
  },
  {
    "country": "KW",
    "id": 285841,
    "coord": {
      "lat": 29,
      "lon": 48
    },
    "name": "Muḩāfaz̧at al Aḩmadī"
  },
  {
    "country": "KW",
    "id": 285778,
    "coord": {
      "lat": 29.096109,
      "lon": 48.132778
    },
    "name": "Al Manqaf"
  },
  {
    "country": "KW",
    "id": 285782,
    "coord": {
      "lat": 29.145,
      "lon": 48.13028
    },
    "name": "Al Mahbulah"
  },
  {
    "country": "KW",
    "id": 285799,
    "coord": {
      "lat": 29.3375,
      "lon": 47.658058
    },
    "name": "Al Jahra"
  },
  {
    "country": "KW",
    "id": 285811,
    "coord": {
      "lat": 29.0825,
      "lon": 48.13028
    },
    "name": "Al Fahahil"
  },
  {
    "country": "KW",
    "id": 285812,
    "coord": {
      "lat": 29.173889,
      "lon": 48.121109
    },
    "name": "Al Fintas"
  },
  {
    "country": "KW",
    "id": 285856,
    "coord": {
      "lat": 29.365,
      "lon": 48.001389
    },
    "name": "Ad Dasmah"
  },
  {
    "country": "KW",
    "id": 387958,
    "coord": {
      "lat": 29.29583,
      "lon": 48.078609
    },
    "name": "Salwa"
  },
  {
    "country": "KW",
    "id": 388065,
    "coord": {
      "lat": 29.295,
      "lon": 47.93306
    },
    "name": "Ar Rabiyah"
  },
  {
    "country": "KW",
    "id": 285747,
    "coord": {
      "lat": 29.246389,
      "lon": 48.075829
    },
    "name": "An Nijfah"
  },
  {
    "country": "KW",
    "id": 412800,
    "coord": {
      "lat": 29.257219,
      "lon": 48.05722
    },
    "name": "Sabah as Salim"
  },
  {
    "country": "KW",
    "id": 285570,
    "coord": {
      "lat": 29.5,
      "lon": 47.75
    },
    "name": "State of Kuwait"
  },
  {
    "country": "KW",
    "id": 387897,
    "coord": {
      "lat": 28.554171,
      "lon": 48.053059
    },
    "name": "Al Wafrah"
  },
  {
    "country": "KW",
    "id": 285375,
    "coord": {
      "lat": 29.31583,
      "lon": 47.663891
    },
    "name": "‘Ushaysh al Jahrā’"
  },
  {
    "country": "KW",
    "id": 6942029,
    "coord": {
      "lat": 29.384199,
      "lon": 47.651798
    },
    "name": "Highway of Death"
  },
  {
    "country": "KW",
    "id": 285815,
    "coord": {
      "lat": 29.2775,
      "lon": 47.958611
    },
    "name": "Al Farwaniyah"
  },
  {
    "country": "KW",
    "id": 285628,
    "coord": {
      "lat": 29.283331,
      "lon": 47.997219
    },
    "name": "Muḩāfaz̧at Ḩawallī"
  },
  {
    "country": "KW",
    "id": 285787,
    "coord": {
      "lat": 29.36972,
      "lon": 47.978329
    },
    "name": "Kuwait City"
  },
  {
    "country": "KW",
    "id": 285629,
    "coord": {
      "lat": 29.332781,
      "lon": 48.02861
    },
    "name": "Ḩawallī"
  },
  {
    "country": "KW",
    "id": 285839,
    "coord": {
      "lat": 29.076941,
      "lon": 48.083889
    },
    "name": "Al Aḩmadī"
  },
  {
    "country": "KW",
    "id": 285788,
    "coord": {
      "lat": 29.33333,
      "lon": 47.916672
    },
    "name": "Muḩāfaz̧at al ‘Āşimah"
  },
  {
    "country": "KW",
    "id": 388088,
    "coord": {
      "lat": 29.25028,
      "lon": 47.93111
    },
    "name": "Al ‘Abbāsīyah"
  },
  {
    "country": "KW",
    "id": 387990,
    "coord": {
      "lat": 29.37361,
      "lon": 47.971668
    },
    "name": "Al Qiblah"
  },
  {
    "country": "KW",
    "id": 285673,
    "coord": {
      "lat": 29.442499,
      "lon": 48.274719
    },
    "name": "Az Zawr"
  },
  {
    "country": "KW",
    "id": 285721,
    "coord": {
      "lat": 29.347219,
      "lon": 47.96167
    },
    "name": "Ash Shamiyah"
  },
  {
    "country": "KW",
    "id": 285760,
    "coord": {
      "lat": 28.63917,
      "lon": 47.930561
    },
    "name": "Al Wafrah"
  },
  {
    "country": "KW",
    "id": 285810,
    "coord": {
      "lat": 29.225281,
      "lon": 48.101669
    },
    "name": "Al Funaytis"
  }

]