[

  {
    "country": "LU",
    "id": 2960313,
    "coord": {
      "lat": 49.75,
      "lon": 6.16667
    },
    "name": "Grand Duchy of Luxembourg"
  },
  {
    "country": "LU",
    "id": 2960629,
    "coord": {
      "lat": 49.76667,
      "lon": 6.36667
    },
    "name": "Canton d'Echternach"
  },
  {
    "country": "LU",
    "id": 2959975,
    "coord": {
      "lat": 49.966671,
      "lon": 5.93333
    },
    "name": "Canton de Wiltz"
  },
  {
    "country": "LU",
    "id": 2960590,
    "coord": {
      "lat": 49.833328,
      "lon": 6.08333
    },
    "name": "Ettelbruck"
  },
  {
    "country": "LU",
    "id": 2960631,
    "coord": {
      "lat": 49.813068,
      "lon": 6.42185
    },
    "name": "Echternach"
  },
  {
    "country": "LU",
    "id": 2960003,
    "coord": {
      "lat": 49.691391,
      "lon": 6.38833
    },
    "name": "Wecker"
  },
  {
    "country": "LU",
    "id": 2960656,
    "coord": {
      "lat": 49.866669,
      "lon": 6.16667
    },
    "name": "Canton de Diekirch"
  },
  {
    "country": "LU",
    "id": 2960314,
    "coord": {
      "lat": 49.583328,
      "lon": 6.16667
    },
    "name": "District de Luxembourg"
  },
  {
    "country": "LU",
    "id": 2960801,
    "coord": {
      "lat": 49.510281,
      "lon": 5.94361
    },
    "name": "Belval"
  },
  {
    "country": "LU",
    "id": 2960655,
    "coord": {
      "lat": 49.916672,
      "lon": 6
    },
    "name": "District de Diekirch"
  },
  {
    "country": "LU",
    "id": 2960161,
    "coord": {
      "lat": 49.799999,
      "lon": 5.9
    },
    "name": "Canton de Redange"
  },
  {
    "country": "LU",
    "id": 6693320,
    "coord": {
      "lat": 49.803059,
      "lon": 6
    },
    "name": "Vichten"
  },
  {
    "country": "LU",
    "id": 2960019,
    "coord": {
      "lat": 49.803059,
      "lon": 6
    },
    "name": "Vichten"
  },
  {
    "country": "LU",
    "id": 2960696,
    "coord": {
      "lat": 49.633331,
      "lon": 6
    },
    "name": "Canton de Capellen"
  },
  {
    "country": "LU",
    "id": 6693317,
    "coord": {
      "lat": 49.76556,
      "lon": 5.89083
    },
    "name": "Redange-sur-Attert"
  },
  {
    "country": "LU",
    "id": 2960183,
    "coord": {
      "lat": 49.770279,
      "lon": 6.10917
    },
    "name": "Pettingen"
  },
  {
    "country": "LU",
    "id": 2960823,
    "coord": {
      "lat": 49.522781,
      "lon": 6.22472
    },
    "name": "Aspelt"
  },
  {
    "country": "LU",
    "id": 6693265,
    "coord": {
      "lat": 49.66444,
      "lon": 6.07306
    },
    "name": "Kopstal"
  },
  {
    "country": "LU",
    "id": 2960363,
    "coord": {
      "lat": 49.66444,
      "lon": 6.07306
    },
    "name": "Kopstal"
  },
  {
    "country": "LU",
    "id": 2960189,
    "coord": {
      "lat": 49.811668,
      "lon": 5.76583
    },
    "name": "Perlé"
  },
  {
    "country": "LU",
    "id": 2960288,
    "coord": {
      "lat": 50.1175,
      "lon": 5.99278
    },
    "name": "Massen"
  },
  {
    "country": "LU",
    "id": 2960513,
    "coord": {
      "lat": 49.666672,
      "lon": 6.41667
    },
    "name": "District de Grevenmacher"
  },
  {
    "country": "LU",
    "id": 2959966,
    "coord": {
      "lat": 49.716389,
      "lon": 6.49
    },
    "name": "Wollefsmillen"
  },
  {
    "country": "LU",
    "id": 6696267,
    "coord": {
      "lat": 49.848469,
      "lon": 6.35787
    },
    "name": "Bollendorf-Pont"
  },
  {
    "country": "LU",
    "id": 2960739,
    "coord": {
      "lat": 49.754169,
      "lon": 6.51389
    },
    "name": "Born"
  },
  {
    "country": "LU",
    "id": 2960316,
    "coord": {
      "lat": 49.611671,
      "lon": 6.13
    },
    "name": "Luxembourg"
  },
  {
    "country": "LU",
    "id": 2960630,
    "coord": {
      "lat": 49.805561,
      "lon": 6.42222
    },
    "name": "Echternach"
  },
  {
    "country": "LU",
    "id": 2960599,
    "coord": {
      "lat": 49.5,
      "lon": 6.03333
    },
    "name": "Canton d'Esch-sur-Alzette"
  },
  {
    "country": "LU",
    "id": 2960635,
    "coord": {
      "lat": 49.5,
      "lon": 6.08333
    },
    "name": "Dudelange"
  },
  {
    "country": "LU",
    "id": 2960634,
    "coord": {
      "lat": 49.48056,
      "lon": 6.0875
    },
    "name": "Dudelange"
  },
  {
    "country": "LU",
    "id": 6693323,
    "coord": {
      "lat": 49.911388,
      "lon": 5.93639
    },
    "name": "Esch-sur-Sûre"
  },
  {
    "country": "LU",
    "id": 2960595,
    "coord": {
      "lat": 49.911388,
      "lon": 5.93639
    },
    "name": "Esch-sur-Sûre"
  },
  {
    "country": "LU",
    "id": 6693258,
    "coord": {
      "lat": 49.567501,
      "lon": 5.91028
    },
    "name": "Bascharage"
  },
  {
    "country": "LU",
    "id": 2960815,
    "coord": {
      "lat": 49.567501,
      "lon": 5.91028
    },
    "name": "Bascharage"
  },
  {
    "country": "LU",
    "id": 2960565,
    "coord": {
      "lat": 49.529442,
      "lon": 6.01083
    },
    "name": "Foetz"
  },
  {
    "country": "LU",
    "id": 2960315,
    "coord": {
      "lat": 49.599998,
      "lon": 6.13333
    },
    "name": "Canton de Luxembourg"
  },
  {
    "country": "LU",
    "id": 6693279,
    "coord": {
      "lat": 49.613331,
      "lon": 6.21889
    },
    "name": "Sandweiler"
  },
  {
    "country": "LU",
    "id": 2960117,
    "coord": {
      "lat": 49.613331,
      "lon": 6.21889
    },
    "name": "Sandweiler"
  },
  {
    "country": "LU",
    "id": 2960697,
    "coord": {
      "lat": 49.645,
      "lon": 5.99083
    },
    "name": "Capellen"
  },
  {
    "country": "LU",
    "id": 6693281,
    "coord": {
      "lat": 49.676941,
      "lon": 6.12389
    },
    "name": "Steinsel"
  },
  {
    "country": "LU",
    "id": 2960058,
    "coord": {
      "lat": 49.676941,
      "lon": 6.12389
    },
    "name": "Steinsel"
  },
  {
    "country": "LU",
    "id": 2960143,
    "coord": {
      "lat": 49.546391,
      "lon": 5.84083
    },
    "name": "Rodange"
  },
  {
    "country": "LU",
    "id": 6693282,
    "coord": {
      "lat": 49.62056,
      "lon": 6.07333
    },
    "name": "Strassen"
  },
  {
    "country": "LU",
    "id": 2960054,
    "coord": {
      "lat": 49.62056,
      "lon": 6.07333
    },
    "name": "Strassen"
  },
  {
    "country": "LU",
    "id": 2960275,
    "coord": {
      "lat": 49.75,
      "lon": 6.1
    },
    "name": "Canton de Mersch"
  },
  {
    "country": "LU",
    "id": 6693286,
    "coord": {
      "lat": 49.787498,
      "lon": 6.06944
    },
    "name": "Bissen"
  },
  {
    "country": "LU",
    "id": 2960759,
    "coord": {
      "lat": 49.787498,
      "lon": 6.06944
    },
    "name": "Bissen"
  },
  {
    "country": "LU",
    "id": 2960778,
    "coord": {
      "lat": 49.5,
      "lon": 6.08333
    },
    "name": "Bettembourg"
  },
  {
    "country": "LU",
    "id": 2960777,
    "coord": {
      "lat": 49.518608,
      "lon": 6.10278
    },
    "name": "Bettembourg"
  },
  {
    "country": "LU",
    "id": 6693293,
    "coord": {
      "lat": 49.74889,
      "lon": 6.10611
    },
    "name": "Mersch"
  },
  {
    "country": "LU",
    "id": 2960276,
    "coord": {
      "lat": 49.74889,
      "lon": 6.10611
    },
    "name": "Mersch"
  },
  {
    "country": "LU",
    "id": 6693276,
    "coord": {
      "lat": 49.58194,
      "lon": 6.22667
    },
    "name": "Contern"
  },
  {
    "country": "LU",
    "id": 2960673,
    "coord": {
      "lat": 49.58194,
      "lon": 6.22667
    },
    "name": "Contern"
  },
  {
    "country": "LU",
    "id": 2960514,
    "coord": {
      "lat": 49.666672,
      "lon": 6.33333
    },
    "name": "Canton de Grevenmacher"
  },
  {
    "country": "LU",
    "id": 6693347,
    "coord": {
      "lat": 49.60833,
      "lon": 6.40583
    },
    "name": "Wormeldange"
  },
  {
    "country": "LU",
    "id": 2959959,
    "coord": {
      "lat": 49.60833,
      "lon": 6.40583
    },
    "name": "Wormeldange"
  },
  {
    "country": "LU",
    "id": 2960795,
    "coord": {
      "lat": 49.65694,
      "lon": 6.1275
    },
    "name": "Bereldange"
  },
  {
    "country": "LU",
    "id": 6693275,
    "coord": {
      "lat": 49.611111,
      "lon": 6.05
    },
    "name": "Bertrange"
  },
  {
    "country": "LU",
    "id": 2960782,
    "coord": {
      "lat": 49.611111,
      "lon": 6.05
    },
    "name": "Bertrange"
  },
  {
    "country": "LU",
    "id": 2960800,
    "coord": {
      "lat": 49.512779,
      "lon": 5.92944
    },
    "name": "Belvaux"
  },
  {
    "country": "LU",
    "id": 6693341,
    "coord": {
      "lat": 49.683331,
      "lon": 6.35
    },
    "name": "Betzdorf"
  },
  {
    "country": "LU",
    "id": 2960774,
    "coord": {
      "lat": 49.683331,
      "lon": 6.35
    },
    "name": "Betzdorf"
  },
  {
    "country": "LU",
    "id": 2960152,
    "coord": {
      "lat": 49.533329,
      "lon": 6.33333
    },
    "name": "Canton de Remich"
  },
  {
    "country": "LU",
    "id": 6693352,
    "coord": {
      "lat": 49.505001,
      "lon": 6.28111
    },
    "name": "Mondorf-les-Bains"
  },
  {
    "country": "LU",
    "id": 2960257,
    "coord": {
      "lat": 49.505001,
      "lon": 6.28111
    },
    "name": "Mondorf-les-Bains"
  },
  {
    "country": "LU",
    "id": 2960326,
    "coord": {
      "lat": 49.530281,
      "lon": 6.12028
    },
    "name": "Livange"
  },
  {
    "country": "LU",
    "id": 6693288,
    "coord": {
      "lat": 49.739719,
      "lon": 6.18722
    },
    "name": "Fischbach"
  },
  {
    "country": "LU",
    "id": 2960571,
    "coord": {
      "lat": 49.739719,
      "lon": 6.18722
    },
    "name": "Fischbach"
  },
  {
    "country": "LU",
    "id": 6693263,
    "coord": {
      "lat": 49.668331,
      "lon": 6.03583
    },
    "name": "Kehlen"
  },
  {
    "country": "LU",
    "id": 2960389,
    "coord": {
      "lat": 49.668331,
      "lon": 6.03583
    },
    "name": "Kehlen"
  },
  {
    "country": "LU",
    "id": 6693291,
    "coord": {
      "lat": 49.715832,
      "lon": 6.13361
    },
    "name": "Lintgen"
  },
  {
    "country": "LU",
    "id": 2960328,
    "coord": {
      "lat": 49.715832,
      "lon": 6.13361
    },
    "name": "Lintgen"
  },
  {
    "country": "LU",
    "id": 6693278,
    "coord": {
      "lat": 49.647499,
      "lon": 6.26
    },
    "name": "Niederanven"
  },
  {
    "country": "LU",
    "id": 2960231,
    "coord": {
      "lat": 49.647499,
      "lon": 6.26
    },
    "name": "Niederanven"
  },
  {
    "country": "LU",
    "id": 6693266,
    "coord": {
      "lat": 49.627499,
      "lon": 6.02333
    },
    "name": "Mamer"
  },
  {
    "country": "LU",
    "id": 2960299,
    "coord": {
      "lat": 49.627499,
      "lon": 6.02333
    },
    "name": "Mamer"
  },
  {
    "country": "LU",
    "id": 6693269,
    "coord": {
      "lat": 49.495831,
      "lon": 5.98056
    },
    "name": "Esch-sur-Alzette"
  },
  {
    "country": "LU",
    "id": 2960596,
    "coord": {
      "lat": 49.495831,
      "lon": 5.98056
    },
    "name": "Esch-sur-Alzette"
  },
  {
    "country": "LU",
    "id": 2960589,
    "coord": {
      "lat": 49.8475,
      "lon": 6.10417
    },
    "name": "Ettelbruck"
  },
  {
    "country": "LU",
    "id": 2960392,
    "coord": {
      "lat": 49.5,
      "lon": 6
    },
    "name": "Kayl"
  },
  {
    "country": "LU",
    "id": 2960391,
    "coord": {
      "lat": 49.48917,
      "lon": 6.03972
    },
    "name": "Kayl"
  },
  {
    "country": "LU",
    "id": 2960067,
    "coord": {
      "lat": 49.525558,
      "lon": 5.94056
    },
    "name": "Soleuvre"
  },
  {
    "country": "LU",
    "id": 6693280,
    "coord": {
      "lat": 49.62056,
      "lon": 6.26861
    },
    "name": "Schuttrange"
  },
  {
    "country": "LU",
    "id": 2960082,
    "coord": {
      "lat": 49.62056,
      "lon": 6.26861
    },
    "name": "Schuttrange"
  },
  {
    "country": "LU",
    "id": 6693271,
    "coord": {
      "lat": 49.568329,
      "lon": 6.06528
    },
    "name": "Leudelange"
  },
  {
    "country": "LU",
    "id": 2960335,
    "coord": {
      "lat": 49.568329,
      "lon": 6.06528
    },
    "name": "Leudelange"
  },
  {
    "country": "LU",
    "id": 2960618,
    "coord": {
      "lat": 49.685558,
      "lon": 5.87861
    },
    "name": "Eischen"
  },
  {
    "country": "LU",
    "id": 2960683,
    "coord": {
      "lat": 50.083328,
      "lon": 6
    },
    "name": "Canton de Clervaux"
  },
  {
    "country": "LU",
    "id": 6693297,
    "coord": {
      "lat": 50.054722,
      "lon": 6.03139
    },
    "name": "Clervaux"
  },
  {
    "country": "LU",
    "id": 2960684,
    "coord": {
      "lat": 50.054722,
      "lon": 6.03139
    },
    "name": "Clervaux"
  },
  {
    "country": "LU",
    "id": 2960103,
    "coord": {
      "lat": 49.5,
      "lon": 6
    },
    "name": "Schifflange"
  },
  {
    "country": "LU",
    "id": 2960102,
    "coord": {
      "lat": 49.50639,
      "lon": 6.01278
    },
    "name": "Schifflange"
  },
  {
    "country": "LU",
    "id": 2960160,
    "coord": {
      "lat": 49.76556,
      "lon": 5.89083
    },
    "name": "Redange-sur-Attert"
  },
  {
    "country": "LU",
    "id": 6693354,
    "coord": {
      "lat": 49.544998,
      "lon": 6.36694
    },
    "name": "Remich"
  },
  {
    "country": "LU",
    "id": 2960154,
    "coord": {
      "lat": 49.544998,
      "lon": 6.36694
    },
    "name": "Remich"
  },
  {
    "country": "LU",
    "id": 2960130,
    "coord": {
      "lat": 49.794441,
      "lon": 5.82167
    },
    "name": "Roodt-lès-Ell"
  },
  {
    "country": "LU",
    "id": 6693274,
    "coord": {
      "lat": 49.542221,
      "lon": 6.15
    },
    "name": "Roeser"
  },
  {
    "country": "LU",
    "id": 2960135,
    "coord": {
      "lat": 49.542221,
      "lon": 6.15
    },
    "name": "Roeser"
  },
  {
    "country": "LU",
    "id": 2959978,
    "coord": {
      "lat": 49.916672,
      "lon": 5.91667
    },
    "name": "Wiltz"
  },
  {
    "country": "LU",
    "id": 2959977,
    "coord": {
      "lat": 49.968891,
      "lon": 5.93194
    },
    "name": "Wiltz"
  },
  {
    "country": "LU",
    "id": 2960627,
    "coord": {
      "lat": 49.52417,
      "lon": 5.96611
    },
    "name": "Ehlerange"
  },
  {
    "country": "LU",
    "id": 2960644,
    "coord": {
      "lat": 49.970001,
      "lon": 5.83722
    },
    "name": "Doncols"
  },
  {
    "country": "LU",
    "id": 6693292,
    "coord": {
      "lat": 49.694721,
      "lon": 6.1425
    },
    "name": "Lorentzweiler"
  },
  {
    "country": "LU",
    "id": 2960322,
    "coord": {
      "lat": 49.694721,
      "lon": 6.1425
    },
    "name": "Lorentzweiler"
  },
  {
    "country": "LU",
    "id": 6693300,
    "coord": {
      "lat": 50.01778,
      "lon": 6.09333
    },
    "name": "Hosingen"
  },
  {
    "country": "LU",
    "id": 2960429,
    "coord": {
      "lat": 50.01778,
      "lon": 6.09333
    },
    "name": "Hosingen"
  },
  {
    "country": "LU",
    "id": 6693309,
    "coord": {
      "lat": 49.801941,
      "lon": 6.21833
    },
    "name": "Medernach"
  },
  {
    "country": "LU",
    "id": 2960283,
    "coord": {
      "lat": 49.801941,
      "lon": 6.21833
    },
    "name": "Medernach"
  },
  {
    "country": "LU",
    "id": 2960472,
    "coord": {
      "lat": 49.66861,
      "lon": 6.14222
    },
    "name": "Heisdorf-sur-Alzette"
  },
  {
    "country": "LU",
    "id": 6693308,
    "coord": {
      "lat": 49.94722,
      "lon": 6.08167
    },
    "name": "Hoscheid"
  },
  {
    "country": "LU",
    "id": 2960432,
    "coord": {
      "lat": 49.94722,
      "lon": 6.08167
    },
    "name": "Hoscheid"
  },
  {
    "country": "LU",
    "id": 2960765,
    "coord": {
      "lat": 50.118889,
      "lon": 6.03861
    },
    "name": "Binsfeld"
  },
  {
    "country": "LU",
    "id": 2960468,
    "coord": {
      "lat": 49.652779,
      "lon": 6.14139
    },
    "name": "Helmsange"
  },
  {
    "country": "LU",
    "id": 6693277,
    "coord": {
      "lat": 49.568062,
      "lon": 6.15139
    },
    "name": "Hesperange"
  },
  {
    "country": "LU",
    "id": 2960457,
    "coord": {
      "lat": 49.568062,
      "lon": 6.15139
    },
    "name": "Hesperange"
  },
  {
    "country": "LU",
    "id": 6693264,
    "coord": {
      "lat": 49.669998,
      "lon": 5.95
    },
    "name": "Koerich"
  },
  {
    "country": "LU",
    "id": 2960367,
    "coord": {
      "lat": 49.669998,
      "lon": 5.95
    },
    "name": "Koerich"
  },
  {
    "country": "LU",
    "id": 2960720,
    "coord": {
      "lat": 49.658329,
      "lon": 6.08222
    },
    "name": "Bridel"
  },
  {
    "country": "LU",
    "id": 2960124,
    "coord": {
      "lat": 49.5,
      "lon": 6
    },
    "name": "Rumelange"
  },
  {
    "country": "LU",
    "id": 2960123,
    "coord": {
      "lat": 49.460831,
      "lon": 6.03306
    },
    "name": "Rumelange"
  },
  {
    "country": "LU",
    "id": 2960652,
    "coord": {
      "lat": 49.51667,
      "lon": 5.88333
    },
    "name": "Differdange"
  },
  {
    "country": "LU",
    "id": 2960651,
    "coord": {
      "lat": 49.52417,
      "lon": 5.89139
    },
    "name": "Differdange"
  },
  {
    "country": "LU",
    "id": 2960575,
    "coord": {
      "lat": 49.62389,
      "lon": 6.20278
    },
    "name": "Findel"
  },
  {
    "country": "LU",
    "id": 6693272,
    "coord": {
      "lat": 49.533058,
      "lon": 5.98833
    },
    "name": "Mondercange"
  },
  {
    "country": "LU",
    "id": 2960258,
    "coord": {
      "lat": 49.533058,
      "lon": 5.98833
    },
    "name": "Mondercange"
  },
  {
    "country": "LU",
    "id": 2960031,
    "coord": {
      "lat": 50.133331,
      "lon": 6
    },
    "name": "Troisvierges"
  },
  {
    "country": "LU",
    "id": 2960030,
    "coord": {
      "lat": 50.121109,
      "lon": 6.00028
    },
    "name": "Troisvierges"
  },
  {
    "country": "LU",
    "id": 2960781,
    "coord": {
      "lat": 49.575829,
      "lon": 5.98389
    },
    "name": "Bettange-sur-Mess"
  },
  {
    "country": "LU",
    "id": 6693346,
    "coord": {
      "lat": 49.69611,
      "lon": 6.48139
    },
    "name": "Mertert"
  },
  {
    "country": "LU",
    "id": 2960271,
    "coord": {
      "lat": 49.69611,
      "lon": 6.48139
    },
    "name": "Mertert"
  },
  {
    "country": "LU",
    "id": 2960592,
    "coord": {
      "lat": 50.062778,
      "lon": 6.00361
    },
    "name": "Eselborn"
  },
  {
    "country": "LU",
    "id": 2960437,
    "coord": {
      "lat": 49.61639,
      "lon": 5.99028
    },
    "name": "Holzem"
  },
  {
    "country": "LU",
    "id": 2960584,
    "coord": {
      "lat": 49.562778,
      "lon": 6.15389
    },
    "name": "Fentange"
  },
  {
    "country": "LU",
    "id": 6693344,
    "coord": {
      "lat": 49.707218,
      "lon": 6.25306
    },
    "name": "Junglinster"
  },
  {
    "country": "LU",
    "id": 2960400,
    "coord": {
      "lat": 49.707218,
      "lon": 6.25306
    },
    "name": "Junglinster"
  },
  {
    "country": "LU",
    "id": 2960020,
    "coord": {
      "lat": 49.933331,
      "lon": 6.16667
    },
    "name": "Canton de Vianden"
  },
  {
    "country": "LU",
    "id": 6693333,
    "coord": {
      "lat": 49.935001,
      "lon": 6.20889
    },
    "name": "Vianden"
  },
  {
    "country": "LU",
    "id": 2960021,
    "coord": {
      "lat": 49.935001,
      "lon": 6.20889
    },
    "name": "Vianden"
  },
  {
    "country": "LU",
    "id": 2959993,
    "coord": {
      "lat": 49.599998,
      "lon": 6.15
    },
    "name": "Weimershof"
  },
  {
    "country": "LU",
    "id": 2960741,
    "coord": {
      "lat": 49.59444,
      "lon": 6.15
    },
    "name": "Bonnevoie"
  },
  {
    "country": "LU",
    "id": 2960188,
    "coord": {
      "lat": 49.549999,
      "lon": 5.88333
    },
    "name": "Pétange"
  },
  {
    "country": "LU",
    "id": 2960187,
    "coord": {
      "lat": 49.558331,
      "lon": 5.88056
    },
    "name": "Petange"
  },
  {
    "country": "LU",
    "id": 2959973,
    "coord": {
      "lat": 50.14056,
      "lon": 6.02389
    },
    "name": "Wilwerdange"
  },
  {
    "country": "LU",
    "id": 2960280,
    "coord": {
      "lat": 49.650829,
      "lon": 6.30361
    },
    "name": "Mensdorf"
  },
  {
    "country": "LU",
    "id": 6693296,
    "coord": {
      "lat": 50.053329,
      "lon": 5.91917
    },
    "name": "Wincrange"
  },
  {
    "country": "LU",
    "id": 2959971,
    "coord": {
      "lat": 50.053329,
      "lon": 5.91917
    },
    "name": "Wincrange"
  },
  {
    "country": "LU",
    "id": 2960293,
    "coord": {
      "lat": 50.053329,
      "lon": 6.06194
    },
    "name": "Marnach"
  },
  {
    "country": "LU",
    "id": 2960691,
    "coord": {
      "lat": 49.781109,
      "lon": 6.27361
    },
    "name": "Christnach"
  },
  {
    "country": "LU",
    "id": 2960107,
    "coord": {
      "lat": 49.471668,
      "lon": 6.36583
    },
    "name": "Schengen"
  },
  {
    "country": "LU",
    "id": 2960829,
    "coord": {
      "lat": 49.75639,
      "lon": 6.16083
    },
    "name": "Angelsberg"
  },
  {
    "country": "LU",
    "id": 2960133,
    "coord": {
      "lat": 49.741669,
      "lon": 6.11444
    },
    "name": "Rollingen"
  },
  {
    "country": "LU",
    "id": 2960387,
    "coord": {
      "lat": 49.694439,
      "lon": 6.06944
    },
    "name": "Keispelt"
  },
  {
    "country": "LU",
    "id": 2960282,
    "coord": {
      "lat": 49.572781,
      "lon": 6.24861
    },
    "name": "Medingen"
  },
  {
    "country": "LU",
    "id": 2960370,
    "coord": {
      "lat": 49.561111,
      "lon": 6.11222
    },
    "name": "Kockelscheuer"
  },
  {
    "country": "LU",
    "id": 2960531,
    "coord": {
      "lat": 49.726391,
      "lon": 6.11694
    },
    "name": "Gosseldange"
  },
  {
    "country": "LU",
    "id": 2960586,
    "coord": {
      "lat": 49.519718,
      "lon": 6.07833
    },
    "name": "Fennange"
  },
  {
    "country": "LU",
    "id": 6693283,
    "coord": {
      "lat": 49.658329,
      "lon": 6.13722
    },
    "name": "Walferdange"
  },
  {
    "country": "LU",
    "id": 2960010,
    "coord": {
      "lat": 49.658329,
      "lon": 6.13722
    },
    "name": "Walferdange"
  },
  {
    "country": "LU",
    "id": 3285197,
    "coord": {
      "lat": 49.849998,
      "lon": 6.01667
    },
    "name": "Feulen"
  },
  {
    "country": "LU",
    "id": 2960577,
    "coord": {
      "lat": 49.85556,
      "lon": 6.04722
    },
    "name": "Niederfeulen"
  },
  {
    "country": "LU",
    "id": 2960537,
    "coord": {
      "lat": 49.66972,
      "lon": 5.96528
    },
    "name": "Goeblange"
  },
  {
    "country": "LU",
    "id": 2960820,
    "coord": {
      "lat": 50.097221,
      "lon": 5.97306
    },
    "name": "Asselborn"
  },
  {
    "country": "LU",
    "id": 2960042,
    "coord": {
      "lat": 49.47583,
      "lon": 6.04222
    },
    "name": "Tetange"
  },
  {
    "country": "LU",
    "id": 2960533,
    "coord": {
      "lat": 49.660278,
      "lon": 5.98167
    },
    "name": "Goetzingen"
  },
  {
    "country": "LU",
    "id": 2960212,
    "coord": {
      "lat": 49.65361,
      "lon": 6.24111
    },
    "name": "Oberanven"
  },
  {
    "country": "LU",
    "id": 2960754,
    "coord": {
      "lat": 49.69722,
      "lon": 6.17056
    },
    "name": "Blaschette"
  },
  {
    "country": "LU",
    "id": 2960410,
    "coord": {
      "lat": 49.584171,
      "lon": 6.17361
    },
    "name": "Itzig"
  },
  {
    "country": "LU",
    "id": 2960672,
    "coord": {
      "lat": 49.535561,
      "lon": 6.14694
    },
    "name": "Crauthem"
  },
  {
    "country": "LU",
    "id": 2960200,
    "coord": {
      "lat": 49.59639,
      "lon": 6.26
    },
    "name": "Oetrange"
  },
  {
    "country": "LU",
    "id": 2960084,
    "coord": {
      "lat": 49.605831,
      "lon": 6.25889
    },
    "name": "Schrassig"
  },
  {
    "country": "LU",
    "id": 2960144,
    "coord": {
      "lat": 49.751671,
      "lon": 5.9575
    },
    "name": "Rippweiler"
  },
  {
    "country": "LU",
    "id": 2960214,
    "coord": {
      "lat": 49.675282,
      "lon": 6.00889
    },
    "name": "Nospelt"
  },
  {
    "country": "LU",
    "id": 6693350,
    "coord": {
      "lat": 49.540829,
      "lon": 6.25972
    },
    "name": "Dalheim"
  },
  {
    "country": "LU",
    "id": 2960665,
    "coord": {
      "lat": 49.540829,
      "lon": 6.25972
    },
    "name": "Dalheim"
  },
  {
    "country": "LU",
    "id": 6693259,
    "coord": {
      "lat": 49.596668,
      "lon": 5.87583
    },
    "name": "Clemency"
  },
  {
    "country": "LU",
    "id": 2960687,
    "coord": {
      "lat": 49.596668,
      "lon": 5.87583
    },
    "name": "Clemency"
  },
  {
    "country": "LU",
    "id": 2960267,
    "coord": {
      "lat": 49.900002,
      "lon": 6.09194
    },
    "name": "Michelau"
  },
  {
    "country": "LU",
    "id": 2960668,
    "coord": {
      "lat": 49.791939,
      "lon": 6.13278
    },
    "name": "Cruchten"
  },
  {
    "country": "LU",
    "id": 2959985,
    "coord": {
      "lat": 49.888062,
      "lon": 6.06778
    },
    "name": "Welscheid"
  },
  {
    "country": "LU",
    "id": 6693289,
    "coord": {
      "lat": 49.762501,
      "lon": 6.24139
    },
    "name": "Heffingen"
  },
  {
    "country": "LU",
    "id": 2960481,
    "coord": {
      "lat": 49.762501,
      "lon": 6.24139
    },
    "name": "Heffingen"
  },
  {
    "country": "LU",
    "id": 2960252,
    "coord": {
      "lat": 49.585281,
      "lon": 6.25556
    },
    "name": "Moutfort"
  },
  {
    "country": "LU",
    "id": 2960605,
    "coord": {
      "lat": 49.765831,
      "lon": 6.22194
    },
    "name": "Ernzen"
  },
  {
    "country": "LU",
    "id": 2960089,
    "coord": {
      "lat": 49.718891,
      "lon": 6.09222
    },
    "name": "Schoenfels"
  },
  {
    "country": "LU",
    "id": 2960165,
    "coord": {
      "lat": 49.749722,
      "lon": 6.08306
    },
    "name": "Reckange-lès-Mersch"
  },
  {
    "country": "LU",
    "id": 6693316,
    "coord": {
      "lat": 49.827782,
      "lon": 5.96722
    },
    "name": "Grosbous"
  },
  {
    "country": "LU",
    "id": 2960510,
    "coord": {
      "lat": 49.827782,
      "lon": 5.96722
    },
    "name": "Grosbous"
  },
  {
    "country": "LU",
    "id": 2960628,
    "coord": {
      "lat": 49.548889,
      "lon": 6.01694
    },
    "name": "Ehlange"
  },
  {
    "country": "LU",
    "id": 6693290,
    "coord": {
      "lat": 49.776939,
      "lon": 6.22111
    },
    "name": "Larochette"
  },
  {
    "country": "LU",
    "id": 2960350,
    "coord": {
      "lat": 49.776939,
      "lon": 6.22111
    },
    "name": "Larochette"
  },
  {
    "country": "LU",
    "id": 2960266,
    "coord": {
      "lat": 49.818611,
      "lon": 6.02028
    },
    "name": "Michelbouch"
  },
  {
    "country": "LU",
    "id": 2960748,
    "coord": {
      "lat": 50.046391,
      "lon": 5.93417
    },
    "name": "Boevange-Clervaux"
  },
  {
    "country": "LU",
    "id": 2960718,
    "coord": {
      "lat": 49.736111,
      "lon": 6.02306
    },
    "name": "Brouch"
  },
  {
    "country": "LU",
    "id": 2960209,
    "coord": {
      "lat": 49.848061,
      "lon": 6.03556
    },
    "name": "Oberfeulen"
  },
  {
    "country": "LU",
    "id": 2960703,
    "coord": {
      "lat": 49.750832,
      "lon": 6.00833
    },
    "name": "Buschdorf"
  },
  {
    "country": "LU",
    "id": 2960008,
    "coord": {
      "lat": 49.854439,
      "lon": 6.095
    },
    "name": "Warken"
  },
  {
    "country": "LU",
    "id": 2960532,
    "coord": {
      "lat": 49.688889,
      "lon": 6.24833
    },
    "name": "Gonderange"
  },
  {
    "country": "LU",
    "id": 2960088,
    "coord": {
      "lat": 49.744171,
      "lon": 6.17083
    },
    "name": "Schoos"
  },
  {
    "country": "LU",
    "id": 2960420,
    "coord": {
      "lat": 49.516941,
      "lon": 6.065
    },
    "name": "Huncherange"
  },
  {
    "country": "LU",
    "id": 2960331,
    "coord": {
      "lat": 49.558891,
      "lon": 5.98056
    },
    "name": "Limpach"
  },
  {
    "country": "LU",
    "id": 2960174,
    "coord": {
      "lat": 49.536388,
      "lon": 6.02944
    },
    "name": "Pontpierre"
  },
  {
    "country": "LU",
    "id": 2960294,
    "coord": {
      "lat": 49.709999,
      "lon": 6.06167
    },
    "name": "Marienthal"
  },
  {
    "country": "LU",
    "id": 2960281,
    "coord": {
      "lat": 49.691109,
      "lon": 6.05917
    },
    "name": "Meispelt"
  },
  {
    "country": "LU",
    "id": 2960415,
    "coord": {
      "lat": 49.697498,
      "lon": 6.1975
    },
    "name": "Imbringen"
  },
  {
    "country": "LU",
    "id": 2960111,
    "coord": {
      "lat": 49.792221,
      "lon": 5.97583
    },
    "name": "Schandel"
  },
  {
    "country": "LU",
    "id": 2960524,
    "coord": {
      "lat": 49.709721,
      "lon": 5.98833
    },
    "name": "Greisch"
  },
  {
    "country": "LU",
    "id": 2960607,
    "coord": {
      "lat": 49.67556,
      "lon": 6.24722
    },
    "name": "Ernster"
  },
  {
    "country": "LU",
    "id": 6693273,
    "coord": {
      "lat": 49.5625,
      "lon": 6.00889
    },
    "name": "Reckange-sur-Mess"
  },
  {
    "country": "LU",
    "id": 2960164,
    "coord": {
      "lat": 49.5625,
      "lon": 6.00889
    },
    "name": "Reckange-sur-Mess"
  },
  {
    "country": "LU",
    "id": 6693261,
    "coord": {
      "lat": 49.616669,
      "lon": 5.9525
    },
    "name": "Garnich"
  },
  {
    "country": "LU",
    "id": 2960549,
    "coord": {
      "lat": 49.616669,
      "lon": 5.9525
    },
    "name": "Garnich"
  },
  {
    "country": "LU",
    "id": 2960441,
    "coord": {
      "lat": 49.713058,
      "lon": 6.05083
    },
    "name": "Hollenfels"
  },
  {
    "country": "LU",
    "id": 2960470,
    "coord": {
      "lat": 49.506672,
      "lon": 6.15056
    },
    "name": "Hellange"
  },
  {
    "country": "LU",
    "id": 2960803,
    "coord": {
      "lat": 49.723331,
      "lon": 6.3025
    },
    "name": "Beidweiler"
  },
  {
    "country": "LU",
    "id": 2960617,
    "coord": {
      "lat": 49.686668,
      "lon": 6.18528
    },
    "name": "Eisenborn"
  },
  {
    "country": "LU",
    "id": 2960083,
    "coord": {
      "lat": 49.797779,
      "lon": 6.15917
    },
    "name": "Schrondweiler"
  },
  {
    "country": "LU",
    "id": 2960378,
    "coord": {
      "lat": 49.646389,
      "lon": 5.91639
    },
    "name": "Kleinbettingen"
  },
  {
    "country": "LU",
    "id": 2960699,
    "coord": {
      "lat": 49.606941,
      "lon": 6.32583
    },
    "name": "Canach"
  },
  {
    "country": "LU",
    "id": 6693343,
    "coord": {
      "lat": 49.661671,
      "lon": 6.34361
    },
    "name": "Flaxweiler"
  },
  {
    "country": "LU",
    "id": 2960568,
    "coord": {
      "lat": 49.661671,
      "lon": 6.34361
    },
    "name": "Flaxweiler"
  },
  {
    "country": "LU",
    "id": 2960312,
    "coord": {
      "lat": 49.65556,
      "lon": 6.43444
    },
    "name": "Machtum"
  },
  {
    "country": "LU",
    "id": 6693312,
    "coord": {
      "lat": 49.830559,
      "lon": 6.09861
    },
    "name": "Schieren"
  },
  {
    "country": "LU",
    "id": 2960104,
    "coord": {
      "lat": 49.830559,
      "lon": 6.09861
    },
    "name": "Schieren"
  },
  {
    "country": "LU",
    "id": 2960166,
    "coord": {
      "lat": 49.65694,
      "lon": 6.23361
    },
    "name": "Rameldange"
  },
  {
    "country": "LU",
    "id": 6693294,
    "coord": {
      "lat": 49.786942,
      "lon": 6.17472
    },
    "name": "Nommern"
  },
  {
    "country": "LU",
    "id": 2960216,
    "coord": {
      "lat": 49.786942,
      "lon": 6.17472
    },
    "name": "Nommern"
  },
  {
    "country": "LU",
    "id": 2960150,
    "coord": {
      "lat": 49.74667,
      "lon": 6.26028
    },
    "name": "Reuland"
  },
  {
    "country": "LU",
    "id": 6693260,
    "coord": {
      "lat": 49.588329,
      "lon": 5.98333
    },
    "name": "Dippach"
  },
  {
    "country": "LU",
    "id": 2960648,
    "coord": {
      "lat": 49.588329,
      "lon": 5.98333
    },
    "name": "Dippach"
  },
  {
    "country": "LU",
    "id": 2960137,
    "coord": {
      "lat": 49.574718,
      "lon": 6.03472
    },
    "name": "Roedgen"
  },
  {
    "country": "LU",
    "id": 2960764,
    "coord": {
      "lat": 49.544441,
      "lon": 6.13778
    },
    "name": "Bivange"
  },
  {
    "country": "LU",
    "id": 2960832,
    "coord": {
      "lat": 49.564999,
      "lon": 6.16361
    },
    "name": "Alzingen"
  },
  {
    "country": "LU",
    "id": 2960047,
    "coord": {
      "lat": 49.561939,
      "lon": 6.22167
    },
    "name": "Syren"
  },
  {
    "country": "LU",
    "id": 2960519,
    "coord": {
      "lat": 49.853062,
      "lon": 5.91583
    },
    "name": "Grevels"
  },
  {
    "country": "LU",
    "id": 2960735,
    "coord": {
      "lat": 49.697781,
      "lon": 6.21972
    },
    "name": "Bourglinster"
  },
  {
    "country": "LU",
    "id": 2960588,
    "coord": {
      "lat": 49.77417,
      "lon": 5.95556
    },
    "name": "Everlange"
  },
  {
    "country": "LU",
    "id": 2960217,
    "coord": {
      "lat": 49.509171,
      "lon": 6.05611
    },
    "name": "Noertzange"
  },
  {
    "country": "LU",
    "id": 2960062,
    "coord": {
      "lat": 49.830002,
      "lon": 6.17194
    },
    "name": "Stegen"
  },
  {
    "country": "LU",
    "id": 2960649,
    "coord": {
      "lat": 49.853611,
      "lon": 6.31917
    },
    "name": "Dillingen"
  },
  {
    "country": "LU",
    "id": 2960799,
    "coord": {
      "lat": 49.727219,
      "lon": 6.39389
    },
    "name": "Berbourg"
  },
  {
    "country": "LU",
    "id": 2960816,
    "coord": {
      "lat": 50.145828,
      "lon": 5.98389
    },
    "name": "Basbellain"
  },
  {
    "country": "LU",
    "id": 2960501,
    "coord": {
      "lat": 50.108059,
      "lon": 5.92333
    },
    "name": "Hachiville"
  },
  {
    "country": "LU",
    "id": 6693267,
    "coord": {
      "lat": 49.701111,
      "lon": 5.96722
    },
    "name": "Septfontaines"
  },
  {
    "country": "LU",
    "id": 2960070,
    "coord": {
      "lat": 49.701111,
      "lon": 5.96722
    },
    "name": "Septfontaines"
  },
  {
    "country": "LU",
    "id": 2960702,
    "coord": {
      "lat": 49.827221,
      "lon": 5.93583
    },
    "name": "Buschrodt"
  },
  {
    "country": "LU",
    "id": 6693349,
    "coord": {
      "lat": 49.485279,
      "lon": 6.32306
    },
    "name": "Burmerange"
  },
  {
    "country": "LU",
    "id": 2960704,
    "coord": {
      "lat": 49.485279,
      "lon": 6.32306
    },
    "name": "Burmerange"
  },
  {
    "country": "LU",
    "id": 6693295,
    "coord": {
      "lat": 49.717781,
      "lon": 6.01028
    },
    "name": "Tuntange"
  },
  {
    "country": "LU",
    "id": 2960027,
    "coord": {
      "lat": 49.717781,
      "lon": 6.01028
    },
    "name": "Tuntange"
  },
  {
    "country": "LU",
    "id": 2960226,
    "coord": {
      "lat": 49.75528,
      "lon": 5.91222
    },
    "name": "Niederpallen"
  },
  {
    "country": "LU",
    "id": 6693326,
    "coord": {
      "lat": 49.888889,
      "lon": 5.97889
    },
    "name": "Heiderscheid"
  },
  {
    "country": "LU",
    "id": 2960478,
    "coord": {
      "lat": 49.888889,
      "lon": 5.97889
    },
    "name": "Heiderscheid"
  },
  {
    "country": "LU",
    "id": 2960427,
    "coord": {
      "lat": 49.650829,
      "lon": 6.235
    },
    "name": "Hostert"
  },
  {
    "country": "LU",
    "id": 2960094,
    "coord": {
      "lat": 49.93306,
      "lon": 6.06361
    },
    "name": "Schlindermanderscheid"
  },
  {
    "country": "LU",
    "id": 6693319,
    "coord": {
      "lat": 49.769718,
      "lon": 5.98222
    },
    "name": "Useldange"
  },
  {
    "country": "LU",
    "id": 2960022,
    "coord": {
      "lat": 49.769718,
      "lon": 5.98222
    },
    "name": "Useldange"
  },
  {
    "country": "LU",
    "id": 6693268,
    "coord": {
      "lat": 49.661388,
      "lon": 5.91917
    },
    "name": "Steinfort"
  },
  {
    "country": "LU",
    "id": 2960061,
    "coord": {
      "lat": 49.661388,
      "lon": 5.91917
    },
    "name": "Steinfort"
  },
  {
    "country": "LU",
    "id": 2960358,
    "coord": {
      "lat": 49.546391,
      "lon": 5.85639
    },
    "name": "Lamadelaine"
  },
  {
    "country": "LU",
    "id": 2960797,
    "coord": {
      "lat": 49.540279,
      "lon": 6.12917
    },
    "name": "Berchem"
  },
  {
    "country": "LU",
    "id": 6693331,
    "coord": {
      "lat": 49.915562,
      "lon": 6.19611
    },
    "name": "Tandel"
  },
  {
    "country": "LU",
    "id": 2960561,
    "coord": {
      "lat": 49.915562,
      "lon": 6.19611
    },
    "name": "Fouhren"
  },
  {
    "country": "LU",
    "id": 6693270,
    "coord": {
      "lat": 49.514999,
      "lon": 6.19167
    },
    "name": "Frisange"
  },
  {
    "country": "LU",
    "id": 2960556,
    "coord": {
      "lat": 49.514999,
      "lon": 6.19167
    },
    "name": "Frisange"
  },
  {
    "country": "LU",
    "id": 2960171,
    "coord": {
      "lat": 49.80167,
      "lon": 5.93917
    },
    "name": "Pratz"
  },
  {
    "country": "LU",
    "id": 6693357,
    "coord": {
      "lat": 49.523891,
      "lon": 6.34222
    },
    "name": "Wellenstein"
  },
  {
    "country": "LU",
    "id": 2959987,
    "coord": {
      "lat": 49.523891,
      "lon": 6.34222
    },
    "name": "Wellenstein"
  },
  {
    "country": "LU",
    "id": 2960843,
    "coord": {
      "lat": 49.533329,
      "lon": 5.9
    },
    "name": "Aciérie"
  },
  {
    "country": "LU",
    "id": 2960228,
    "coord": {
      "lat": 49.53611,
      "lon": 5.89306
    },
    "name": "Niedercorn"
  },
  {
    "country": "LU",
    "id": 2960085,
    "coord": {
      "lat": 49.5825,
      "lon": 5.95639
    },
    "name": "Schouweiler"
  },
  {
    "country": "LU",
    "id": 6693353,
    "coord": {
      "lat": 49.488609,
      "lon": 6.35167
    },
    "name": "Remerschen"
  },
  {
    "country": "LU",
    "id": 2960155,
    "coord": {
      "lat": 49.488609,
      "lon": 6.35167
    },
    "name": "Remerschen"
  },
  {
    "country": "LU",
    "id": 2960201,
    "coord": {
      "lat": 50.01667,
      "lon": 5.86083
    },
    "name": "Oberwampach"
  },
  {
    "country": "LU",
    "id": 6693356,
    "coord": {
      "lat": 49.555,
      "lon": 6.2875
    },
    "name": "Waldbredimus"
  },
  {
    "country": "LU",
    "id": 2960013,
    "coord": {
      "lat": 49.555,
      "lon": 6.2875
    },
    "name": "Waldbredimus"
  },
  {
    "country": "LU",
    "id": 2960261,
    "coord": {
      "lat": 49.768059,
      "lon": 6.11667
    },
    "name": "Moesdorf"
  },
  {
    "country": "LU",
    "id": 2960250,
    "coord": {
      "lat": 49.680279,
      "lon": 6.13
    },
    "name": "Mullendorf"
  },
  {
    "country": "LU",
    "id": 2960469,
    "coord": {
      "lat": 49.687222,
      "lon": 6.14361
    },
    "name": "Helmdange"
  },
  {
    "country": "LU",
    "id": 2960576,
    "coord": {
      "lat": 49.532501,
      "lon": 6.24833
    },
    "name": "Filsdorf"
  },
  {
    "country": "LU",
    "id": 2960072,
    "coord": {
      "lat": 49.641941,
      "lon": 6.23944
    },
    "name": "Senningen"
  },
  {
    "country": "LU",
    "id": 2960746,
    "coord": {
      "lat": 49.68306,
      "lon": 6.14167
    },
    "name": "Bofferdange"
  },
  {
    "country": "LU",
    "id": 2960141,
    "coord": {
      "lat": 49.682499,
      "lon": 6.28917
    },
    "name": "Rodenbourg"
  },
  {
    "country": "LU",
    "id": 6693340,
    "coord": {
      "lat": 49.788891,
      "lon": 6.28667
    },
    "name": "Waldbillig"
  },
  {
    "country": "LU",
    "id": 2960014,
    "coord": {
      "lat": 49.788891,
      "lon": 6.28667
    },
    "name": "Waldbillig"
  },
  {
    "country": "LU",
    "id": 2959980,
    "coord": {
      "lat": 49.541389,
      "lon": 6.02167
    },
    "name": "Wickrange"
  },
  {
    "country": "LU",
    "id": 6693307,
    "coord": {
      "lat": 49.864719,
      "lon": 6.11472
    },
    "name": "Erpeldange"
  },
  {
    "country": "LU",
    "id": 2960601,
    "coord": {
      "lat": 49.864719,
      "lon": 6.11472
    },
    "name": "Erpeldange-sur-Sûre"
  },
  {
    "country": "LU",
    "id": 6693318,
    "coord": {
      "lat": 49.727219,
      "lon": 5.98639
    },
    "name": "Saeul"
  },
  {
    "country": "LU",
    "id": 2960120,
    "coord": {
      "lat": 49.727219,
      "lon": 5.98639
    },
    "name": "Saeul"
  },
  {
    "country": "LU",
    "id": 6693262,
    "coord": {
      "lat": 49.68861,
      "lon": 5.91472
    },
    "name": "Hobscheid"
  },
  {
    "country": "LU",
    "id": 2960453,
    "coord": {
      "lat": 49.68861,
      "lon": 5.91472
    },
    "name": "Hobscheid"
  },
  {
    "country": "LU",
    "id": 2960539,
    "coord": {
      "lat": 49.728889,
      "lon": 6.23194
    },
    "name": "Godbrange"
  },
  {
    "country": "LU",
    "id": 2960833,
    "coord": {
      "lat": 49.510559,
      "lon": 6.25722
    },
    "name": "Altwies"
  },
  {
    "country": "LU",
    "id": 6693348,
    "coord": {
      "lat": 49.55389,
      "lon": 6.32917
    },
    "name": "Bous"
  },
  {
    "country": "LU",
    "id": 2960732,
    "coord": {
      "lat": 49.55389,
      "lon": 6.32917
    },
    "name": "Bous"
  },
  {
    "country": "LU",
    "id": 6693298,
    "coord": {
      "lat": 49.97472,
      "lon": 6.05417
    },
    "name": "Consthum"
  },
  {
    "country": "LU",
    "id": 2960674,
    "coord": {
      "lat": 49.97472,
      "lon": 6.05417
    },
    "name": "Consthum"
  },
  {
    "country": "LU",
    "id": 2960273,
    "coord": {
      "lat": 49.95472,
      "lon": 6.10694
    },
    "name": "Merscheid-lès-Putscheid"
  },
  {
    "country": "LU",
    "id": 2960598,
    "coord": {
      "lat": 49.886108,
      "lon": 5.93667
    },
    "name": "Eschdorf"
  },
  {
    "country": "LU",
    "id": 2960491,
    "coord": {
      "lat": 49.931389,
      "lon": 5.79
    },
    "name": "Harlange"
  },
  {
    "country": "LU",
    "id": 2960676,
    "coord": {
      "lat": 49.768608,
      "lon": 5.82
    },
    "name": "Colpach-Haut"
  },
  {
    "country": "LU",
    "id": 2960523,
    "coord": {
      "lat": 49.583889,
      "lon": 6.35917
    },
    "name": "Greiveldange"
  },
  {
    "country": "LU",
    "id": 2960145,
    "coord": {
      "lat": 49.734169,
      "lon": 6.31944
    },
    "name": "Rippig"
  },
  {
    "country": "LU",
    "id": 2960497,
    "coord": {
      "lat": 49.8125,
      "lon": 6.2825
    },
    "name": "Haller"
  },
  {
    "country": "LU",
    "id": 6693305,
    "coord": {
      "lat": 49.91,
      "lon": 6.06722
    },
    "name": "Bourscheid"
  },
  {
    "country": "LU",
    "id": 2960734,
    "coord": {
      "lat": 49.91,
      "lon": 6.06722
    },
    "name": "Bourscheid"
  },
  {
    "country": "LU",
    "id": 6693321,
    "coord": {
      "lat": 49.83667,
      "lon": 5.90639
    },
    "name": "Wahl"
  },
  {
    "country": "LU",
    "id": 2960017,
    "coord": {
      "lat": 49.83667,
      "lon": 5.90639
    },
    "name": "Wahl"
  },
  {
    "country": "LU",
    "id": 2960414,
    "coord": {
      "lat": 49.85194,
      "lon": 6.13472
    },
    "name": "Ingeldorf"
  },
  {
    "country": "LU",
    "id": 2960485,
    "coord": {
      "lat": 49.577499,
      "lon": 5.91083
    },
    "name": "Hautcharage"
  },
  {
    "country": "LU",
    "id": 2960399,
    "coord": {
      "lat": 49.63139,
      "lon": 5.91778
    },
    "name": "Kahler"
  },
  {
    "country": "LU",
    "id": 2960157,
    "coord": {
      "lat": 49.797218,
      "lon": 5.95389
    },
    "name": "Reimberg"
  },
  {
    "country": "LU",
    "id": 2960190,
    "coord": {
      "lat": 49.524441,
      "lon": 6.12972
    },
    "name": "Peppange"
  },
  {
    "country": "LU",
    "id": 6693306,
    "coord": {
      "lat": 49.829441,
      "lon": 6.22278
    },
    "name": "Ermsdorf"
  },
  {
    "country": "LU",
    "id": 2960608,
    "coord": {
      "lat": 49.829441,
      "lon": 6.22278
    },
    "name": "Ermsdorf"
  },
  {
    "country": "LU",
    "id": 6693313,
    "coord": {
      "lat": 49.73056,
      "lon": 5.88722
    },
    "name": "Beckerich"
  },
  {
    "country": "LU",
    "id": 2960806,
    "coord": {
      "lat": 49.73056,
      "lon": 5.88722
    },
    "name": "Beckerich"
  },
  {
    "country": "LU",
    "id": 2960766,
    "coord": {
      "lat": 49.857498,
      "lon": 5.825
    },
    "name": "Bilsdorf"
  },
  {
    "country": "LU",
    "id": 6693284,
    "coord": {
      "lat": 49.540829,
      "lon": 6.20083
    },
    "name": "Weiler-la-Tour"
  },
  {
    "country": "LU",
    "id": 2959996,
    "coord": {
      "lat": 49.540829,
      "lon": 6.20083
    },
    "name": "Weiler-la-Tour"
  },
  {
    "country": "LU",
    "id": 2960219,
    "coord": {
      "lat": 49.742222,
      "lon": 5.92611
    },
    "name": "Noerdange"
  },
  {
    "country": "LU",
    "id": 2960543,
    "coord": {
      "lat": 49.86694,
      "lon": 6.1825
    },
    "name": "Gilsdorf"
  },
  {
    "country": "LU",
    "id": 2960573,
    "coord": {
      "lat": 49.603611,
      "lon": 5.90083
    },
    "name": "Fingig"
  },
  {
    "country": "LU",
    "id": 6693335,
    "coord": {
      "lat": 49.746109,
      "lon": 6.36361
    },
    "name": "Bech"
  },
  {
    "country": "LU",
    "id": 2960807,
    "coord": {
      "lat": 49.746109,
      "lon": 6.36361
    },
    "name": "Bech"
  },
  {
    "country": "LU",
    "id": 2960034,
    "coord": {
      "lat": 49.570831,
      "lon": 6.28056
    },
    "name": "Trintange"
  },
  {
    "country": "LU",
    "id": 6693334,
    "coord": {
      "lat": 49.835831,
      "lon": 6.29167
    },
    "name": "Beaufort"
  },
  {
    "country": "LU",
    "id": 2960809,
    "coord": {
      "lat": 49.835831,
      "lon": 6.29167
    },
    "name": "Beaufort"
  },
  {
    "country": "LU",
    "id": 2960486,
    "coord": {
      "lat": 50.15667,
      "lon": 5.97861
    },
    "name": "Hautbellain"
  },
  {
    "country": "LU",
    "id": 2959961,
    "coord": {
      "lat": 49.828609,
      "lon": 5.76472
    },
    "name": "Wolwelange"
  },
  {
    "country": "LU",
    "id": 2960195,
    "coord": {
      "lat": 49.78389,
      "lon": 5.90444
    },
    "name": "Ospern"
  },
  {
    "country": "LU",
    "id": 2960643,
    "coord": {
      "lat": 50.062222,
      "lon": 5.95583
    },
    "name": "Doennange"
  },
  {
    "country": "LU",
    "id": 2960454,
    "coord": {
      "lat": 49.60722,
      "lon": 5.93222
    },
    "name": "Hivange"
  },
  {
    "country": "LU",
    "id": 2960327,
    "coord": {
      "lat": 49.91861,
      "lon": 6.08667
    },
    "name": "Lipperscheid"
  },
  {
    "country": "LU",
    "id": 2960421,
    "coord": {
      "lat": 50.164719,
      "lon": 6.015
    },
    "name": "Huldange"
  },
  {
    "country": "LU",
    "id": 2960667,
    "coord": {
      "lat": 49.93528,
      "lon": 5.97583
    },
    "name": "Dahl"
  },
  {
    "country": "LU",
    "id": 2960583,
    "coord": {
      "lat": 49.531109,
      "lon": 5.84722
    },
    "name": "Roudenhaff"
  },
  {
    "country": "LU",
    "id": 6693322,
    "coord": {
      "lat": 49.887779,
      "lon": 5.81639
    },
    "name": "Boulaide"
  },
  {
    "country": "LU",
    "id": 2960737,
    "coord": {
      "lat": 49.887779,
      "lon": 5.81639
    },
    "name": "Boulaide"
  },
  {
    "country": "LU",
    "id": 2960424,
    "coord": {
      "lat": 49.7225,
      "lon": 5.90722
    },
    "name": "Hovelange"
  },
  {
    "country": "LU",
    "id": 6693355,
    "coord": {
      "lat": 49.562778,
      "lon": 6.36444
    },
    "name": "Stadtbredimus"
  },
  {
    "country": "LU",
    "id": 2960063,
    "coord": {
      "lat": 49.562778,
      "lon": 6.36444
    },
    "name": "Stadtbredimus"
  },
  {
    "country": "LU",
    "id": 2960176,
    "coord": {
      "lat": 49.791111,
      "lon": 5.93472
    },
    "name": "Platen"
  },
  {
    "country": "LU",
    "id": 2960780,
    "coord": {
      "lat": 49.79528,
      "lon": 5.94111
    },
    "name": "Bettborn"
  },
  {
    "country": "LU",
    "id": 6693330,
    "coord": {
      "lat": 49.967781,
      "lon": 5.89028
    },
    "name": "Winseler"
  },
  {
    "country": "LU",
    "id": 2959968,
    "coord": {
      "lat": 49.967781,
      "lon": 5.89028
    },
    "name": "Winseler"
  },
  {
    "country": "LU",
    "id": 2960205,
    "coord": {
      "lat": 49.730282,
      "lon": 5.84389
    },
    "name": "Oberpallen"
  },
  {
    "country": "LU",
    "id": 2960488,
    "coord": {
      "lat": 49.548611,
      "lon": 6.20917
    },
    "name": "Hassel"
  },
  {
    "country": "LU",
    "id": 2960026,
    "coord": {
      "lat": 49.628609,
      "lon": 6.27806
    },
    "name": "Uebersyren"
  },
  {
    "country": "LU",
    "id": 2960319,
    "coord": {
      "lat": 50.060001,
      "lon": 5.94194
    },
    "name": "Lullange"
  },
  {
    "country": "LU",
    "id": 2960158,
    "coord": {
      "lat": 49.773609,
      "lon": 5.92806
    },
    "name": "Reichlange"
  },
  {
    "country": "LU",
    "id": 6693339,
    "coord": {
      "lat": 49.797779,
      "lon": 6.50417
    },
    "name": "Rosport"
  },
  {
    "country": "LU",
    "id": 2960127,
    "coord": {
      "lat": 49.797779,
      "lon": 6.50417
    },
    "name": "Rosport"
  },
  {
    "country": "LU",
    "id": 6693336,
    "coord": {
      "lat": 49.81361,
      "lon": 6.35028
    },
    "name": "Berdorf"
  },
  {
    "country": "LU",
    "id": 2960796,
    "coord": {
      "lat": 49.81361,
      "lon": 6.35028
    },
    "name": "Berdorf"
  },
  {
    "country": "LU",
    "id": 3283390,
    "coord": {
      "lat": 49.53083,
      "lon": 6.355
    },
    "name": "Bech-Kleinmacher"
  },
  {
    "country": "LU",
    "id": 2960779,
    "coord": {
      "lat": 49.917221,
      "lon": 6.22778
    },
    "name": "Bettel"
  },
  {
    "country": "LU",
    "id": 6693337,
    "coord": {
      "lat": 49.77306,
      "lon": 6.33833
    },
    "name": "Consdorf"
  },
  {
    "country": "LU",
    "id": 2960675,
    "coord": {
      "lat": 49.77306,
      "lon": 6.33833
    },
    "name": "Consdorf"
  },
  {
    "country": "LU",
    "id": 2959988,
    "coord": {
      "lat": 49.538059,
      "lon": 6.28417
    },
    "name": "Welfrange"
  },
  {
    "country": "LU",
    "id": 2960329,
    "coord": {
      "lat": 49.56583,
      "lon": 5.88667
    },
    "name": "Linger"
  },
  {
    "country": "LU",
    "id": 6693327,
    "coord": {
      "lat": 49.952782,
      "lon": 6.02
    },
    "name": "Kautenbach"
  },
  {
    "country": "LU",
    "id": 2960393,
    "coord": {
      "lat": 49.952782,
      "lon": 6.02
    },
    "name": "Kautenbach"
  },
  {
    "country": "LU",
    "id": 6693299,
    "coord": {
      "lat": 50.096111,
      "lon": 6.08806
    },
    "name": "Heinerscheid"
  },
  {
    "country": "LU",
    "id": 2960475,
    "coord": {
      "lat": 50.096111,
      "lon": 6.08806
    },
    "name": "Heinerscheid"
  },
  {
    "country": "LU",
    "id": 2960366,
    "coord": {
      "lat": 49.838058,
      "lon": 5.84028
    },
    "name": "Koetschette"
  },
  {
    "country": "LU",
    "id": 2960771,
    "coord": {
      "lat": 49.626389,
      "lon": 6.33694
    },
    "name": "Beyren"
  },
  {
    "country": "LU",
    "id": 6693302,
    "coord": {
      "lat": 50.137218,
      "lon": 6.075
    },
    "name": "Weiswampach"
  },
  {
    "country": "LU",
    "id": 2959989,
    "coord": {
      "lat": 50.137218,
      "lon": 6.075
    },
    "name": "Weiswampach"
  },
  {
    "country": "LU",
    "id": 6693351,
    "coord": {
      "lat": 49.59861,
      "lon": 6.36806
    },
    "name": "Lenningen"
  },
  {
    "country": "LU",
    "id": 2960337,
    "coord": {
      "lat": 49.59861,
      "lon": 6.36806
    },
    "name": "Lenningen"
  },
  {
    "country": "LU",
    "id": 2960706,
    "coord": {
      "lat": 49.88306,
      "lon": 6.09889
    },
    "name": "Burden"
  },
  {
    "country": "LU",
    "id": 2960055,
    "coord": {
      "lat": 49.96722,
      "lon": 6.16778
    },
    "name": "Stolzembourg"
  },
  {
    "country": "LU",
    "id": 2960108,
    "coord": {
      "lat": 49.775002,
      "lon": 6.36056
    },
    "name": "Scheidgen"
  },
  {
    "country": "LU",
    "id": 2960044,
    "coord": {
      "lat": 49.950562,
      "lon": 5.79611
    },
    "name": "Tarchamps"
  },
  {
    "country": "LU",
    "id": 2959995,
    "coord": {
      "lat": 49.963612,
      "lon": 6.12417
    },
    "name": "Weiler-lès-Putscheid"
  },
  {
    "country": "LU",
    "id": 2960221,
    "coord": {
      "lat": 49.947498,
      "lon": 5.97917
    },
    "name": "Nocher"
  },
  {
    "country": "LU",
    "id": 2960813,
    "coord": {
      "lat": 49.891941,
      "lon": 6.16528
    },
    "name": "Bastendorf"
  },
  {
    "country": "LU",
    "id": 6693315,
    "coord": {
      "lat": 49.83083,
      "lon": 5.845
    },
    "name": "Rambrouch"
  },
  {
    "country": "LU",
    "id": 2960167,
    "coord": {
      "lat": 49.83083,
      "lon": 5.845
    },
    "name": "Rambrouch"
  },
  {
    "country": "LU",
    "id": 6693311,
    "coord": {
      "lat": 49.86861,
      "lon": 6.26778
    },
    "name": "Reisdorf"
  },
  {
    "country": "LU",
    "id": 2960156,
    "coord": {
      "lat": 49.86861,
      "lon": 6.26778
    },
    "name": "Reisdorf"
  },
  {
    "country": "LU",
    "id": 2960731,
    "coord": {
      "lat": 50.083889,
      "lon": 5.9925
    },
    "name": "Boxhorn"
  },
  {
    "country": "LU",
    "id": 2960822,
    "coord": {
      "lat": 49.55278,
      "lon": 6.31583
    },
    "name": "Assel"
  },
  {
    "country": "LU",
    "id": 6693345,
    "coord": {
      "lat": 49.702782,
      "lon": 6.42639
    },
    "name": "Manternach"
  },
  {
    "country": "LU",
    "id": 2960296,
    "coord": {
      "lat": 49.702782,
      "lon": 6.42639
    },
    "name": "Manternach"
  },
  {
    "country": "LU",
    "id": 2960262,
    "coord": {
      "lat": 49.738331,
      "lon": 6.5
    },
    "name": "Moersdorf"
  },
  {
    "country": "LU",
    "id": 2960563,
    "coord": {
      "lat": 49.814171,
      "lon": 5.87472
    },
    "name": "Folschette"
  },
  {
    "country": "LU",
    "id": 2960769,
    "coord": {
      "lat": 49.851669,
      "lon": 5.79333
    },
    "name": "Bigonville"
  },
  {
    "country": "LU",
    "id": 2960180,
    "coord": {
      "lat": 49.994438,
      "lon": 6.01306
    },
    "name": "Pintsch"
  },
  {
    "country": "LU",
    "id": 2960613,
    "coord": {
      "lat": 49.50528,
      "lon": 6.31639
    },
    "name": "Elvange-lès-Burmerange"
  },
  {
    "country": "LU",
    "id": 2960373,
    "coord": {
      "lat": 50.013329,
      "lon": 5.96472
    },
    "name": "Knaphoscheid"
  },
  {
    "country": "LU",
    "id": 2960436,
    "coord": {
      "lat": 49.985001,
      "lon": 6.07333
    },
    "name": "Holzthum"
  },
  {
    "country": "LU",
    "id": 2960834,
    "coord": {
      "lat": 49.750092,
      "lon": 6.32656
    },
    "name": "Altrier"
  },
  {
    "country": "LU",
    "id": 2959983,
    "coord": {
      "lat": 50.15556,
      "lon": 6.05333
    },
    "name": "Wemperhardt"
  },
  {
    "country": "LU",
    "id": 6693287,
    "coord": {
      "lat": 49.77528,
      "lon": 6.01556
    },
    "name": "Boevange-sur-Attert"
  },
  {
    "country": "LU",
    "id": 2960747,
    "coord": {
      "lat": 49.77528,
      "lon": 6.01556
    },
    "name": "Boevange-sur-Attert"
  },
  {
    "country": "LU",
    "id": 2959967,
    "coord": {
      "lat": 49.501389,
      "lon": 6.35278
    },
    "name": "Wintrange"
  },
  {
    "country": "LU",
    "id": 2960736,
    "coord": {
      "lat": 49.701389,
      "lon": 6.01889
    },
    "name": "Bour"
  },
  {
    "country": "LU",
    "id": 2960413,
    "coord": {
      "lat": 49.901669,
      "lon": 5.88472
    },
    "name": "Insenborn"
  },
  {
    "country": "LU",
    "id": 2960149,
    "coord": {
      "lat": 50.057781,
      "lon": 6.0375
    },
    "name": "Reuler"
  },
  {
    "country": "LU",
    "id": 2960109,
    "coord": {
      "lat": 49.893608,
      "lon": 6.04472
    },
    "name": "Scheidel"
  },
  {
    "country": "LU",
    "id": 2960011,
    "coord": {
      "lat": 49.92667,
      "lon": 6.17361
    },
    "name": "Walsdorf"
  },
  {
    "country": "LU",
    "id": 2960638,
    "coord": {
      "lat": 50.01778,
      "lon": 6.00611
    },
    "name": "Drauffelt"
  },
  {
    "country": "LU",
    "id": 2960625,
    "coord": {
      "lat": 49.59972,
      "lon": 6.38778
    },
    "name": "Ehnen"
  },
  {
    "country": "LU",
    "id": 2960213,
    "coord": {
      "lat": 49.941391,
      "lon": 5.88278
    },
    "name": "Nothum"
  },
  {
    "country": "LU",
    "id": 2960814,
    "coord": {
      "lat": 49.898331,
      "lon": 5.82028
    },
    "name": "Baschleiden"
  },
  {
    "country": "LU",
    "id": 2960056,
    "coord": {
      "lat": 50.078892,
      "lon": 5.95806
    },
    "name": "Stockem"
  },
  {
    "country": "LU",
    "id": 2960660,
    "coord": {
      "lat": 50.014999,
      "lon": 5.88972
    },
    "name": "Derenbach"
  },
  {
    "country": "LU",
    "id": 2960194,
    "coord": {
      "lat": 49.778889,
      "lon": 6.44139
    },
    "name": "Osweiler"
  },
  {
    "country": "LU",
    "id": 2960641,
    "coord": {
      "lat": 50.03611,
      "lon": 6.07139
    },
    "name": "Dorscheid"
  },
  {
    "country": "LU",
    "id": 2960694,
    "coord": {
      "lat": 49.589439,
      "lon": 6.10694
    },
    "name": "Cessange"
  },
  {
    "country": "LU",
    "id": 2960016,
    "coord": {
      "lat": 49.985279,
      "lon": 6.12667
    },
    "name": "Wahlhausen"
  },
  {
    "country": "LU",
    "id": 2960750,
    "coord": {
      "lat": 50.012218,
      "lon": 6.05278
    },
    "name": "Bockholz-lès-Hosingen"
  },
  {
    "country": "LU",
    "id": 6693301,
    "coord": {
      "lat": 50.033611,
      "lon": 6.03861
    },
    "name": "Munshausen"
  },
  {
    "country": "LU",
    "id": 2960247,
    "coord": {
      "lat": 50.033611,
      "lon": 6.03861
    },
    "name": "Munshausen"
  },
  {
    "country": "LU",
    "id": 2960730,
    "coord": {
      "lat": 50.021389,
      "lon": 5.91139
    },
    "name": "Brachtenbach"
  },
  {
    "country": "LU",
    "id": 6693328,
    "coord": {
      "lat": 49.877499,
      "lon": 5.88722
    },
    "name": "Neunhausen"
  },
  {
    "country": "LU",
    "id": 2960234,
    "coord": {
      "lat": 49.877499,
      "lon": 5.88722
    },
    "name": "Neunhausen"
  },
  {
    "country": "LU",
    "id": 2960139,
    "coord": {
      "lat": 50.036671,
      "lon": 6.13111
    },
    "name": "Rodershausen"
  },
  {
    "country": "LU",
    "id": 2960244,
    "coord": {
      "lat": 49.789169,
      "lon": 5.85778
    },
    "name": "Nagem"
  },
  {
    "country": "LU",
    "id": 2960136,
    "coord": {
      "lat": 49.56778,
      "lon": 6.285
    },
    "name": "Roedt"
  },
  {
    "country": "LU",
    "id": 2960068,
    "coord": {
      "lat": 50.010559,
      "lon": 6.02667
    },
    "name": "Siebenaler"
  },
  {
    "country": "LU",
    "id": 2960318,
    "coord": {
      "lat": 49.909439,
      "lon": 5.89083
    },
    "name": "Lultzhausen"
  },
  {
    "country": "LU",
    "id": 6693332,
    "coord": {
      "lat": 49.960831,
      "lon": 6.14306
    },
    "name": "Putscheid"
  },
  {
    "country": "LU",
    "id": 2960168,
    "coord": {
      "lat": 49.960831,
      "lon": 6.14306
    },
    "name": "Putscheid"
  },
  {
    "country": "LU",
    "id": 2960542,
    "coord": {
      "lat": 49.76722,
      "lon": 6.49889
    },
    "name": "Girst"
  },
  {
    "country": "LU",
    "id": 2960784,
    "coord": {
      "lat": 49.743889,
      "lon": 6.115
    },
    "name": "Berschbach"
  },
  {
    "country": "LU",
    "id": 2960844,
    "coord": {
      "lat": 49.533611,
      "lon": 6.08083
    },
    "name": "Abweiler"
  },
  {
    "country": "LU",
    "id": 2960045,
    "coord": {
      "lat": 49.897499,
      "lon": 6.18333
    },
    "name": "Tandel"
  },
  {
    "country": "LU",
    "id": 2960050,
    "coord": {
      "lat": 49.903061,
      "lon": 5.78
    },
    "name": "Surré"
  },
  {
    "country": "LU",
    "id": 2960140,
    "coord": {
      "lat": 50.055828,
      "lon": 6.08361
    },
    "name": "Roder"
  },
  {
    "country": "LU",
    "id": 2960758,
    "coord": {
      "lat": 49.960281,
      "lon": 6.19222
    },
    "name": "Bivels"
  },
  {
    "country": "LU",
    "id": 6693329,
    "coord": {
      "lat": 49.988892,
      "lon": 5.99917
    },
    "name": "Wilwerwiltz"
  },
  {
    "country": "LU",
    "id": 2959972,
    "coord": {
      "lat": 49.988892,
      "lon": 5.99917
    },
    "name": "Wilwerwiltz"
  },
  {
    "country": "LU",
    "id": 2960359,
    "coord": {
      "lat": 49.87056,
      "lon": 5.90306
    },
    "name": "Kuborn"
  },
  {
    "country": "LU",
    "id": 2960128,
    "coord": {
      "lat": 49.662498,
      "lon": 6.30278
    },
    "name": "Roodt-sur-Syre"
  },
  {
    "country": "LU",
    "id": 2959997,
    "coord": {
      "lat": 49.833328,
      "lon": 6.38278
    },
    "name": "Weilerbach"
  },
  {
    "country": "LU",
    "id": 2960343,
    "coord": {
      "lat": 50.160831,
      "lon": 6.10889
    },
    "name": "Leithum"
  },
  {
    "country": "LU",
    "id": 2960752,
    "coord": {
      "lat": 49.738331,
      "lon": 6.26722
    },
    "name": "Blumenthal"
  },
  {
    "country": "LU",
    "id": 2960278,
    "coord": {
      "lat": 49.962502,
      "lon": 5.98167
    },
    "name": "Merkholz"
  },
  {
    "country": "LU",
    "id": 2960600,
    "coord": {
      "lat": 49.57444,
      "lon": 6.27556
    },
    "name": "Ersange"
  },
  {
    "country": "LU",
    "id": 2960609,
    "coord": {
      "lat": 49.84444,
      "lon": 6.24972
    },
    "name": "Eppeldorf"
  },
  {
    "country": "LU",
    "id": 2960467,
    "coord": {
      "lat": 49.73444,
      "lon": 6.33611
    },
    "name": "Hemstal"
  },
  {
    "country": "LU",
    "id": 2960340,
    "coord": {
      "lat": 49.983608,
      "lon": 6.01444
    },
    "name": "Lellingen"
  },
  {
    "country": "LU",
    "id": 2960211,
    "coord": {
      "lat": 49.646671,
      "lon": 6.40056
    },
    "name": "Oberdonven"
  },
  {
    "country": "LU",
    "id": 6693314,
    "coord": {
      "lat": 49.763889,
      "lon": 5.85722
    },
    "name": "Ell"
  },
  {
    "country": "LU",
    "id": 2960616,
    "coord": {
      "lat": 49.763889,
      "lon": 5.85722
    },
    "name": "Ell"
  },
  {
    "country": "LU",
    "id": 2960333,
    "coord": {
      "lat": 49.91,
      "lon": 5.8775
    },
    "name": "Liefrange"
  },
  {
    "country": "LU",
    "id": 2960615,
    "coord": {
      "lat": 49.52,
      "lon": 6.29833
    },
    "name": "Ellange"
  },
  {
    "country": "LU",
    "id": 2960700,
    "coord": {
      "lat": 49.725559,
      "lon": 5.96444
    },
    "name": "Calmus"
  },
  {
    "country": "LU",
    "id": 2960770,
    "coord": {
      "lat": 49.860279,
      "lon": 6.28806
    },
    "name": "Bigelbach"
  },
  {
    "country": "LU",
    "id": 2960324,
    "coord": {
      "lat": 49.898891,
      "lon": 6.20528
    },
    "name": "Longsdorf"
  },
  {
    "country": "LU",
    "id": 2960342,
    "coord": {
      "lat": 49.71611,
      "lon": 6.43639
    },
    "name": "Lellig"
  },
  {
    "country": "LU",
    "id": 2960504,
    "coord": {
      "lat": 49.834999,
      "lon": 6.33139
    },
    "name": "Grundhof"
  },
  {
    "country": "LU",
    "id": 2960000,
    "coord": {
      "lat": 49.972778,
      "lon": 5.94194
    },
    "name": "Weidingen"
  },
  {
    "country": "LU",
    "id": 2960517,
    "coord": {
      "lat": 49.762501,
      "lon": 6.03389
    },
    "name": "Grevenknapp"
  },
  {
    "country": "LU",
    "id": 2960336,
    "coord": {
      "lat": 50.07,
      "lon": 5.97806
    },
    "name": "Lentzweiler"
  },
  {
    "country": "LU",
    "id": 2960178,
    "coord": {
      "lat": 49.549438,
      "lon": 6.00028
    },
    "name": "Pissange"
  },
  {
    "country": "LU",
    "id": 2960112,
    "coord": {
      "lat": 49.804169,
      "lon": 6.25389
    },
    "name": "Savelborn"
  },
  {
    "country": "LU",
    "id": 2960114,
    "coord": {
      "lat": 50.099442,
      "lon": 5.9975
    },
    "name": "Sassel"
  },
  {
    "country": "LU",
    "id": 2960827,
    "coord": {
      "lat": 49.861389,
      "lon": 5.84389
    },
    "name": "Arsdorf"
  },
  {
    "country": "LU",
    "id": 2960243,
    "coord": {
      "lat": 50.028889,
      "lon": 6.06667
    },
    "name": "Neidhausen"
  },
  {
    "country": "LU",
    "id": 2960033,
    "coord": {
      "lat": 50.064442,
      "lon": 5.88306
    },
    "name": "Troine"
  },
  {
    "country": "LU",
    "id": 2960525,
    "coord": {
      "lat": 49.734718,
      "lon": 6.28722
    },
    "name": "Graulinster"
  },
  {
    "country": "LU",
    "id": 2960636,
    "coord": {
      "lat": 50.13361,
      "lon": 6.01917
    },
    "name": "Drinklange"
  },
  {
    "country": "LU",
    "id": 2960372,
    "coord": {
      "lat": 49.750278,
      "lon": 6.30611
    },
    "name": "Kobenbour"
  },
  {
    "country": "LU",
    "id": 2960450,
    "coord": {
      "lat": 49.883888,
      "lon": 6.25806
    },
    "name": "Hoesdorf"
  },
  {
    "country": "LU",
    "id": 2960126,
    "coord": {
      "lat": 49.786671,
      "lon": 6.09611
    },
    "name": "Roost"
  },
  {
    "country": "LU",
    "id": 2960614,
    "coord": {
      "lat": 49.778332,
      "lon": 5.895
    },
    "name": "Eltz"
  },
  {
    "country": "LU",
    "id": 2960545,
    "coord": {
      "lat": 49.759171,
      "lon": 6.38778
    },
    "name": "Geyershaff"
  },
  {
    "country": "LU",
    "id": 2960564,
    "coord": {
      "lat": 49.84306,
      "lon": 6.20417
    },
    "name": "Folkendange"
  },
  {
    "country": "LU",
    "id": 2960611,
    "coord": {
      "lat": 49.486938,
      "lon": 6.29167
    },
    "name": "Emerange"
  },
  {
    "country": "LU",
    "id": 2960023,
    "coord": {
      "lat": 50.075562,
      "lon": 6.04667
    },
    "name": "Urspelt"
  },
  {
    "country": "LU",
    "id": 2960417,
    "coord": {
      "lat": 49.736111,
      "lon": 5.89861
    },
    "name": "Huttange"
  },
  {
    "country": "LU",
    "id": 2960285,
    "coord": {
      "lat": 49.923328,
      "lon": 5.87222
    },
    "name": "Mecher"
  },
  {
    "country": "LU",
    "id": 2960738,
    "coord": {
      "lat": 49.717781,
      "lon": 6.355
    },
    "name": "Boudler"
  },
  {
    "country": "LU",
    "id": 2960471,
    "coord": {
      "lat": 49.85722,
      "lon": 5.88056
    },
    "name": "Heispelt-lès-Wahl"
  },
  {
    "country": "LU",
    "id": 2960692,
    "coord": {
      "lat": 49.933331,
      "lon": 6.21667
    },
    "name": "Château Faubourg"
  },
  {
    "country": "LU",
    "id": 2960418,
    "coord": {
      "lat": 50.096111,
      "lon": 6.05917
    },
    "name": "Hupperdange"
  },
  {
    "country": "LU",
    "id": 2960438,
    "coord": {
      "lat": 49.80722,
      "lon": 5.79167
    },
    "name": "Holtz"
  },
  {
    "country": "LU",
    "id": 2960597,
    "coord": {
      "lat": 49.823059,
      "lon": 5.88833
    },
    "name": "Eschette"
  },
  {
    "country": "LU",
    "id": 2960002,
    "coord": {
      "lat": 50.03833,
      "lon": 5.98944
    },
    "name": "Weicherdange"
  },
  {
    "country": "LU",
    "id": 2960035,
    "coord": {
      "lat": 49.960281,
      "lon": 5.86083
    },
    "name": "Pommerloch"
  },
  {
    "country": "LU",
    "id": 2960499,
    "coord": {
      "lat": 49.687778,
      "lon": 6.36556
    },
    "name": "Hagelsdorf"
  },
  {
    "country": "LU",
    "id": 2960223,
    "coord": {
      "lat": 50.011669,
      "lon": 5.84361
    },
    "name": "Niederwampach"
  },
  {
    "country": "LU",
    "id": 2960659,
    "coord": {
      "lat": 49.7775,
      "lon": 6.47222
    },
    "name": "Dickweiler"
  },
  {
    "country": "LU",
    "id": 2960722,
    "coord": {
      "lat": 49.770828,
      "lon": 6.30417
    },
    "name": "Breidweiler"
  },
  {
    "country": "LU",
    "id": 6693338,
    "coord": {
      "lat": 49.746109,
      "lon": 6.465
    },
    "name": "Mompach"
  },
  {
    "country": "LU",
    "id": 2960259,
    "coord": {
      "lat": 49.746109,
      "lon": 6.465
    },
    "name": "Mompach"
  },
  {
    "country": "LU",
    "id": 2960755,
    "coord": {
      "lat": 50.118061,
      "lon": 5.97917
    },
    "name": "Biwisch"
  },
  {
    "country": "LU",
    "id": 2960245,
    "coord": {
      "lat": 49.94833,
      "lon": 6.12944
    },
    "name": "Nachtmanderscheid"
  },
  {
    "country": "LU",
    "id": 2960828,
    "coord": {
      "lat": 49.702499,
      "lon": 6.04333
    },
    "name": "Ansembourg"
  },
  {
    "country": "LU",
    "id": 2960332,
    "coord": {
      "lat": 50.124439,
      "lon": 6.11
    },
    "name": "Lieler"
  },
  {
    "country": "LU",
    "id": 2960260,
    "coord": {
      "lat": 49.867779,
      "lon": 6.23944
    },
    "name": "Moestroff"
  },
  {
    "country": "LU",
    "id": 2960046,
    "coord": {
      "lat": 49.911388,
      "lon": 5.99556
    },
    "name": "Tadler"
  },
  {
    "country": "LU",
    "id": 2960006,
    "coord": {
      "lat": 49.944172,
      "lon": 5.78583
    },
    "name": "Watrange"
  },
  {
    "country": "LU",
    "id": 2960394,
    "coord": {
      "lat": 49.921391,
      "lon": 5.90306
    },
    "name": "Kaundorf"
  },
  {
    "country": "LU",
    "id": 2960610,
    "coord": {
      "lat": 49.999439,
      "lon": 5.99278
    },
    "name": "Enscherange"
  },
  {
    "country": "LU",
    "id": 2960494,
    "coord": {
      "lat": 50.046108,
      "lon": 5.90417
    },
    "name": "Hamiville"
  },
  {
    "country": "LU",
    "id": 2960447,
    "coord": {
      "lat": 50.09972,
      "lon": 5.92333
    },
    "name": "Hoffelt"
  },
  {
    "country": "LU",
    "id": 2959982,
    "coord": {
      "lat": 49.719719,
      "lon": 6.2
    },
    "name": "Weyer"
  },
  {
    "country": "LU",
    "id": 2960506,
    "coord": {
      "lat": 49.98444,
      "lon": 5.8725
    },
    "name": "Grumelscheid"
  },
  {
    "country": "LU",
    "id": 2960721,
    "coord": {
      "lat": 49.706669,
      "lon": 6.34056
    },
    "name": "Breinert"
  },
  {
    "country": "LU",
    "id": 2960185,
    "coord": {
      "lat": 49.77972,
      "lon": 5.80944
    },
    "name": "Petit-Nobressart"
  },
  {
    "country": "LU",
    "id": 2960811,
    "coord": {
      "lat": 49.92194,
      "lon": 5.84944
    },
    "name": "Bavigne"
  },
  {
    "country": "LU",
    "id": 2960352,
    "coord": {
      "lat": 49.78944,
      "lon": 5.83972
    },
    "name": "Lannen"
  },
  {
    "country": "LU",
    "id": 2959984,
    "coord": {
      "lat": 49.81694,
      "lon": 6.08806
    },
    "name": "Welsdorf"
  },
  {
    "country": "LU",
    "id": 2959964,
    "coord": {
      "lat": 49.757778,
      "lon": 6.35333
    },
    "name": "Wolpert"
  },
  {
    "country": "LU",
    "id": 2960647,
    "coord": {
      "lat": 49.921108,
      "lon": 6.03833
    },
    "name": "Dirbach"
  },
  {
    "country": "LU",
    "id": 2960007,
    "coord": {
      "lat": 49.709999,
      "lon": 6.50028
    },
    "name": "Wasserbillig"
  },
  {
    "country": "LU",
    "id": 2960115,
    "coord": {
      "lat": 49.548061,
      "lon": 5.92889
    },
    "name": "Sanem"
  },
  {
    "country": "LU",
    "id": 2960197,
    "coord": {
      "lat": 49.657219,
      "lon": 6.00028
    },
    "name": "Olm"
  },
  {
    "country": "LU",
    "id": 2960207,
    "coord": {
      "lat": 49.513611,
      "lon": 5.89611
    },
    "name": "Obercorn"
  },
  {
    "country": "LU",
    "id": 2960270,
    "coord": {
      "lat": 49.833889,
      "lon": 6.0075
    },
    "name": "Mertzig"
  },
  {
    "country": "LU",
    "id": 2960515,
    "coord": {
      "lat": 49.674721,
      "lon": 6.44194
    },
    "name": "Grevenmacher"
  },
  {
    "country": "LU",
    "id": 2960657,
    "coord": {
      "lat": 49.867779,
      "lon": 6.15583
    },
    "name": "Diekirch"
  },
  {
    "country": "LU",
    "id": 2960680,
    "coord": {
      "lat": 49.81028,
      "lon": 6.09722
    },
    "name": "Colmar"
  },
  {
    "country": "LU",
    "id": 2960775,
    "coord": {
      "lat": 49.876671,
      "lon": 6.21806
    },
    "name": "Bettendorf"
  },
  {
    "country": "LU",
    "id": 2960791,
    "coord": {
      "lat": 49.525002,
      "lon": 6.04222
    },
    "name": "Bergem"
  }

]