[

  {
    "country": "MG",
    "id": 1054035,
    "coord": {
      "lat": -17.35,
      "lon": 49.033329
    },
    "name": "Vohibinany"
  },
  {
    "country": "MG",
    "id": 1073482,
    "coord": {
      "lat": -18.4,
      "lon": 47.866669
    },
    "name": "Anjozorobe"
  },
  {
    "country": "MG",
    "id": 1076194,
    "coord": {
      "lat": -17.01667,
      "lon": 48.583328
    },
    "name": "Andilamena"
  },
  {
    "country": "MG",
    "id": 1078446,
    "coord": {
      "lat": -17.58333,
      "lon": 48.216671
    },
    "name": "Amparafaravola"
  },
  {
    "country": "MG",
    "id": 1079088,
    "coord": {
      "lat": -20.51667,
      "lon": 47.25
    },
    "name": "Ambositra"
  },
  {
    "country": "MG",
    "id": 1066650,
    "coord": {
      "lat": -22.283331,
      "lon": 45.183331
    },
    "name": "Besatra"
  },
  {
    "country": "MG",
    "id": 1060007,
    "coord": {
      "lat": -20.049999,
      "lon": 48.116669
    },
    "name": "Marolambo"
  },
  {
    "country": "MG",
    "id": 1061335,
    "coord": {
      "lat": -21.216669,
      "lon": 48.333328
    },
    "name": "Mananjary"
  },
  {
    "country": "MG",
    "id": 1062553,
    "coord": {
      "lat": -19.9,
      "lon": 48.799999
    },
    "name": "Mahanoro"
  },
  {
    "country": "MG",
    "id": 1067531,
    "coord": {
      "lat": -19.700001,
      "lon": 44.549999
    },
    "name": "Belo Tsiribihina"
  },
  {
    "country": "MG",
    "id": 7670842,
    "coord": {
      "lat": -13.5,
      "lon": 49
    },
    "name": "Diana"
  },
  {
    "country": "MG",
    "id": 7670856,
    "coord": {
      "lat": -18.450001,
      "lon": 47.5
    },
    "name": "Analamanga"
  },
  {
    "country": "MG",
    "id": 1071296,
    "coord": {
      "lat": -14.90033,
      "lon": 50.278759
    },
    "name": "Antalaha"
  },
  {
    "country": "MG",
    "id": 1072849,
    "coord": {
      "lat": -18.316669,
      "lon": 47.116669
    },
    "name": "Ankazobe"
  },
  {
    "country": "MG",
    "id": 1072879,
    "coord": {
      "lat": -22.283331,
      "lon": 44.51667
    },
    "name": "Ankazoabo"
  },
  {
    "country": "MG",
    "id": 1076454,
    "coord": {
      "lat": -14.65,
      "lon": 49.650002
    },
    "name": "Andapa"
  },
  {
    "country": "MG",
    "id": 1078553,
    "coord": {
      "lat": -24.700001,
      "lon": 44.75
    },
    "name": "Ampanihy"
  },
  {
    "country": "MG",
    "id": 1083968,
    "coord": {
      "lat": -21.83333,
      "lon": 46.933331
    },
    "name": "Ambalavao"
  },
  {
    "country": "MG",
    "id": 1062947,
    "coord": {
      "lat": -20,
      "lon": 47
    },
    "name": "Republic of Madagascar"
  },
  {
    "country": "MG",
    "id": 1053507,
    "coord": {
      "lat": -22.816669,
      "lon": 47.283329
    },
    "name": "Vondrozo"
  },
  {
    "country": "MG",
    "id": 1058284,
    "coord": {
      "lat": -18.91667,
      "lon": 47.51667
    },
    "name": "Namontana"
  },
  {
    "country": "MG",
    "id": 1083511,
    "coord": {
      "lat": -18.91667,
      "lon": 47.51667
    },
    "name": "Ambaravarambato"
  },
  {
    "country": "MG",
    "id": 7670857,
    "coord": {
      "lat": -19,
      "lon": 48.900002
    },
    "name": "Atsinanana"
  },
  {
    "country": "MG",
    "id": 1053384,
    "coord": {
      "lat": -18.16667,
      "lon": 49.383331
    },
    "name": "Toamasina"
  },
  {
    "country": "MG",
    "id": 7670849,
    "coord": {
      "lat": -16.299999,
      "lon": 46.099998
    },
    "name": "Boeny"
  },
  {
    "country": "MG",
    "id": 1062663,
    "coord": {
      "lat": -15.71667,
      "lon": 46.316669
    },
    "name": "Mahajanga"
  },
  {
    "country": "MG",
    "id": 1069166,
    "coord": {
      "lat": -19.85,
      "lon": 47.033329
    },
    "name": "Antsirabe"
  },
  {
    "country": "MG",
    "id": 1082992,
    "coord": {
      "lat": -19.383329,
      "lon": 47.416672
    },
    "name": "Ambatolampy"
  },
  {
    "country": "MG",
    "id": 7670913,
    "coord": {
      "lat": -23.200001,
      "lon": 44.400002
    },
    "name": "Atsimo-Andrefana"
  },
  {
    "country": "MG",
    "id": 1055429,
    "coord": {
      "lat": -23.35,
      "lon": 43.666672
    },
    "name": "Toliara"
  },
  {
    "country": "MG",
    "id": 1055433,
    "coord": {
      "lat": -25.031851,
      "lon": 46.998741
    },
    "name": "Fort Dauphin"
  },
  {
    "country": "MG",
    "id": 7670905,
    "coord": {
      "lat": -21.370001,
      "lon": 46.5
    },
    "name": "Haute Matsiatra"
  },
  {
    "country": "MG",
    "id": 1064890,
    "coord": {
      "lat": -21.433331,
      "lon": 47.083328
    },
    "name": "Fianarantsoa"
  },
  {
    "country": "MG",
    "id": 1058532,
    "coord": {
      "lat": -18.933331,
      "lon": 48.200001
    },
    "name": "Moramanga"
  },
  {
    "country": "MG",
    "id": 1066514,
    "coord": {
      "lat": -19.83333,
      "lon": 46.849998
    },
    "name": "Betafo"
  },
  {
    "country": "MG",
    "id": 1083724,
    "coord": {
      "lat": -13.68333,
      "lon": 48.450001
    },
    "name": "Ambanja"
  },
  {
    "country": "MG",
    "id": 1082243,
    "coord": {
      "lat": -13.2,
      "lon": 49.049999
    },
    "name": "Ambilobe"
  },
  {
    "country": "MG",
    "id": 1080968,
    "coord": {
      "lat": -14.26667,
      "lon": 50.166672
    },
    "name": "Ambodisatirana"
  },
  {
    "country": "MG",
    "id": 1068971,
    "coord": {
      "lat": -14.87959,
      "lon": 47.987511
    },
    "name": "Antsohihy"
  },
  {
    "country": "MG",
    "id": 1076105,
    "coord": {
      "lat": -13.4,
      "lon": 48.26667
    },
    "name": "Andoany"
  },
  {
    "country": "MG",
    "id": 1081522,
    "coord": {
      "lat": -21.6,
      "lon": 46.900002
    },
    "name": "Ambodihady"
  },
  {
    "country": "MG",
    "id": 1054116,
    "coord": {
      "lat": -16.616671,
      "lon": 44.466671
    },
    "name": "Voalavo"
  },
  {
    "country": "MG",
    "id": 1074972,
    "coord": {
      "lat": -23.383329,
      "lon": 43.73333
    },
    "name": "Andranomena"
  },
  {
    "country": "MG",
    "id": 1058390,
    "coord": {
      "lat": -21.73333,
      "lon": 43.349998
    },
    "name": "Morombe"
  },
  {
    "country": "MG",
    "id": 1078601,
    "coord": {
      "lat": -21.200001,
      "lon": 48.366669
    },
    "name": "Ampangalana Avaratra"
  },
  {
    "country": "MG",
    "id": 1065158,
    "coord": {
      "lat": -22.816669,
      "lon": 47.833328
    },
    "name": "Farafangana"
  },
  {
    "country": "MG",
    "id": 1077503,
    "coord": {
      "lat": -21.450001,
      "lon": 47.116669
    },
    "name": "Ampopohona"
  },
  {
    "country": "MG",
    "id": 1078317,
    "coord": {
      "lat": -25.01667,
      "lon": 46.966671
    },
    "name": "Amparihy"
  },
  {
    "country": "MG",
    "id": 1078283,
    "coord": {
      "lat": -13.36667,
      "lon": 49.98333
    },
    "name": "Ampasibajina"
  },
  {
    "country": "MG",
    "id": 1066702,
    "coord": {
      "lat": -16.75,
      "lon": 44.48333
    },
    "name": "Besalampy"
  },
  {
    "country": "MG",
    "id": 1065113,
    "coord": {
      "lat": -13.3,
      "lon": 48.316669
    },
    "name": "Fasenina-Ampasy"
  },
  {
    "country": "MG",
    "id": 1079096,
    "coord": {
      "lat": -15.66667,
      "lon": 46.333328
    },
    "name": "Amborovy"
  },
  {
    "country": "MG",
    "id": 1082829,
    "coord": {
      "lat": -14.61667,
      "lon": 47.76667
    },
    "name": "Ambatomanga"
  },
  {
    "country": "MG",
    "id": 1069188,
    "coord": {
      "lat": -15,
      "lon": 50.333328
    },
    "name": "Antsirabato"
  },
  {
    "country": "MG",
    "id": 1081105,
    "coord": {
      "lat": -14.63333,
      "lon": 49.633331
    },
    "name": "Ambodipont"
  },
  {
    "country": "MG",
    "id": 1066512,
    "coord": {
      "lat": -12.35,
      "lon": 49.299999
    },
    "name": "Betahitra"
  },
  {
    "country": "MG",
    "id": 1076152,
    "coord": {
      "lat": -20.26667,
      "lon": 44.316669
    },
    "name": "Andimaka"
  },
  {
    "country": "MG",
    "id": 1056953,
    "coord": {
      "lat": -18.116671,
      "lon": 49.400002
    },
    "name": "Salazamay"
  },
  {
    "country": "MG",
    "id": 1060169,
    "coord": {
      "lat": -17.08333,
      "lon": 49.816669
    },
    "name": "Marofototra"
  },
  {
    "country": "MG",
    "id": 1061912,
    "coord": {
      "lat": -18.066669,
      "lon": 44.01667
    },
    "name": "Maintirano"
  },
  {
    "country": "MG",
    "id": 1063858,
    "coord": {
      "lat": -18.799999,
      "lon": 47.48333
    },
    "name": "Ivato"
  },
  {
    "country": "MG",
    "id": 1062347,
    "coord": {
      "lat": -19.85,
      "lon": 48.799999
    },
    "name": "Mahatsara"
  },
  {
    "country": "MG",
    "id": 1070738,
    "coord": {
      "lat": -19.816669,
      "lon": 47.066669
    },
    "name": "Antanetikely"
  },
  {
    "country": "MG",
    "id": 1054329,
    "coord": {
      "lat": -23.35,
      "lon": 47.599998
    },
    "name": "Vangaindrano"
  },
  {
    "country": "MG",
    "id": 1071712,
    "coord": {
      "lat": -12.43333,
      "lon": 49.099998
    },
    "name": "Ankorefo"
  },
  {
    "country": "MG",
    "id": 1054192,
    "coord": {
      "lat": -17.466669,
      "lon": 49.200001
    },
    "name": "Vavatenina"
  },
  {
    "country": "MG",
    "id": 1054463,
    "coord": {
      "lat": -18.76667,
      "lon": 46.033329
    },
    "name": "Tsiroanomandidy"
  },
  {
    "country": "MG",
    "id": 1054500,
    "coord": {
      "lat": -25.299999,
      "lon": 45.48333
    },
    "name": "Tsiombe"
  },
  {
    "country": "MG",
    "id": 1055059,
    "coord": {
      "lat": -16.783331,
      "lon": 47.650002
    },
    "name": "Tsaratanana"
  },
  {
    "country": "MG",
    "id": 1056151,
    "coord": {
      "lat": -19.16667,
      "lon": 46.73333
    },
    "name": "Soavinandriana"
  },
  {
    "country": "MG",
    "id": 1056386,
    "coord": {
      "lat": -16.91667,
      "lon": 49.583328
    },
    "name": "Soanierana Ivongo"
  },
  {
    "country": "MG",
    "id": 1056899,
    "coord": {
      "lat": -14.26667,
      "lon": 50.166672
    },
    "name": "Sambava"
  },
  {
    "country": "MG",
    "id": 1057095,
    "coord": {
      "lat": -22.9,
      "lon": 44.533329
    },
    "name": "Sakaraha"
  },
  {
    "country": "MG",
    "id": 1058080,
    "coord": {
      "lat": -20.58333,
      "lon": 48.533329
    },
    "name": "Nosy Varika"
  },
  {
    "country": "MG",
    "id": 1058381,
    "coord": {
      "lat": -20.283331,
      "lon": 44.283329
    },
    "name": "Morondava"
  },
  {
    "country": "MG",
    "id": 1059051,
    "coord": {
      "lat": -19.51667,
      "lon": 45.466671
    },
    "name": "Miandrivazo"
  },
  {
    "country": "MG",
    "id": 1059507,
    "coord": {
      "lat": -16.1,
      "lon": 46.633331
    },
    "name": "Marovoay"
  },
  {
    "country": "MG",
    "id": 1060283,
    "coord": {
      "lat": -15.43333,
      "lon": 49.73333
    },
    "name": "Maroantsetra"
  },
  {
    "country": "MG",
    "id": 1060673,
    "coord": {
      "lat": -18.91667,
      "lon": 47.799999
    },
    "name": "Manjakandriana"
  },
  {
    "country": "MG",
    "id": 1061412,
    "coord": {
      "lat": -16.16667,
      "lon": 49.76667
    },
    "name": "Mananara Avaratra"
  },
  {
    "country": "MG",
    "id": 1061605,
    "coord": {
      "lat": -22.133329,
      "lon": 48.01667
    },
    "name": "Manakara"
  },
  {
    "country": "MG",
    "id": 1064234,
    "coord": {
      "lat": -21.883329,
      "lon": 47.433331
    },
    "name": "Ikongo"
  },
  {
    "country": "MG",
    "id": 1064258,
    "coord": {
      "lat": -21.15,
      "lon": 46.583328
    },
    "name": "Ikalamavony"
  },
  {
    "country": "MG",
    "id": 1064275,
    "coord": {
      "lat": -22.4,
      "lon": 46.116669
    },
    "name": "Ihosy"
  },
  {
    "country": "MG",
    "id": 1064366,
    "coord": {
      "lat": -21.299999,
      "lon": 47.633331
    },
    "name": "Ifanadiana"
  },
  {
    "country": "MG",
    "id": 1064978,
    "coord": {
      "lat": -18.433331,
      "lon": 46.566669
    },
    "name": "Fenoarivo Be"
  },
  {
    "country": "MG",
    "id": 1064980,
    "coord": {
      "lat": -17.366671,
      "lon": 49.416672
    },
    "name": "Fenoarivo Atsinanana"
  },
  {
    "country": "MG",
    "id": 1065140,
    "coord": {
      "lat": -19.4,
      "lon": 46.950001
    },
    "name": "Faratsiho"
  },
  {
    "country": "MG",
    "id": 1065222,
    "coord": {
      "lat": -20.23333,
      "lon": 47.383331
    },
    "name": "Fandriana"
  },
  {
    "country": "MG",
    "id": 1066310,
    "coord": {
      "lat": -23.716669,
      "lon": 44.383331
    },
    "name": "Betioky"
  },
  {
    "country": "MG",
    "id": 1066831,
    "coord": {
      "lat": -21.66667,
      "lon": 45.166672
    },
    "name": "Beroroha"
  },
  {
    "country": "MG",
    "id": 1067565,
    "coord": {
      "lat": -25.16667,
      "lon": 45.049999
    },
    "name": "Beloha"
  },
  {
    "country": "MG",
    "id": 1068670,
    "coord": {
      "lat": -14.55,
      "lon": 48.73333
    },
    "name": "Bealanana"
  },
  {
    "country": "MG",
    "id": 1068865,
    "coord": {
      "lat": -19.01667,
      "lon": 47.183331
    },
    "name": "Arivonimamo"
  },
  {
    "country": "MG",
    "id": 1069129,
    "coord": {
      "lat": -12.2787,
      "lon": 49.29171
    },
    "name": "Antsiranana"
  },
  {
    "country": "MG",
    "id": 1070661,
    "coord": {
      "lat": -19.65,
      "lon": 47.316669
    },
    "name": "Antanifotsy"
  },
  {
    "country": "MG",
    "id": 1070940,
    "coord": {
      "lat": -18.913679,
      "lon": 47.536129
    },
    "name": "Antananarivo"
  },
  {
    "country": "MG",
    "id": 1079048,
    "coord": {
      "lat": -25.16667,
      "lon": 46.083328
    },
    "name": "Ambovombe"
  },
  {
    "country": "MG",
    "id": 1081790,
    "coord": {
      "lat": -25.033331,
      "lon": 46.383331
    },
    "name": "Amboasary"
  },
  {
    "country": "MG",
    "id": 1082639,
    "coord": {
      "lat": -17.83333,
      "lon": 48.416672
    },
    "name": "Ambatondrazaka"
  },
  {
    "country": "MG",
    "id": 1083239,
    "coord": {
      "lat": -20.549999,
      "lon": 46.799999
    },
    "name": "Ambatofinandrahana"
  },
  {
    "country": "MG",
    "id": 1083257,
    "coord": {
      "lat": -16.466669,
      "lon": 46.716671
    },
    "name": "Ambato Boeny"
  },
  {
    "country": "MG",
    "id": 1062146,
    "coord": {
      "lat": -17.68475,
      "lon": 49.50869
    },
    "name": "Mahavelona"
  },
  {
    "country": "MG",
    "id": 1076227,
    "coord": {
      "lat": -18.950001,
      "lon": 49.099998
    },
    "name": "Andovoranto"
  },
  {
    "country": "MG",
    "id": 1077349,
    "coord": {
      "lat": -23.66667,
      "lon": 43.650002
    },
    "name": "Anakao"
  },
  {
    "country": "MG",
    "id": 1081530,
    "coord": {
      "lat": -16.98333,
      "lon": 49.849998
    },
    "name": "Ambodifotatra"
  }

]