[

  {
    "country": "MW",
    "id": 929742,
    "coord": {
      "lat": -14.1,
      "lon": 34.200001
    },
    "name": "Guma"
  },
  {
    "country": "MW",
    "id": 929975,
    "coord": {
      "lat": -13.60098,
      "lon": 33.82378
    },
    "name": "Dowa District"
  },
  {
    "country": "MW",
    "id": 926523,
    "coord": {
      "lat": -13.57718,
      "lon": 33.464088
    },
    "name": "Mjudzi"
  },
  {
    "country": "MW",
    "id": 924716,
    "coord": {
      "lat": -13.51094,
      "lon": 33.46146
    },
    "name": "Nkhongue"
  },
  {
    "country": "MW",
    "id": 924703,
    "coord": {
      "lat": -12.80417,
      "lon": 34.082981
    },
    "name": "Nkhotakota District"
  },
  {
    "country": "MW",
    "id": 930813,
    "coord": {
      "lat": -12.54451,
      "lon": 34.17828
    },
    "name": "Chinemba"
  },
  {
    "country": "MW",
    "id": 1105840,
    "coord": {
      "lat": -15.04839,
      "lon": 35.059101
    },
    "name": "Balaka District"
  },
  {
    "country": "MW",
    "id": 931865,
    "coord": {
      "lat": -14.97928,
      "lon": 34.95575
    },
    "name": "Balaka"
  },
  {
    "country": "MW",
    "id": 931597,
    "coord": {
      "lat": -13.5,
      "lon": 34
    },
    "name": "Central Region"
  },
  {
    "country": "MW",
    "id": 930023,
    "coord": {
      "lat": -14.26273,
      "lon": 34.185589
    },
    "name": "Dedza District"
  },
  {
    "country": "MW",
    "id": 924682,
    "coord": {
      "lat": -14.16667,
      "lon": 34.166672
    },
    "name": "Nkokola"
  },
  {
    "country": "MW",
    "id": 924100,
    "coord": {
      "lat": -10.80292,
      "lon": 33.805241
    },
    "name": "Rumphi District"
  },
  {
    "country": "MW",
    "id": 924102,
    "coord": {
      "lat": -11.01863,
      "lon": 33.85746
    },
    "name": "Rumphi"
  },
  {
    "country": "MW",
    "id": 930025,
    "coord": {
      "lat": -14.3779,
      "lon": 34.333221
    },
    "name": "Dedza"
  },
  {
    "country": "MW",
    "id": 927384,
    "coord": {
      "lat": -13.5,
      "lon": 34
    },
    "name": "Republic of Malawi"
  },
  {
    "country": "MW",
    "id": 924591,
    "coord": {
      "lat": -11,
      "lon": 34
    },
    "name": "Northern Region"
  },
  {
    "country": "MW",
    "id": 925496,
    "coord": {
      "lat": -11.85428,
      "lon": 33.60778
    },
    "name": "Mzimba District"
  },
  {
    "country": "MW",
    "id": 925812,
    "coord": {
      "lat": -11.53875,
      "lon": 33.363049
    },
    "name": "Mugumbani Chipeta"
  },
  {
    "country": "MW",
    "id": 927964,
    "coord": {
      "lat": -14.01962,
      "lon": 33.684071
    },
    "name": "Lilongwe District"
  },
  {
    "country": "MW",
    "id": 928434,
    "coord": {
      "lat": -11.45916,
      "lon": 34.009548
    },
    "name": "Katoto"
  },
  {
    "country": "MW",
    "id": 923817,
    "coord": {
      "lat": -15.5,
      "lon": 35
    },
    "name": "Southern Region"
  },
  {
    "country": "MW",
    "id": 931754,
    "coord": {
      "lat": -15.64732,
      "lon": 34.93956
    },
    "name": "Blantyre District"
  },
  {
    "country": "MW",
    "id": 931755,
    "coord": {
      "lat": -15.78499,
      "lon": 35.008541
    },
    "name": "Blantyre"
  },
  {
    "country": "MW",
    "id": 925074,
    "coord": {
      "lat": -13.98333,
      "lon": 33.783329
    },
    "name": "Nchesi"
  },
  {
    "country": "MW",
    "id": 923292,
    "coord": {
      "lat": -15.43007,
      "lon": 35.418289
    },
    "name": "Zomba District"
  },
  {
    "country": "MW",
    "id": 923295,
    "coord": {
      "lat": -15.38596,
      "lon": 35.318802
    },
    "name": "Zomba"
  },
  {
    "country": "MW",
    "id": 928531,
    "coord": {
      "lat": -13,
      "lon": 33.416672
    },
    "name": "Kasungu District"
  },
  {
    "country": "MW",
    "id": 928534,
    "coord": {
      "lat": -13.03333,
      "lon": 33.48333
    },
    "name": "Kasungu"
  },
  {
    "country": "MW",
    "id": 930283,
    "coord": {
      "lat": -16.105829,
      "lon": 35.1506
    },
    "name": "Thyolo District"
  },
  {
    "country": "MW",
    "id": 923652,
    "coord": {
      "lat": -16.067751,
      "lon": 35.140461
    },
    "name": "Thyolo"
  },
  {
    "country": "MW",
    "id": 924053,
    "coord": {
      "lat": -13.71959,
      "lon": 34.40184
    },
    "name": "Salima District"
  },
  {
    "country": "MW",
    "id": 926623,
    "coord": {
      "lat": -13.75277,
      "lon": 34.587078
    },
    "name": "Mikute"
  },
  {
    "country": "MW",
    "id": 7839145,
    "coord": {
      "lat": -14.08359,
      "lon": 34.9282
    },
    "name": "Songwe"
  },
  {
    "country": "MW",
    "id": 927245,
    "coord": {
      "lat": -14.39296,
      "lon": 35.346581
    },
    "name": "Mangochi District"
  },
  {
    "country": "MW",
    "id": 927246,
    "coord": {
      "lat": -14.47815,
      "lon": 35.264481
    },
    "name": "Mangochi"
  },
  {
    "country": "MW",
    "id": 929083,
    "coord": {
      "lat": -13.78333,
      "lon": 33.783329
    },
    "name": "Kamlembo"
  },
  {
    "country": "MW",
    "id": 928657,
    "coord": {
      "lat": -10.11153,
      "lon": 33.881512
    },
    "name": "Karonga District"
  },
  {
    "country": "MW",
    "id": 235715,
    "coord": {
      "lat": -9.93333,
      "lon": 33.933331
    },
    "name": "Karonga"
  },
  {
    "country": "MW",
    "id": 931039,
    "coord": {
      "lat": -15.67403,
      "lon": 34.95232
    },
    "name": "Chileka"
  },
  {
    "country": "MW",
    "id": 924055,
    "coord": {
      "lat": -13.7804,
      "lon": 34.458698
    },
    "name": "Salima"
  },
  {
    "country": "MW",
    "id": 924567,
    "coord": {
      "lat": -16.75,
      "lon": 35.166672
    },
    "name": "Nsanje District"
  },
  {
    "country": "MW",
    "id": 924572,
    "coord": {
      "lat": -16.91995,
      "lon": 35.26199
    },
    "name": "Nsanje"
  },
  {
    "country": "MW",
    "id": 924705,
    "coord": {
      "lat": -12.92744,
      "lon": 34.296139
    },
    "name": "Nkhotakota"
  },
  {
    "country": "MW",
    "id": 925498,
    "coord": {
      "lat": -11.9,
      "lon": 33.599998
    },
    "name": "Mzimba"
  },
  {
    "country": "MW",
    "id": 925788,
    "coord": {
      "lat": -15.9344,
      "lon": 35.499901
    },
    "name": "Mulanje District"
  },
  {
    "country": "MW",
    "id": 925789,
    "coord": {
      "lat": -16.03163,
      "lon": 35.5
    },
    "name": "Mulanje"
  },
  {
    "country": "MW",
    "id": 926745,
    "coord": {
      "lat": -13.7623,
      "lon": 33.079979
    },
    "name": "Mchinji District"
  },
  {
    "country": "MW",
    "id": 926747,
    "coord": {
      "lat": -13.79841,
      "lon": 32.880192
    },
    "name": "Mchinji"
  },
  {
    "country": "MW",
    "id": 927834,
    "coord": {
      "lat": -15.05064,
      "lon": 35.203529
    },
    "name": "Liwonde"
  },
  {
    "country": "MW",
    "id": 927967,
    "coord": {
      "lat": -13.96692,
      "lon": 33.787251
    },
    "name": "Lilongwe"
  },
  {
    "country": "MW",
    "id": 235751,
    "coord": {
      "lat": -9.70237,
      "lon": 33.269691
    },
    "name": "Chitipa"
  },
  {
    "country": "MW",
    "id": 924206,
    "coord": {
      "lat": -15.80635,
      "lon": 35.650669
    },
    "name": "Phalombe"
  },
  {
    "country": "MW",
    "id": 924491,
    "coord": {
      "lat": -13.52775,
      "lon": 33.914902
    },
    "name": "Ntchisi"
  },
  {
    "country": "MW",
    "id": 924492,
    "coord": {
      "lat": -14.82027,
      "lon": 34.63586
    },
    "name": "Ntcheu"
  },
  {
    "country": "MW",
    "id": 924732,
    "coord": {
      "lat": -11.60659,
      "lon": 34.29073
    },
    "name": "Nkhata Bay"
  },
  {
    "country": "MW",
    "id": 924963,
    "coord": {
      "lat": -15.39805,
      "lon": 34.653431
    },
    "name": "Neno"
  },
  {
    "country": "MW",
    "id": 925475,
    "coord": {
      "lat": -11.46556,
      "lon": 34.02071
    },
    "name": "Mzuzu"
  },
  {
    "country": "MW",
    "id": 925596,
    "coord": {
      "lat": -15.60262,
      "lon": 34.524792
    },
    "name": "Mwanza"
  },
  {
    "country": "MW",
    "id": 926087,
    "coord": {
      "lat": -13.53194,
      "lon": 33.740082
    },
    "name": "Mponela"
  },
  {
    "country": "MW",
    "id": 926308,
    "coord": {
      "lat": -14.0728,
      "lon": 34.920052
    },
    "name": "Monkey Bay"
  },
  {
    "country": "MW",
    "id": 927643,
    "coord": {
      "lat": -15.16849,
      "lon": 35.300018
    },
    "name": "Machinga"
  },
  {
    "country": "MW",
    "id": 927792,
    "coord": {
      "lat": -16.006929,
      "lon": 35.309479
    },
    "name": "Luchenza"
  },
  {
    "country": "MW",
    "id": 927856,
    "coord": {
      "lat": -10.60602,
      "lon": 34.106281
    },
    "name": "Livingstonia"
  },
  {
    "country": "MW",
    "id": 929977,
    "coord": {
      "lat": -13.65399,
      "lon": 33.937538
    },
    "name": "Dowa"
  },
  {
    "country": "MW",
    "id": 930580,
    "coord": {
      "lat": -15.67461,
      "lon": 35.140709
    },
    "name": "Chiradzulu"
  },
  {
    "country": "MW",
    "id": 930582,
    "coord": {
      "lat": -12.06618,
      "lon": 34.740921
    },
    "name": "Chipyela"
  },
  {
    "country": "MW",
    "id": 930629,
    "coord": {
      "lat": -13.99328,
      "lon": 34.515659
    },
    "name": "Chipoka"
  },
  {
    "country": "MW",
    "id": 931070,
    "coord": {
      "lat": -16.03352,
      "lon": 34.800911
    },
    "name": "Chikwawa"
  },
  {
    "country": "MW",
    "id": 7839184,
    "coord": {
      "lat": -15.7872,
      "lon": 35.03046
    },
    "name": "Makata"
  }

]