[

  {
    "country": "TH",
    "id": 1607257,
    "coord": {
      "lat": 14.60592,
      "lon": 103.120811
    },
    "name": "Prakhon Chai"
  },
  {
    "country": "TH",
    "id": 1609031,
    "coord": {
      "lat": 14.93333,
      "lon": 100.75
    },
    "name": "Changwat Lop Buri"
  },
  {
    "country": "TH",
    "id": 1608525,
    "coord": {
      "lat": 8.25,
      "lon": 100
    },
    "name": "Changwat Nakhon Si Thammarat"
  },
  {
    "country": "TH",
    "id": 1117328,
    "coord": {
      "lat": 8.26667,
      "lon": 99.583328
    },
    "name": "Ban Thung That"
  },
  {
    "country": "TH",
    "id": 1153555,
    "coord": {
      "lat": 10.33333,
      "lon": 98.833328
    },
    "name": "Changwat Chumphon"
  },
  {
    "country": "TH",
    "id": 1156944,
    "coord": {
      "lat": 10.28333,
      "lon": 99.099998
    },
    "name": "Ban Khron"
  },
  {
    "country": "TH",
    "id": 1609283,
    "coord": {
      "lat": 12.1717,
      "lon": 102.39489
    },
    "name": "Laem Ngop"
  },
  {
    "country": "TH",
    "id": 1611268,
    "coord": {
      "lat": 12.83333,
      "lon": 102.166672
    },
    "name": "Changawat Chanthaburi"
  },
  {
    "country": "TH",
    "id": 1614614,
    "coord": {
      "lat": 12.48333,
      "lon": 102.066673
    },
    "name": "Ban Pak Nam"
  },
  {
    "country": "TH",
    "id": 1607016,
    "coord": {
      "lat": 12.83333,
      "lon": 101.433327
    },
    "name": "Changwat Rayong"
  },
  {
    "country": "TH",
    "id": 7735862,
    "coord": {
      "lat": 12.65972,
      "lon": 101.281387
    },
    "name": "Ban Charoen Suk"
  },
  {
    "country": "TH",
    "id": 1609348,
    "coord": {
      "lat": 13.87719,
      "lon": 100.71991
    },
    "name": "Krung Thep Mahanakhon"
  },
  {
    "country": "TH",
    "id": 1607542,
    "coord": {
      "lat": 13.70185,
      "lon": 100.60157
    },
    "name": "Phra Khanong"
  },
  {
    "country": "TH",
    "id": 1606589,
    "coord": {
      "lat": 13.5,
      "lon": 100.449997
    },
    "name": "Changwat Samut Prakan"
  },
  {
    "country": "TH",
    "id": 6908616,
    "coord": {
      "lat": 13.70461,
      "lon": 100.558167
    },
    "name": "Ban Bang Krabueang"
  },
  {
    "country": "TH",
    "id": 1618360,
    "coord": {
      "lat": 13.73256,
      "lon": 100.421501
    },
    "name": "Ban Khlong Bang Waek"
  },
  {
    "country": "TH",
    "id": 1608132,
    "coord": {
      "lat": 13.75,
      "lon": 100.5
    },
    "name": "Changwat Nonthaburi"
  },
  {
    "country": "TH",
    "id": 1609350,
    "coord": {
      "lat": 13.75,
      "lon": 100.51667
    },
    "name": "Bangkok"
  },
  {
    "country": "TH",
    "id": 6695671,
    "coord": {
      "lat": 13.73502,
      "lon": 100.556061
    },
    "name": "Sukhumvit"
  },
  {
    "country": "TH",
    "id": 1153080,
    "coord": {
      "lat": 14.63333,
      "lon": 99.099998
    },
    "name": "Changwat Kanchanaburi"
  },
  {
    "country": "TH",
    "id": 7621325,
    "coord": {
      "lat": 13.98872,
      "lon": 99.300468
    },
    "name": "Ban Tha Po"
  },
  {
    "country": "TH",
    "id": 1906687,
    "coord": {
      "lat": 14.08333,
      "lon": 101.666672
    },
    "name": "Changwat Prachin Buri"
  },
  {
    "country": "TH",
    "id": 1600098,
    "coord": {
      "lat": 14.02972,
      "lon": 101.240829
    },
    "name": "Ban Nong Nam Khao"
  },
  {
    "country": "TH",
    "id": 1608528,
    "coord": {
      "lat": 15,
      "lon": 102.166672
    },
    "name": "Changwat Nakhon Ratchasima"
  },
  {
    "country": "TH",
    "id": 1618905,
    "coord": {
      "lat": 14.6,
      "lon": 102.033333
    },
    "name": "Ban Huai Sakae Rat"
  },
  {
    "country": "TH",
    "id": 1608057,
    "coord": {
      "lat": 14.70802,
      "lon": 101.416138
    },
    "name": "Pak Chong"
  },
  {
    "country": "TH",
    "id": 1608526,
    "coord": {
      "lat": 15.7,
      "lon": 100.083328
    },
    "name": "Changwat Nakhon Sawan"
  },
  {
    "country": "TH",
    "id": 1616236,
    "coord": {
      "lat": 15.46667,
      "lon": 100.083328
    },
    "name": "Ban Nam Song"
  },
  {
    "country": "TH",
    "id": 1599922,
    "coord": {
      "lat": 15.46667,
      "lon": 102.01667
    },
    "name": "Ban Nong Rang Ka"
  },
  {
    "country": "TH",
    "id": 1608899,
    "coord": {
      "lat": 16.33333,
      "lon": 103.666672
    },
    "name": "Changwat Maha Sarakham"
  },
  {
    "country": "TH",
    "id": 1610510,
    "coord": {
      "lat": 16.02397,
      "lon": 103.384438
    },
    "name": "Kae Dam"
  },
  {
    "country": "TH",
    "id": 1604767,
    "coord": {
      "lat": 15.75,
      "lon": 104.133331
    },
    "name": "Changwat Yasothon"
  },
  {
    "country": "TH",
    "id": 1611884,
    "coord": {
      "lat": 17.51972,
      "lon": 100.404556
    },
    "name": "Ban Wang Pong"
  },
  {
    "country": "TH",
    "id": 1906686,
    "coord": {
      "lat": 17.33333,
      "lon": 102.833328
    },
    "name": "Changwat Udon Thani"
  },
  {
    "country": "TH",
    "id": 7680198,
    "coord": {
      "lat": 17.506969,
      "lon": 102.417671
    },
    "name": "Ban Laem Thong Phatthana"
  },
  {
    "country": "TH",
    "id": 8136321,
    "coord": {
      "lat": 17.516171,
      "lon": 100.259499
    },
    "name": "Ban Na Lap Laeng"
  },
  {
    "country": "TH",
    "id": 1604054,
    "coord": {
      "lat": 17.538639,
      "lon": 99.956306
    },
    "name": "Ban Dan Mae Kham Man Nuea"
  },
  {
    "country": "TH",
    "id": 1119013,
    "coord": {
      "lat": 18.962561,
      "lon": 99.233673
    },
    "name": "Ban Mae Wan"
  },
  {
    "country": "TH",
    "id": 1151933,
    "coord": {
      "lat": 8.43333,
      "lon": 99.966667
    },
    "name": "Nakhon Si Thammarat"
  },
  {
    "country": "TH",
    "id": 1153958,
    "coord": {
      "lat": 10.5,
      "lon": 99.166672
    },
    "name": "Ban Yang Duan"
  },
  {
    "country": "TH",
    "id": 1619638,
    "coord": {
      "lat": 18.76667,
      "lon": 100.800003
    },
    "name": "Ban Fai Kaeo"
  },
  {
    "country": "TH",
    "id": 1150154,
    "coord": {
      "lat": 17.61289,
      "lon": 99.216118
    },
    "name": "Thoen"
  },
  {
    "country": "TH",
    "id": 1150210,
    "coord": {
      "lat": 15.46063,
      "lon": 99.891663
    },
    "name": "Thap Than"
  },
  {
    "country": "TH",
    "id": 1152194,
    "coord": {
      "lat": 20.433531,
      "lon": 99.876167
    },
    "name": "Mae Sai"
  },
  {
    "country": "TH",
    "id": 1152432,
    "coord": {
      "lat": 9.94561,
      "lon": 99.078468
    },
    "name": "Lang Suan"
  },
  {
    "country": "TH",
    "id": 1152562,
    "coord": {
      "lat": 12.08283,
      "lon": 99.854309
    },
    "name": "Kui Buri"
  },
  {
    "country": "TH",
    "id": 1153089,
    "coord": {
      "lat": 16.25,
      "lon": 99.5
    },
    "name": "Changwat Kamphaeng Phet"
  },
  {
    "country": "TH",
    "id": 1152953,
    "coord": {
      "lat": 16.061701,
      "lon": 99.86058
    },
    "name": "Khanu Woralaksaburi"
  },
  {
    "country": "TH",
    "id": 1153850,
    "coord": {
      "lat": 14.32361,
      "lon": 99.516113
    },
    "name": "Bo Phloi"
  },
  {
    "country": "TH",
    "id": 1610468,
    "coord": {
      "lat": 16.5,
      "lon": 103.5
    },
    "name": "Changwat Kalasin"
  },
  {
    "country": "TH",
    "id": 1604654,
    "coord": {
      "lat": 17.307199,
      "lon": 102.188858
    },
    "name": "Na Klang"
  },
  {
    "country": "TH",
    "id": 1604771,
    "coord": {
      "lat": 6.86617,
      "lon": 101.368942
    },
    "name": "Yaring"
  },
  {
    "country": "TH",
    "id": 1906691,
    "coord": {
      "lat": 13.75,
      "lon": 102.333328
    },
    "name": "Changwat Sa Kaeo"
  },
  {
    "country": "TH",
    "id": 1605119,
    "coord": {
      "lat": 13.50325,
      "lon": 102.181152
    },
    "name": "Wang Nam Yen"
  },
  {
    "country": "TH",
    "id": 1605279,
    "coord": {
      "lat": 12.24364,
      "lon": 102.515137
    },
    "name": "Trat"
  },
  {
    "country": "TH",
    "id": 1605538,
    "coord": {
      "lat": 16.16003,
      "lon": 100.596558
    },
    "name": "Thap Khlo"
  },
  {
    "country": "TH",
    "id": 1608231,
    "coord": {
      "lat": 17.91667,
      "lon": 103.083328
    },
    "name": "Changwat Nong Khai"
  },
  {
    "country": "TH",
    "id": 1605677,
    "coord": {
      "lat": 17.850031,
      "lon": 102.58139
    },
    "name": "Tha Bo"
  },
  {
    "country": "TH",
    "id": 8133594,
    "coord": {
      "lat": 18.162279,
      "lon": 103.750847
    },
    "name": "Changwat Bueng Kan"
  },
  {
    "country": "TH",
    "id": 1607083,
    "coord": {
      "lat": 6.29678,
      "lon": 101.728439
    },
    "name": "Ra-ngae"
  },
  {
    "country": "TH",
    "id": 1607280,
    "coord": {
      "lat": 14.04992,
      "lon": 101.368637
    },
    "name": "Prachin Buri"
  },
  {
    "country": "TH",
    "id": 1607725,
    "coord": {
      "lat": 16.441839,
      "lon": 100.348793
    },
    "name": "Phichit"
  },
  {
    "country": "TH",
    "id": 1607778,
    "coord": {
      "lat": 7.5,
      "lon": 100.083328
    },
    "name": "Changwat Phatthalung"
  },
  {
    "country": "TH",
    "id": 1607793,
    "coord": {
      "lat": 13.46804,
      "lon": 101.095322
    },
    "name": "Phan Thong"
  },
  {
    "country": "TH",
    "id": 1611438,
    "coord": {
      "lat": 13.61667,
      "lon": 101.416672
    },
    "name": "Changwat Chachoengsao"
  },
  {
    "country": "TH",
    "id": 1607982,
    "coord": {
      "lat": 14.08333,
      "lon": 100.599998
    },
    "name": "Changwat Pathum Thani"
  },
  {
    "country": "TH",
    "id": 1608269,
    "coord": {
      "lat": 17.20406,
      "lon": 102.440681
    },
    "name": "Nong Bua Lamphu"
  },
  {
    "country": "TH",
    "id": 1610187,
    "coord": {
      "lat": 16.280531,
      "lon": 101.954224
    },
    "name": "Kaset Sombun"
  },
  {
    "country": "TH",
    "id": 1610459,
    "coord": {
      "lat": 16.33839,
      "lon": 103.575638
    },
    "name": "Kamalasai"
  },
  {
    "country": "TH",
    "id": 1610538,
    "coord": {
      "lat": 13.95114,
      "lon": 101.71769
    },
    "name": "Kabin Buri"
  },
  {
    "country": "TH",
    "id": 1611026,
    "coord": {
      "lat": 16.5443,
      "lon": 102.099243
    },
    "name": "Chum Phae"
  },
  {
    "country": "TH",
    "id": 1614336,
    "coord": {
      "lat": 17.142719,
      "lon": 102.97261
    },
    "name": "Ban Phan Don"
  },
  {
    "country": "TH",
    "id": 6696291,
    "coord": {
      "lat": 7.8894,
      "lon": 98.385231
    },
    "name": "Wichit"
  },
  {
    "country": "TH",
    "id": 1151073,
    "coord": {
      "lat": 12.21667,
      "lon": 99.75
    },
    "name": "Changwat Prachuap Khiri Khan"
  },
  {
    "country": "TH",
    "id": 1155325,
    "coord": {
      "lat": 11.3,
      "lon": 99.433327
    },
    "name": "Ban Pa Ron"
  },
  {
    "country": "TH",
    "id": 1155876,
    "coord": {
      "lat": 11.45,
      "lon": 99.51667
    },
    "name": "Ban Nong Hoi (1)"
  },
  {
    "country": "TH",
    "id": 1605277,
    "coord": {
      "lat": 12.5,
      "lon": 102.5
    },
    "name": "Changwat Trat"
  },
  {
    "country": "TH",
    "id": 1151416,
    "coord": {
      "lat": 12.96667,
      "lon": 99.583328
    },
    "name": "Changwat Phetchaburi"
  },
  {
    "country": "TH",
    "id": 1614968,
    "coord": {
      "lat": 13.08895,
      "lon": 100.043213
    },
    "name": "Ban Nong Thale"
  },
  {
    "country": "TH",
    "id": 1611108,
    "coord": {
      "lat": 13.3,
      "lon": 101.300003
    },
    "name": "Changwat Chon Buri"
  },
  {
    "country": "TH",
    "id": 1612740,
    "coord": {
      "lat": 13.24014,
      "lon": 100.93161
    },
    "name": "Ban Thai Don"
  },
  {
    "country": "TH",
    "id": 1613664,
    "coord": {
      "lat": 13.28333,
      "lon": 100.933327
    },
    "name": "Ban Saen Suk"
  },
  {
    "country": "TH",
    "id": 1606587,
    "coord": {
      "lat": 13.58333,
      "lon": 100.300003
    },
    "name": "Changwat Samut Sakhon"
  },
  {
    "country": "TH",
    "id": 1617635,
    "coord": {
      "lat": 13.53858,
      "lon": 100.348282
    },
    "name": "Ban Sandap"
  },
  {
    "country": "TH",
    "id": 1621034,
    "coord": {
      "lat": 14.61667,
      "lon": 100.366669
    },
    "name": "Changwat Ang Thong"
  },
  {
    "country": "TH",
    "id": 1618205,
    "coord": {
      "lat": 14.51914,
      "lon": 100.392082
    },
    "name": "Ban Khlong Phae"
  },
  {
    "country": "TH",
    "id": 1906688,
    "coord": {
      "lat": 15.16667,
      "lon": 105.166672
    },
    "name": "Changwat Ubon Ratchathani"
  },
  {
    "country": "TH",
    "id": 1600900,
    "coord": {
      "lat": 15.08333,
      "lon": 105.116669
    },
    "name": "Ban Na Pho"
  },
  {
    "country": "TH",
    "id": 1605214,
    "coord": {
      "lat": 17.66667,
      "lon": 100.5
    },
    "name": "Changwat Uttaradit"
  },
  {
    "country": "TH",
    "id": 1599143,
    "coord": {
      "lat": 17.41544,
      "lon": 100.322807
    },
    "name": "Ban Phae"
  },
  {
    "country": "TH",
    "id": 7510909,
    "coord": {
      "lat": 17.47065,
      "lon": 100.331459
    },
    "name": "Thong Saen Khan"
  },
  {
    "country": "TH",
    "id": 1150085,
    "coord": {
      "lat": 8.16453,
      "lon": 99.680389
    },
    "name": "Thung Song"
  },
  {
    "country": "TH",
    "id": 1150953,
    "coord": {
      "lat": 13.58333,
      "lon": 99.533333
    },
    "name": "Changwat Ratchaburi"
  },
  {
    "country": "TH",
    "id": 1151063,
    "coord": {
      "lat": 12.38466,
      "lon": 99.909828
    },
    "name": "Pran Buri"
  },
  {
    "country": "TH",
    "id": 1152188,
    "coord": {
      "lat": 16.716669,
      "lon": 98.566673
    },
    "name": "Mae Sot"
  },
  {
    "country": "TH",
    "id": 1152202,
    "coord": {
      "lat": 16.98403,
      "lon": 98.516647
    },
    "name": "Mae Ramat"
  },
  {
    "country": "TH",
    "id": 1152377,
    "coord": {
      "lat": 15.751,
      "lon": 99.789253
    },
    "name": "Lat Yao"
  },
  {
    "country": "TH",
    "id": 1156257,
    "coord": {
      "lat": 17.03056,
      "lon": 99.752502
    },
    "name": "Ban Na"
  },
  {
    "country": "TH",
    "id": 1595679,
    "coord": {
      "lat": 16.65,
      "lon": 103.300003
    },
    "name": "Nong Kung Si"
  },
  {
    "country": "TH",
    "id": 1599640,
    "coord": {
      "lat": 17.2675,
      "lon": 103.224716
    },
    "name": "Ban Nong Wua So"
  },
  {
    "country": "TH",
    "id": 1603235,
    "coord": {
      "lat": 14.98333,
      "lon": 102.650002
    },
    "name": "Ban Huai Thalaeng"
  },
  {
    "country": "TH",
    "id": 1605221,
    "coord": {
      "lat": 15.37939,
      "lon": 100.024498
    },
    "name": "Uthai Thani"
  },
  {
    "country": "TH",
    "id": 1606343,
    "coord": {
      "lat": 17.928511,
      "lon": 103.955193
    },
    "name": "Seka"
  },
  {
    "country": "TH",
    "id": 1608533,
    "coord": {
      "lat": 13.98333,
      "lon": 100.083328
    },
    "name": "Changwat Nakhon Pathom"
  },
  {
    "country": "TH",
    "id": 1607068,
    "coord": {
      "lat": 7.77768,
      "lon": 100.321342
    },
    "name": "Ranot"
  },
  {
    "country": "TH",
    "id": 1607439,
    "coord": {
      "lat": 16.376499,
      "lon": 102.128532
    },
    "name": "Phu Khiao"
  },
  {
    "country": "TH",
    "id": 1607512,
    "coord": {
      "lat": 14.72526,
      "lon": 100.795357
    },
    "name": "Phra Phutthabat"
  },
  {
    "country": "TH",
    "id": 1607615,
    "coord": {
      "lat": 18.033331,
      "lon": 103.166672
    },
    "name": "Phon Charoen"
  },
  {
    "country": "TH",
    "id": 1607708,
    "coord": {
      "lat": 16.82481,
      "lon": 100.258583
    },
    "name": "Phitsanulok"
  },
  {
    "country": "TH",
    "id": 1607730,
    "coord": {
      "lat": 15.24467,
      "lon": 105.22908
    },
    "name": "Phibun Mangsahan"
  },
  {
    "country": "TH",
    "id": 1608136,
    "coord": {
      "lat": 15.18014,
      "lon": 102.256943
    },
    "name": "Non Sung"
  },
  {
    "country": "TH",
    "id": 1608538,
    "coord": {
      "lat": 14.16667,
      "lon": 101.099998
    },
    "name": "Changwat Nakhon Nayok"
  },
  {
    "country": "TH",
    "id": 1608595,
    "coord": {
      "lat": 16.58333,
      "lon": 104.5
    },
    "name": "Changwat Mukdahan"
  },
  {
    "country": "TH",
    "id": 1609345,
    "coord": {
      "lat": 16.541,
      "lon": 104.050041
    },
    "name": "Kuchinarai"
  },
  {
    "country": "TH",
    "id": 1609990,
    "coord": {
      "lat": 16.700081,
      "lon": 104.090202
    },
    "name": "Khao Wong"
  },
  {
    "country": "TH",
    "id": 1610185,
    "coord": {
      "lat": 15.65558,
      "lon": 103.583611
    },
    "name": "Kaset Wisai"
  },
  {
    "country": "TH",
    "id": 1610505,
    "coord": {
      "lat": 16.108641,
      "lon": 102.25808
    },
    "name": "Kaeng Khro"
  },
  {
    "country": "TH",
    "id": 1610963,
    "coord": {
      "lat": 15.2085,
      "lon": 101.771378
    },
    "name": "Dan Khun Thot"
  },
  {
    "country": "TH",
    "id": 1611424,
    "coord": {
      "lat": 15.2,
      "lon": 101.133331
    },
    "name": "Chai Badan"
  },
  {
    "country": "TH",
    "id": 1613284,
    "coord": {
      "lat": 16.01667,
      "lon": 103.949997
    },
    "name": "Ban Selaphum"
  },
  {
    "country": "TH",
    "id": 1948015,
    "coord": {
      "lat": 14.89944,
      "lon": 101.708328
    },
    "name": "Amphoe Sikhiu"
  },
  {
    "country": "TH",
    "id": 1605651,
    "coord": {
      "lat": 15,
      "lon": 100
    },
    "name": "Kingdom of Thailand"
  },
  {
    "country": "TH",
    "id": 1150514,
    "coord": {
      "lat": 9.166667,
      "lon": 99.25
    },
    "name": "Changwat Surat Thani"
  },
  {
    "country": "TH",
    "id": 1119767,
    "coord": {
      "lat": 9.416667,
      "lon": 99.966667
    },
    "name": "Ban Hua Laem Ma So"
  },
  {
    "country": "TH",
    "id": 1597591,
    "coord": {
      "lat": 9.466667,
      "lon": 100.033333
    },
    "name": "Ban Thung"
  },
  {
    "country": "TH",
    "id": 1617290,
    "coord": {
      "lat": 16.299999,
      "lon": 104.433327
    },
    "name": "Ban Kut Khae Don"
  },
  {
    "country": "TH",
    "id": 1607724,
    "coord": {
      "lat": 16.25,
      "lon": 100.416672
    },
    "name": "Changwat Phichit"
  },
  {
    "country": "TH",
    "id": 1599907,
    "coord": {
      "lat": 16.466669,
      "lon": 100.133331
    },
    "name": "Ban Nong Sadao"
  },
  {
    "country": "TH",
    "id": 1607736,
    "coord": {
      "lat": 16.25,
      "lon": 101.083328
    },
    "name": "Changwat Phetchabun"
  },
  {
    "country": "TH",
    "id": 1616495,
    "coord": {
      "lat": 16.5,
      "lon": 101.166672
    },
    "name": "Ban Na"
  },
  {
    "country": "TH",
    "id": 1618918,
    "coord": {
      "lat": 16.799999,
      "lon": 101.183327
    },
    "name": "Ban Huai Pun"
  },
  {
    "country": "TH",
    "id": 1616123,
    "coord": {
      "lat": 17.00271,
      "lon": 101.223534
    },
    "name": "Ban Na Sam"
  },
  {
    "country": "TH",
    "id": 1606789,
    "coord": {
      "lat": 17.33333,
      "lon": 103.833328
    },
    "name": "Changwat Sakon Nakhon"
  },
  {
    "country": "TH",
    "id": 7918493,
    "coord": {
      "lat": 17.08703,
      "lon": 104.073608
    },
    "name": "Ban Bon"
  },
  {
    "country": "TH",
    "id": 1608530,
    "coord": {
      "lat": 17.33333,
      "lon": 104.416672
    },
    "name": "Changwat Nakhon Phanom"
  },
  {
    "country": "TH",
    "id": 1597746,
    "coord": {
      "lat": 17.25131,
      "lon": 104.460442
    },
    "name": "Ban Than Samai"
  },
  {
    "country": "TH",
    "id": 8136536,
    "coord": {
      "lat": 17.569719,
      "lon": 100.063889
    },
    "name": "Ban Thai Toei"
  },
  {
    "country": "TH",
    "id": 1601026,
    "coord": {
      "lat": 17.55756,
      "lon": 100.288971
    },
    "name": "Ban Nam Phi"
  },
  {
    "country": "TH",
    "id": 1603424,
    "coord": {
      "lat": 17.582359,
      "lon": 100.682968
    },
    "name": "Ban Huai Khom"
  },
  {
    "country": "TH",
    "id": 8136306,
    "coord": {
      "lat": 17.589531,
      "lon": 100.49556
    },
    "name": "Ban Na Klam"
  },
  {
    "country": "TH",
    "id": 8136656,
    "coord": {
      "lat": 17.592529,
      "lon": 100.025391
    },
    "name": "Ban Hua Dum"
  },
  {
    "country": "TH",
    "id": 8136670,
    "coord": {
      "lat": 17.59692,
      "lon": 100.049889
    },
    "name": "Ban Phra Thaen"
  },
  {
    "country": "TH",
    "id": 8136559,
    "coord": {
      "lat": 17.656639,
      "lon": 100.03611
    },
    "name": "Ban Khok Chang"
  },
  {
    "country": "TH",
    "id": 1150532,
    "coord": {
      "lat": 17.25,
      "lon": 99.666672
    },
    "name": "Changwat Sukhothai"
  },
  {
    "country": "TH",
    "id": 1330822,
    "coord": {
      "lat": 17.67,
      "lon": 99.879723
    },
    "name": "Ban Nam Rai"
  },
  {
    "country": "TH",
    "id": 8136647,
    "coord": {
      "lat": 17.676559,
      "lon": 100.02961
    },
    "name": "Ban Wat Pa"
  },
  {
    "country": "TH",
    "id": 8136643,
    "coord": {
      "lat": 17.670031,
      "lon": 100.223778
    },
    "name": "Ban Wang Yang"
  },
  {
    "country": "TH",
    "id": 1603254,
    "coord": {
      "lat": 17.68939,
      "lon": 100.554832
    },
    "name": "Ban Huai Si Siat"
  },
  {
    "country": "TH",
    "id": 1603453,
    "coord": {
      "lat": 17.69956,
      "lon": 100.63343
    },
    "name": "Ban Huai Hut"
  },
  {
    "country": "TH",
    "id": 1603521,
    "coord": {
      "lat": 17.708281,
      "lon": 100.014717
    },
    "name": "Ban Hua Dong"
  },
  {
    "country": "TH",
    "id": 8136357,
    "coord": {
      "lat": 17.70989,
      "lon": 100.34758
    },
    "name": "Ban Ruam Chit"
  },
  {
    "country": "TH",
    "id": 1597447,
    "coord": {
      "lat": 17.70994,
      "lon": 99.990173
    },
    "name": "Ban Ton Kluea"
  },
  {
    "country": "TH",
    "id": 8136685,
    "coord": {
      "lat": 17.730579,
      "lon": 100.069527
    },
    "name": "Ban Long Kham Pom"
  },
  {
    "country": "TH",
    "id": 8136354,
    "coord": {
      "lat": 17.73033,
      "lon": 100.262863
    },
    "name": "Ban Huai Pop"
  },
  {
    "country": "TH",
    "id": 1608483,
    "coord": {
      "lat": 17.72806,
      "lon": 100.684334
    },
    "name": "Nam Pat"
  },
  {
    "country": "TH",
    "id": 8136662,
    "coord": {
      "lat": 17.72094,
      "lon": 100.012894
    },
    "name": "Ban Huai Tai"
  },
  {
    "country": "TH",
    "id": 8136363,
    "coord": {
      "lat": 17.72583,
      "lon": 100.39389
    },
    "name": "Ban Hat Thung"
  },
  {
    "country": "TH",
    "id": 8136550,
    "coord": {
      "lat": 17.73292,
      "lon": 100.133698
    },
    "name": "Ban Nam Long"
  },
  {
    "country": "TH",
    "id": 8181956,
    "coord": {
      "lat": 17.75808,
      "lon": 100.303612
    },
    "name": "Ban Nam Man Tai"
  },
  {
    "country": "TH",
    "id": 1607551,
    "coord": {
      "lat": 18.08333,
      "lon": 100
    },
    "name": "Changwat Phrae"
  },
  {
    "country": "TH",
    "id": 1155284,
    "coord": {
      "lat": 17.76667,
      "lon": 99.449997
    },
    "name": "Ban Phae"
  },
  {
    "country": "TH",
    "id": 1601453,
    "coord": {
      "lat": 17.777361,
      "lon": 100.731003
    },
    "name": "Ban Muang"
  },
  {
    "country": "TH",
    "id": 8136190,
    "coord": {
      "lat": 17.7847,
      "lon": 100.376442
    },
    "name": "Ban Noen Suan"
  },
  {
    "country": "TH",
    "id": 8136189,
    "coord": {
      "lat": 17.812,
      "lon": 100.349281
    },
    "name": "Ban Noen Sung"
  },
  {
    "country": "TH",
    "id": 1620025,
    "coord": {
      "lat": 17.8347,
      "lon": 100.783417
    },
    "name": "Ban Den Lek"
  },
  {
    "country": "TH",
    "id": 8136781,
    "coord": {
      "lat": 17.889099,
      "lon": 100.82251
    },
    "name": "Ban Doen"
  },
  {
    "country": "TH",
    "id": 1613268,
    "coord": {
      "lat": 17.904209,
      "lon": 100.823769
    },
    "name": "Ban Siao"
  },
  {
    "country": "TH",
    "id": 1603437,
    "coord": {
      "lat": 17.96917,
      "lon": 100.866562
    },
    "name": "Ban Huai Khai Khiat"
  },
  {
    "country": "TH",
    "id": 8136802,
    "coord": {
      "lat": 17.99378,
      "lon": 100.875198
    },
    "name": "Ban Song Khon"
  },
  {
    "country": "TH",
    "id": 1603679,
    "coord": {
      "lat": 18,
      "lon": 100.883331
    },
    "name": "Ban Fak Tha"
  },
  {
    "country": "TH",
    "id": 1950675,
    "coord": {
      "lat": 18.01824,
      "lon": 101.067619
    },
    "name": "Ban Khok Nai"
  },
  {
    "country": "TH",
    "id": 1616593,
    "coord": {
      "lat": 18.08954,
      "lon": 101.126183
    },
    "name": "Ban Muang Chet Ton"
  },
  {
    "country": "TH",
    "id": 1599062,
    "coord": {
      "lat": 18.08333,
      "lon": 100.216667
    },
    "name": "Ban Phan Soeng"
  },
  {
    "country": "TH",
    "id": 1153670,
    "coord": {
      "lat": 18.75,
      "lon": 99
    },
    "name": "Chiang Mai Province"
  },
  {
    "country": "TH",
    "id": 1607758,
    "coord": {
      "lat": 19.25,
      "lon": 100.25
    },
    "name": "Changwat Phayao"
  },
  {
    "country": "TH",
    "id": 1619006,
    "coord": {
      "lat": 19.299999,
      "lon": 100.166672
    },
    "name": "Ban Huai Chun"
  },
  {
    "country": "TH",
    "id": 1153668,
    "coord": {
      "lat": 19.91667,
      "lon": 99.916672
    },
    "name": "Changwat Chiang Rai"
  },
  {
    "country": "TH",
    "id": 7505667,
    "coord": {
      "lat": 19.548389,
      "lon": 99.492081
    },
    "name": "Ban San Ma Faen"
  },
  {
    "country": "TH",
    "id": 1611415,
    "coord": {
      "lat": 15.11667,
      "lon": 100.099998
    },
    "name": "Changwat Chai Nat"
  },
  {
    "country": "TH",
    "id": 1155606,
    "coord": {
      "lat": 14.98333,
      "lon": 99.98333
    },
    "name": "Ban Nong Song Ton"
  },
  {
    "country": "TH",
    "id": 1120350,
    "coord": {
      "lat": 9.16667,
      "lon": 99.25
    },
    "name": "Ban Bang Pho"
  },
  {
    "country": "TH",
    "id": 1604546,
    "coord": {
      "lat": 9.55,
      "lon": 100.050003
    },
    "name": "Ban Ao Bang Rak"
  },
  {
    "country": "TH",
    "id": 1151074,
    "coord": {
      "lat": 11.82098,
      "lon": 99.784103
    },
    "name": "Prachuap Khiri Khan"
  },
  {
    "country": "TH",
    "id": 1617527,
    "coord": {
      "lat": 12.23317,
      "lon": 102.494423
    },
    "name": "Ban Ko Kankrao"
  },
  {
    "country": "TH",
    "id": 1152472,
    "coord": {
      "lat": 18.33333,
      "lon": 99.5
    },
    "name": "Changwat Lampang"
  },
  {
    "country": "TH",
    "id": 1614295,
    "coord": {
      "lat": 12.93333,
      "lon": 100.883331
    },
    "name": "Phatthaya"
  },
  {
    "country": "TH",
    "id": 1618154,
    "coord": {
      "lat": 13.65,
      "lon": 100.599998
    },
    "name": "Ban Khlong Samrong"
  },
  {
    "country": "TH",
    "id": 1157835,
    "coord": {
      "lat": 14.03333,
      "lon": 99.533333
    },
    "name": "Ban Don Rak"
  },
  {
    "country": "TH",
    "id": 1618767,
    "coord": {
      "lat": 14.96667,
      "lon": 102.116669
    },
    "name": "Ban Hua Thale"
  },
  {
    "country": "TH",
    "id": 1603410,
    "coord": {
      "lat": 15.3,
      "lon": 104.833328
    },
    "name": "Ban Huai Khum"
  },
  {
    "country": "TH",
    "id": 1612688,
    "coord": {
      "lat": 16.683331,
      "lon": 101.216667
    },
    "name": "Ban Tha Kham"
  },
  {
    "country": "TH",
    "id": 7918578,
    "coord": {
      "lat": 17.186609,
      "lon": 104.125168
    },
    "name": "Ban Nong Bua Yai"
  },
  {
    "country": "TH",
    "id": 1603786,
    "coord": {
      "lat": 17.37652,
      "lon": 104.639198
    },
    "name": "Ban Don Muang"
  },
  {
    "country": "TH",
    "id": 8136529,
    "coord": {
      "lat": 17.630939,
      "lon": 100.106644
    },
    "name": "Ban Tha It Bon"
  },
  {
    "country": "TH",
    "id": 1604226,
    "coord": {
      "lat": 17.377451,
      "lon": 102.772163
    },
    "name": "Ban Chang"
  },
  {
    "country": "TH",
    "id": 1157073,
    "coord": {
      "lat": 17.227779,
      "lon": 99.852501
    },
    "name": "Ban Khlong Krachong (1)"
  },
  {
    "country": "TH",
    "id": 1616590,
    "coord": {
      "lat": 18.133329,
      "lon": 100.166672
    },
    "name": "Ban Muang Daeng"
  },
  {
    "country": "TH",
    "id": 1154843,
    "coord": {
      "lat": 18.76667,
      "lon": 98.98333
    },
    "name": "Ban San Pa Lan"
  },
  {
    "country": "TH",
    "id": 1153669,
    "coord": {
      "lat": 19.908581,
      "lon": 99.832497
    },
    "name": "Chiang Rai"
  },
  {
    "country": "TH",
    "id": 1152631,
    "coord": {
      "lat": 8.25,
      "lon": 99.166672
    },
    "name": "Changwat Krabi"
  },
  {
    "country": "TH",
    "id": 1156778,
    "coord": {
      "lat": 8.1,
      "lon": 98.916672
    },
    "name": "Ban Krabi Yai"
  },
  {
    "country": "TH",
    "id": 1607707,
    "coord": {
      "lat": 16.91667,
      "lon": 100.5
    },
    "name": "Changwat Phitsanulok"
  },
  {
    "country": "TH",
    "id": 1601433,
    "coord": {
      "lat": 16.9,
      "lon": 100.616669
    },
    "name": "Ban Muang Hom"
  },
  {
    "country": "TH",
    "id": 1151253,
    "coord": {
      "lat": 8,
      "lon": 98.25
    },
    "name": "Phuket Province"
  },
  {
    "country": "TH",
    "id": 1117652,
    "coord": {
      "lat": 7.88481,
      "lon": 98.400078
    },
    "name": "Ban Talat Yai"
  },
  {
    "country": "TH",
    "id": 1607530,
    "coord": {
      "lat": 14.28333,
      "lon": 100.5
    },
    "name": "Changwat Phra Nakhon Si Ayutthaya"
  },
  {
    "country": "TH",
    "id": 1618100,
    "coord": {
      "lat": 14.33333,
      "lon": 100.550003
    },
    "name": "Ban Khlong Takhian"
  },
  {
    "country": "TH",
    "id": 1606146,
    "coord": {
      "lat": 6.83333,
      "lon": 100.666672
    },
    "name": "Changwat Songkhla"
  },
  {
    "country": "TH",
    "id": 1606147,
    "coord": {
      "lat": 7.19882,
      "lon": 100.5951
    },
    "name": "Songkhla"
  },
  {
    "country": "TH",
    "id": 1152473,
    "coord": {
      "lat": 18.29232,
      "lon": 99.492767
    },
    "name": "Lampang"
  },
  {
    "country": "TH",
    "id": 1150006,
    "coord": {
      "lat": 7.5,
      "lon": 99.5
    },
    "name": "Changwat Trang"
  },
  {
    "country": "TH",
    "id": 1150007,
    "coord": {
      "lat": 7.55633,
      "lon": 99.611412
    },
    "name": "Trang"
  },
  {
    "country": "TH",
    "id": 1152633,
    "coord": {
      "lat": 8.07257,
      "lon": 98.910522
    },
    "name": "Krabi"
  },
  {
    "country": "TH",
    "id": 1604869,
    "coord": {
      "lat": 6.33333,
      "lon": 101.25
    },
    "name": "Changwat Yala"
  },
  {
    "country": "TH",
    "id": 1604870,
    "coord": {
      "lat": 6.53995,
      "lon": 101.281281
    },
    "name": "Yala"
  },
  {
    "country": "TH",
    "id": 1150964,
    "coord": {
      "lat": 9.75,
      "lon": 98.666672
    },
    "name": "Changwat Ranong"
  },
  {
    "country": "TH",
    "id": 1150965,
    "coord": {
      "lat": 9.96583,
      "lon": 98.634758
    },
    "name": "Ranong"
  },
  {
    "country": "TH",
    "id": 1607976,
    "coord": {
      "lat": 6.75,
      "lon": 100.416672
    },
    "name": "Changwat Pattani"
  },
  {
    "country": "TH",
    "id": 1941157,
    "coord": {
      "lat": 6.88917,
      "lon": 101.282249
    },
    "name": "Ban Laem Nok"
  },
  {
    "country": "TH",
    "id": 1606029,
    "coord": {
      "lat": 14.83333,
      "lon": 103.75
    },
    "name": "Changwat Surin"
  },
  {
    "country": "TH",
    "id": 1606030,
    "coord": {
      "lat": 14.88181,
      "lon": 103.493637
    },
    "name": "Surin"
  },
  {
    "country": "TH",
    "id": 1608048,
    "coord": {
      "lat": 13.91301,
      "lon": 100.498833
    },
    "name": "Pak Kret"
  },
  {
    "country": "TH",
    "id": 1610780,
    "coord": {
      "lat": 7.00836,
      "lon": 100.476677
    },
    "name": "Hat Yai"
  },
  {
    "country": "TH",
    "id": 1605245,
    "coord": {
      "lat": 15.22483,
      "lon": 104.85289
    },
    "name": "Ubon Ratchathani"
  },
  {
    "country": "TH",
    "id": 1608451,
    "coord": {
      "lat": 18.83333,
      "lon": 100.666672
    },
    "name": "Changwat Nan"
  },
  {
    "country": "TH",
    "id": 7319272,
    "coord": {
      "lat": 20.03694,
      "lon": 99.316498
    },
    "name": "Ban San Phakla"
  },
  {
    "country": "TH",
    "id": 1605403,
    "coord": {
      "lat": 13.725,
      "lon": 100.485123
    },
    "name": "Thon Buri"
  },
  {
    "country": "TH",
    "id": 1598267,
    "coord": {
      "lat": 14.67222,
      "lon": 101.368889
    },
    "name": "Ban Sathani Bandai Ma"
  },
  {
    "country": "TH",
    "id": 1152467,
    "coord": {
      "lat": 18.25,
      "lon": 98.916672
    },
    "name": "Changwat Lamphun"
  },
  {
    "country": "TH",
    "id": 8136555,
    "coord": {
      "lat": 17.70314,
      "lon": 100.125
    },
    "name": "Ban Khon Kaen"
  },
  {
    "country": "TH",
    "id": 1607000,
    "coord": {
      "lat": 15.75,
      "lon": 103.75
    },
    "name": "Changwat Roi Et"
  },
  {
    "country": "TH",
    "id": 1604017,
    "coord": {
      "lat": 16.1,
      "lon": 103.76667
    },
    "name": "Ban Don Chai"
  },
  {
    "country": "TH",
    "id": 1616371,
    "coord": {
      "lat": 15.25,
      "lon": 104.849998
    },
    "name": "Ban Na Khwai"
  },
  {
    "country": "TH",
    "id": 1615717,
    "coord": {
      "lat": 14.98333,
      "lon": 102.283333
    },
    "name": "Ban Nong Hoi"
  },
  {
    "country": "TH",
    "id": 1611452,
    "coord": {
      "lat": 14.84823,
      "lon": 102.993317
    },
    "name": "Changwat Buriram"
  },
  {
    "country": "TH",
    "id": 1613591,
    "coord": {
      "lat": 15.25,
      "lon": 103.25
    },
    "name": "Ban Sako Sai"
  },
  {
    "country": "TH",
    "id": 1609070,
    "coord": {
      "lat": 17.41667,
      "lon": 101.5
    },
    "name": "Changwat Loei"
  },
  {
    "country": "TH",
    "id": 8040258,
    "coord": {
      "lat": 17.44039,
      "lon": 101.728203
    },
    "name": "Ban Phu Kratae"
  },
  {
    "country": "TH",
    "id": 1609775,
    "coord": {
      "lat": 16.5,
      "lon": 102.083328
    },
    "name": "Changwat Khon Kaen"
  },
  {
    "country": "TH",
    "id": 1600176,
    "coord": {
      "lat": 16.466669,
      "lon": 102.76667
    },
    "name": "Ban Nong Lup"
  },
  {
    "country": "TH",
    "id": 7466788,
    "coord": {
      "lat": 6.92158,
      "lon": 100.397827
    },
    "name": "Ban Thon Khlong"
  },
  {
    "country": "TH",
    "id": 1156115,
    "coord": {
      "lat": 9.73333,
      "lon": 98.599998
    },
    "name": "Ban Nam Sai"
  },
  {
    "country": "TH",
    "id": 1158126,
    "coord": {
      "lat": 8.10978,
      "lon": 98.310173
    },
    "name": "Ban Bo Sai"
  },
  {
    "country": "TH",
    "id": 1614396,
    "coord": {
      "lat": 6.78667,
      "lon": 101.1642
    },
    "name": "Ban Phai Man"
  },
  {
    "country": "TH",
    "id": 6791036,
    "coord": {
      "lat": 7.18042,
      "lon": 100.596611
    },
    "name": "Ban Tao It"
  },
  {
    "country": "TH",
    "id": 1118576,
    "coord": {
      "lat": 8.1,
      "lon": 98.98333
    },
    "name": "Ban Nong Kok"
  },
  {
    "country": "TH",
    "id": 1608408,
    "coord": {
      "lat": 6.33333,
      "lon": 101.75
    },
    "name": "Changwat Narathiwat"
  },
  {
    "country": "TH",
    "id": 1941183,
    "coord": {
      "lat": 6.51892,
      "lon": 101.754028
    },
    "name": "Ban Hu Tae Thu Wo"
  },
  {
    "country": "TH",
    "id": 1119754,
    "coord": {
      "lat": 9.15,
      "lon": 99.116669
    },
    "name": "Ban Hua Suan"
  },
  {
    "country": "TH",
    "id": 1616639,
    "coord": {
      "lat": 17.61108,
      "lon": 100.102753
    },
    "name": "Ban Mon Mai"
  },
  {
    "country": "TH",
    "id": 1150489,
    "coord": {
      "lat": 16.58333,
      "lon": 98.833328
    },
    "name": "Changwat Tak"
  },
  {
    "country": "TH",
    "id": 8164011,
    "coord": {
      "lat": 16.90172,
      "lon": 99.25164
    },
    "name": "Ban Sanam Bin Mai"
  },
  {
    "country": "TH",
    "id": 7581129,
    "coord": {
      "lat": 16.694,
      "lon": 98.544746
    },
    "name": "Ban Nong King Fa"
  },
  {
    "country": "TH",
    "id": 7420462,
    "coord": {
      "lat": 19.95775,
      "lon": 99.871498
    },
    "name": "Ban Pong Luang"
  },
  {
    "country": "TH",
    "id": 1156396,
    "coord": {
      "lat": 18.26667,
      "lon": 99.51667
    },
    "name": "Ban Mai"
  },
  {
    "country": "TH",
    "id": 1152221,
    "coord": {
      "lat": 18.75,
      "lon": 97.916672
    },
    "name": "Changwat Mae Hong Son"
  },
  {
    "country": "TH",
    "id": 1152222,
    "coord": {
      "lat": 19.300289,
      "lon": 97.968521
    },
    "name": "Mae Hong Son"
  },
  {
    "country": "TH",
    "id": 1156379,
    "coord": {
      "lat": 18.771999,
      "lon": 98.954468
    },
    "name": "Ban Pong Noi"
  },
  {
    "country": "TH",
    "id": 1612048,
    "coord": {
      "lat": 12.69686,
      "lon": 101.004311
    },
    "name": "Ban U Taphao"
  },
  {
    "country": "TH",
    "id": 1602641,
    "coord": {
      "lat": 13.68333,
      "lon": 100.76667
    },
    "name": "Ban Khlong Nong Kha"
  },
  {
    "country": "TH",
    "id": 1620083,
    "coord": {
      "lat": 12.2775,
      "lon": 102.306137
    },
    "name": "Ban Chum Saeng"
  },
  {
    "country": "TH",
    "id": 1606032,
    "coord": {
      "lat": 14.46667,
      "lon": 100.066673
    },
    "name": "Changwat Suphan Buri"
  },
  {
    "country": "TH",
    "id": 1117971,
    "coord": {
      "lat": 14.10528,
      "lon": 99.895561
    },
    "name": "Ban Rai Chek"
  },
  {
    "country": "TH",
    "id": 1117656,
    "coord": {
      "lat": 7.88489,
      "lon": 98.385567
    },
    "name": "Ban Talat Nua"
  },
  {
    "country": "TH",
    "id": 1117823,
    "coord": {
      "lat": 12.27081,
      "lon": 99.872032
    },
    "name": "Sam Roi Yot"
  },
  {
    "country": "TH",
    "id": 1149698,
    "coord": {
      "lat": 13.11189,
      "lon": 99.944672
    },
    "name": "Phetchaburi"
  },
  {
    "country": "TH",
    "id": 1149965,
    "coord": {
      "lat": 15.38333,
      "lon": 99.550003
    },
    "name": "Changwat Uthai Thani"
  },
  {
    "country": "TH",
    "id": 1150246,
    "coord": {
      "lat": 13.96118,
      "lon": 99.64122
    },
    "name": "Tha Muang"
  },
  {
    "country": "TH",
    "id": 1150275,
    "coord": {
      "lat": 13.9,
      "lon": 99.76667
    },
    "name": "Tha Maka"
  },
  {
    "country": "TH",
    "id": 1150490,
    "coord": {
      "lat": 16.86968,
      "lon": 99.128983
    },
    "name": "Tak"
  },
  {
    "country": "TH",
    "id": 1150515,
    "coord": {
      "lat": 9.14011,
      "lon": 99.333107
    },
    "name": "Surat Thani"
  },
  {
    "country": "TH",
    "id": 1150533,
    "coord": {
      "lat": 17.00778,
      "lon": 99.822998
    },
    "name": "Sukhothai"
  },
  {
    "country": "TH",
    "id": 1150624,
    "coord": {
      "lat": 17.51692,
      "lon": 99.759781
    },
    "name": "Si Satchanalai"
  },
  {
    "country": "TH",
    "id": 1150681,
    "coord": {
      "lat": 17.315969,
      "lon": 99.831863
    },
    "name": "Sawankhalok"
  },
  {
    "country": "TH",
    "id": 1150728,
    "coord": {
      "lat": 18.628281,
      "lon": 98.895721
    },
    "name": "San Pa Tong"
  },
  {
    "country": "TH",
    "id": 1150732,
    "coord": {
      "lat": 18.74486,
      "lon": 99.11953
    },
    "name": "San Kamphaeng"
  },
  {
    "country": "TH",
    "id": 1150921,
    "coord": {
      "lat": 8.17911,
      "lon": 99.854248
    },
    "name": "Ron Phibun"
  },
  {
    "country": "TH",
    "id": 1150954,
    "coord": {
      "lat": 13.53671,
      "lon": 99.817123
    },
    "name": "Ratchaburi"
  },
  {
    "country": "TH",
    "id": 1151211,
    "coord": {
      "lat": 9.11072,
      "lon": 99.232079
    },
    "name": "Phunphin"
  },
  {
    "country": "TH",
    "id": 1151254,
    "coord": {
      "lat": 7.89059,
      "lon": 98.398102
    },
    "name": "Phuket"
  },
  {
    "country": "TH",
    "id": 1151340,
    "coord": {
      "lat": 13.69234,
      "lon": 99.849693
    },
    "name": "Photharam"
  },
  {
    "country": "TH",
    "id": 1151426,
    "coord": {
      "lat": 19.19203,
      "lon": 99.87883
    },
    "name": "Phayao"
  },
  {
    "country": "TH",
    "id": 1151528,
    "coord": {
      "lat": 18.526171,
      "lon": 98.939362
    },
    "name": "Pa Sang"
  },
  {
    "country": "TH",
    "id": 1152227,
    "coord": {
      "lat": 20.146749,
      "lon": 99.852562
    },
    "name": "Mae Chan"
  },
  {
    "country": "TH",
    "id": 1152468,
    "coord": {
      "lat": 18.58054,
      "lon": 99.007446
    },
    "name": "Lamphun"
  },
  {
    "country": "TH",
    "id": 1152919,
    "coord": {
      "lat": 13.24025,
      "lon": 99.82428
    },
    "name": "Khao Yoi"
  },
  {
    "country": "TH",
    "id": 1153034,
    "coord": {
      "lat": 7.91456,
      "lon": 98.333298
    },
    "name": "Amphoe Kathu"
  },
  {
    "country": "TH",
    "id": 1153035,
    "coord": {
      "lat": 7.91779,
      "lon": 98.333221
    },
    "name": "Kathu"
  },
  {
    "country": "TH",
    "id": 1153081,
    "coord": {
      "lat": 14.00412,
      "lon": 99.548317
    },
    "name": "Kanchanaburi"
  },
  {
    "country": "TH",
    "id": 1153090,
    "coord": {
      "lat": 16.48344,
      "lon": 99.52153
    },
    "name": "Kamphaeng Phet"
  },
  {
    "country": "TH",
    "id": 1153241,
    "coord": {
      "lat": 7.78933,
      "lon": 99.634781
    },
    "name": "Huai Yot"
  },
  {
    "country": "TH",
    "id": 1153269,
    "coord": {
      "lat": 12.57065,
      "lon": 99.958763
    },
    "name": "Hua Hin"
  },
  {
    "country": "TH",
    "id": 1153386,
    "coord": {
      "lat": 18.687031,
      "lon": 98.919388
    },
    "name": "Hang Dong"
  },
  {
    "country": "TH",
    "id": 1153464,
    "coord": {
      "lat": 19.16242,
      "lon": 99.993423
    },
    "name": "Dok Kham Tai"
  },
  {
    "country": "TH",
    "id": 1153513,
    "coord": {
      "lat": 13.51824,
      "lon": 99.954689
    },
    "name": "Damnoen Saduak"
  },
  {
    "country": "TH",
    "id": 1153557,
    "coord": {
      "lat": 10.5,
      "lon": 99.166672
    },
    "name": "Chumphon"
  },
  {
    "country": "TH",
    "id": 1153646,
    "coord": {
      "lat": 13.62,
      "lon": 99.59169
    },
    "name": "Chom Bueng"
  },
  {
    "country": "TH",
    "id": 1153807,
    "coord": {
      "lat": 12.8,
      "lon": 99.966667
    },
    "name": "Cha-am"
  },
  {
    "country": "TH",
    "id": 1154677,
    "coord": {
      "lat": 17.043249,
      "lon": 99.081284
    },
    "name": "Ban Tak"
  },
  {
    "country": "TH",
    "id": 1155139,
    "coord": {
      "lat": 13.81629,
      "lon": 99.877388
    },
    "name": "Ban Pong"
  },
  {
    "country": "TH",
    "id": 1156046,
    "coord": {
      "lat": 8.80036,
      "lon": 99.363724
    },
    "name": "Ban Na San"
  },
  {
    "country": "TH",
    "id": 1157662,
    "coord": {
      "lat": 11.21259,
      "lon": 99.511673
    },
    "name": "Bang Saphan"
  },
  {
    "country": "TH",
    "id": 1157683,
    "coord": {
      "lat": 13.69157,
      "lon": 99.929817
    },
    "name": "Bang Phae"
  },
  {
    "country": "TH",
    "id": 1601579,
    "coord": {
      "lat": 7.20411,
      "lon": 100.545082
    },
    "name": "Ban Mai"
  },
  {
    "country": "TH",
    "id": 1604452,
    "coord": {
      "lat": 13.64172,
      "lon": 100.832718
    },
    "name": "Ban Khlong Bang Sao Thong"
  },
  {
    "country": "TH",
    "id": 1906690,
    "coord": {
      "lat": 17.25,
      "lon": 102.25
    },
    "name": "Changwat Nong Bua Lamphu"
  },
  {
    "country": "TH",
    "id": 1604769,
    "coord": {
      "lat": 15.79408,
      "lon": 104.145103
    },
    "name": "Yasothon"
  },
  {
    "country": "TH",
    "id": 1605018,
    "coord": {
      "lat": 14.5945,
      "lon": 100.338249
    },
    "name": "Wiset Chaichan"
  },
  {
    "country": "TH",
    "id": 1605024,
    "coord": {
      "lat": 15.65778,
      "lon": 101.106033
    },
    "name": "Wichian Buri"
  },
  {
    "country": "TH",
    "id": 1605069,
    "coord": {
      "lat": 15.19319,
      "lon": 104.862801
    },
    "name": "Warin Chamrap"
  },
  {
    "country": "TH",
    "id": 1605102,
    "coord": {
      "lat": 17.30097,
      "lon": 101.768501
    },
    "name": "Wang Saphung"
  },
  {
    "country": "TH",
    "id": 1605118,
    "coord": {
      "lat": 14.22689,
      "lon": 100.7155
    },
    "name": "Wang Noi"
  },
  {
    "country": "TH",
    "id": 1605215,
    "coord": {
      "lat": 17.62557,
      "lon": 100.094208
    },
    "name": "Uttaradit"
  },
  {
    "country": "TH",
    "id": 1605239,
    "coord": {
      "lat": 17.41567,
      "lon": 102.785889
    },
    "name": "Udon Thani"
  },
  {
    "country": "TH",
    "id": 1605467,
    "coord": {
      "lat": 12.95772,
      "lon": 99.905548
    },
    "name": "Tha Yang"
  },
  {
    "country": "TH",
    "id": 1605509,
    "coord": {
      "lat": 14.56739,
      "lon": 100.725983
    },
    "name": "Tha Ruea"
  },
  {
    "country": "TH",
    "id": 1605601,
    "coord": {
      "lat": 12.62137,
      "lon": 102.004799
    },
    "name": "Tha Mai"
  },
  {
    "country": "TH",
    "id": 1605754,
    "coord": {
      "lat": 16.22094,
      "lon": 100.419777
    },
    "name": "Taphan Hin"
  },
  {
    "country": "TH",
    "id": 1605957,
    "coord": {
      "lat": 6.25947,
      "lon": 102.054611
    },
    "name": "Tak Bai"
  },
  {
    "country": "TH",
    "id": 1606033,
    "coord": {
      "lat": 14.47418,
      "lon": 100.122177
    },
    "name": "Suphan Buri"
  },
  {
    "country": "TH",
    "id": 1606050,
    "coord": {
      "lat": 6.02977,
      "lon": 101.965858
    },
    "name": "Su-ngai Kolok"
  },
  {
    "country": "TH",
    "id": 1606238,
    "coord": {
      "lat": 14.83333,
      "lon": 104.333328
    },
    "name": "Changwat Sisaket"
  },
  {
    "country": "TH",
    "id": 1606239,
    "coord": {
      "lat": 15.11481,
      "lon": 104.329376
    },
    "name": "Si Sa Ket"
  },
  {
    "country": "TH",
    "id": 1606250,
    "coord": {
      "lat": 13.17372,
      "lon": 100.931107
    },
    "name": "Si Racha"
  },
  {
    "country": "TH",
    "id": 1606269,
    "coord": {
      "lat": 14.85,
      "lon": 100.23333
    },
    "name": "Changwat Sing Buri"
  },
  {
    "country": "TH",
    "id": 1606270,
    "coord": {
      "lat": 14.88786,
      "lon": 100.40464
    },
    "name": "Sing Buri"
  },
  {
    "country": "TH",
    "id": 1606350,
    "coord": {
      "lat": 17.475309,
      "lon": 103.457527
    },
    "name": "Sawang Daen Din"
  },
  {
    "country": "TH",
    "id": 1606375,
    "coord": {
      "lat": 6.83333,
      "lon": 100
    },
    "name": "Changwat Satun"
  },
  {
    "country": "TH",
    "id": 1606376,
    "coord": {
      "lat": 6.62314,
      "lon": 100.066757
    },
    "name": "Satun"
  },
  {
    "country": "TH",
    "id": 1606386,
    "coord": {
      "lat": 12.66644,
      "lon": 100.900726
    },
    "name": "Sattahip"
  },
  {
    "country": "TH",
    "id": 1606417,
    "coord": {
      "lat": 14.60838,
      "lon": 100.968224
    },
    "name": "Changwat Sara Buri"
  },
  {
    "country": "TH",
    "id": 1606418,
    "coord": {
      "lat": 14.53333,
      "lon": 100.916672
    },
    "name": "Saraburi"
  },
  {
    "country": "TH",
    "id": 1606585,
    "coord": {
      "lat": 13.4,
      "lon": 99.958328
    },
    "name": "Changwat Samut Songkhram"
  },
  {
    "country": "TH",
    "id": 1606586,
    "coord": {
      "lat": 13.41456,
      "lon": 100.00264
    },
    "name": "Samut Songkhram"
  },
  {
    "country": "TH",
    "id": 1606588,
    "coord": {
      "lat": 13.54753,
      "lon": 100.273621
    },
    "name": "Samut Sakhon"
  },
  {
    "country": "TH",
    "id": 1606590,
    "coord": {
      "lat": 13.59934,
      "lon": 100.596748
    },
    "name": "Samut Prakan"
  },
  {
    "country": "TH",
    "id": 1606638,
    "coord": {
      "lat": 13.72698,
      "lon": 100.215263
    },
    "name": "Sam Phran"
  },
  {
    "country": "TH",
    "id": 1606790,
    "coord": {
      "lat": 17.16116,
      "lon": 104.147247
    },
    "name": "Sakon Nakhon"
  },
  {
    "country": "TH",
    "id": 1606807,
    "coord": {
      "lat": 13.81411,
      "lon": 102.07222
    },
    "name": "Sa Kaeo"
  },
  {
    "country": "TH",
    "id": 1606939,
    "coord": {
      "lat": 6.63883,
      "lon": 100.423424
    },
    "name": "Sadao"
  },
  {
    "country": "TH",
    "id": 1607001,
    "coord": {
      "lat": 16.0567,
      "lon": 103.653091
    },
    "name": "Roi Et"
  },
  {
    "country": "TH",
    "id": 1607017,
    "coord": {
      "lat": 12.68095,
      "lon": 101.25798
    },
    "name": "Rayong"
  },
  {
    "country": "TH",
    "id": 1607435,
    "coord": {
      "lat": 16.884251,
      "lon": 101.884666
    },
    "name": "Phu Kradueng"
  },
  {
    "country": "TH",
    "id": 1611406,
    "coord": {
      "lat": 15.75,
      "lon": 102
    },
    "name": "Changwat Chaiyaphum"
  },
  {
    "country": "TH",
    "id": 1607508,
    "coord": {
      "lat": 13.65854,
      "lon": 100.533623
    },
    "name": "Phra Pradaeng"
  },
  {
    "country": "TH",
    "id": 1607532,
    "coord": {
      "lat": 14.35167,
      "lon": 100.577393
    },
    "name": "Phra Nakhon Si Ayutthaya"
  },
  {
    "country": "TH",
    "id": 1607552,
    "coord": {
      "lat": 18.145889,
      "lon": 100.141029
    },
    "name": "Phrae"
  },
  {
    "country": "TH",
    "id": 1607737,
    "coord": {
      "lat": 16.419041,
      "lon": 101.160561
    },
    "name": "Phetchabun"
  },
  {
    "country": "TH",
    "id": 1607779,
    "coord": {
      "lat": 7.61786,
      "lon": 100.077919
    },
    "name": "Phatthalung"
  },
  {
    "country": "TH",
    "id": 1607801,
    "coord": {
      "lat": 13.74787,
      "lon": 101.355301
    },
    "name": "Phanom Sarakham"
  },
  {
    "country": "TH",
    "id": 1607838,
    "coord": {
      "lat": 13.44581,
      "lon": 101.184448
    },
    "name": "Phanat Nikhom"
  },
  {
    "country": "TH",
    "id": 1607865,
    "coord": {
      "lat": 14.45736,
      "lon": 100.369888
    },
    "name": "Phak Hai"
  },
  {
    "country": "TH",
    "id": 1607978,
    "coord": {
      "lat": 6.86814,
      "lon": 101.250092
    },
    "name": "Pattani"
  },
  {
    "country": "TH",
    "id": 1607983,
    "coord": {
      "lat": 14.01346,
      "lon": 100.530487
    },
    "name": "Pathum Thani"
  },
  {
    "country": "TH",
    "id": 1608033,
    "coord": {
      "lat": 8.35109,
      "lon": 100.20195
    },
    "name": "Pak Phanang"
  },
  {
    "country": "TH",
    "id": 1608133,
    "coord": {
      "lat": 13.86075,
      "lon": 100.514771
    },
    "name": "Mueang Nonthaburi"
  },
  {
    "country": "TH",
    "id": 1608191,
    "coord": {
      "lat": 15.99025,
      "lon": 101.061829
    },
    "name": "Nong Phai"
  },
  {
    "country": "TH",
    "id": 1608232,
    "coord": {
      "lat": 17.878469,
      "lon": 102.741997
    },
    "name": "Nong Khai"
  },
  {
    "country": "TH",
    "id": 1608239,
    "coord": {
      "lat": 14.34062,
      "lon": 100.867332
    },
    "name": "Nong Khae"
  },
  {
    "country": "TH",
    "id": 1608409,
    "coord": {
      "lat": 6.42639,
      "lon": 101.823082
    },
    "name": "Narathiwat"
  },
  {
    "country": "TH",
    "id": 1608424,
    "coord": {
      "lat": 14.6377,
      "lon": 102.791382
    },
    "name": "Nang Rong"
  },
  {
    "country": "TH",
    "id": 1608452,
    "coord": {
      "lat": 18.792919,
      "lon": 100.729721
    },
    "name": "Nan"
  },
  {
    "country": "TH",
    "id": 1608462,
    "coord": {
      "lat": 17.770361,
      "lon": 102.189468
    },
    "name": "Nam Som"
  },
  {
    "country": "TH",
    "id": 1608527,
    "coord": {
      "lat": 15.70472,
      "lon": 100.137169
    },
    "name": "Nakhon Sawan"
  },
  {
    "country": "TH",
    "id": 1608529,
    "coord": {
      "lat": 14.97066,
      "lon": 102.101959
    },
    "name": "Nakhon Ratchasima"
  },
  {
    "country": "TH",
    "id": 1608531,
    "coord": {
      "lat": 17.41081,
      "lon": 104.778557
    },
    "name": "Nakhon Phanom"
  },
  {
    "country": "TH",
    "id": 1608534,
    "coord": {
      "lat": 13.8196,
      "lon": 100.044273
    },
    "name": "Nakhon Pathom"
  },
  {
    "country": "TH",
    "id": 1608539,
    "coord": {
      "lat": 14.20463,
      "lon": 101.212952
    },
    "name": "Nakhon Nayok"
  },
  {
    "country": "TH",
    "id": 1608541,
    "coord": {
      "lat": 14.46281,
      "lon": 100.608322
    },
    "name": "Nakhon Luang"
  },
  {
    "country": "TH",
    "id": 1608597,
    "coord": {
      "lat": 16.545309,
      "lon": 104.723511
    },
    "name": "Mukdahan"
  },
  {
    "country": "TH",
    "id": 1608900,
    "coord": {
      "lat": 16.18483,
      "lon": 103.300667
    },
    "name": "Maha Sarakham"
  },
  {
    "country": "TH",
    "id": 1609032,
    "coord": {
      "lat": 14.79808,
      "lon": 100.653969
    },
    "name": "Lop Buri"
  },
  {
    "country": "TH",
    "id": 1609043,
    "coord": {
      "lat": 16.779831,
      "lon": 101.242249
    },
    "name": "Lom Sak"
  },
  {
    "country": "TH",
    "id": 1609071,
    "coord": {
      "lat": 17.49052,
      "lon": 101.727493
    },
    "name": "Loei"
  },
  {
    "country": "TH",
    "id": 1609278,
    "coord": {
      "lat": 12.48164,
      "lon": 102.073753
    },
    "name": "Laem Sing"
  },
  {
    "country": "TH",
    "id": 1609324,
    "coord": {
      "lat": 17.425699,
      "lon": 102.566917
    },
    "name": "Kut Chap"
  },
  {
    "country": "TH",
    "id": 1609395,
    "coord": {
      "lat": 13.6533,
      "lon": 100.25972
    },
    "name": "Krathum Baen"
  },
  {
    "country": "TH",
    "id": 1609610,
    "coord": {
      "lat": 12.77972,
      "lon": 101.648308
    },
    "name": "Klaeng"
  },
  {
    "country": "TH",
    "id": 1609776,
    "coord": {
      "lat": 16.446711,
      "lon": 102.833
    },
    "name": "Khon Kaen"
  },
  {
    "country": "TH",
    "id": 1609795,
    "coord": {
      "lat": 14.52541,
      "lon": 102.245911
    },
    "name": "Khon Buri"
  },
  {
    "country": "TH",
    "id": 1609899,
    "coord": {
      "lat": 14.06467,
      "lon": 100.645782
    },
    "name": "Khlong Luang"
  },
  {
    "country": "TH",
    "id": 1610227,
    "coord": {
      "lat": 14.64056,
      "lon": 104.649918
    },
    "name": "Kantharalak"
  },
  {
    "country": "TH",
    "id": 1610469,
    "coord": {
      "lat": 16.43281,
      "lon": 103.506577
    },
    "name": "Kalasin"
  },
  {
    "country": "TH",
    "id": 1610503,
    "coord": {
      "lat": 14.58617,
      "lon": 100.997581
    },
    "name": "Kaeng Khoi"
  },
  {
    "country": "TH",
    "id": 1610940,
    "coord": {
      "lat": 14.90598,
      "lon": 105.078362
    },
    "name": "Det Udom"
  },
  {
    "country": "TH",
    "id": 1610943,
    "coord": {
      "lat": 17.983721,
      "lon": 100.05217
    },
    "name": "Den Chai"
  },
  {
    "country": "TH",
    "id": 1611106,
    "coord": {
      "lat": 16.189529,
      "lon": 100.859581
    },
    "name": "Chon Daen"
  },
  {
    "country": "TH",
    "id": 1611110,
    "coord": {
      "lat": 13.3622,
      "lon": 100.983452
    },
    "name": "Chon Buri"
  },
  {
    "country": "TH",
    "id": 1611135,
    "coord": {
      "lat": 14.72844,
      "lon": 102.165237
    },
    "name": "Chok Chai"
  },
  {
    "country": "TH",
    "id": 1611269,
    "coord": {
      "lat": 12.60961,
      "lon": 102.104469
    },
    "name": "Chanthaburi"
  },
  {
    "country": "TH",
    "id": 1611407,
    "coord": {
      "lat": 15.81047,
      "lon": 102.028809
    },
    "name": "Chaiyaphum"
  },
  {
    "country": "TH",
    "id": 1611416,
    "coord": {
      "lat": 15.18636,
      "lon": 100.123528
    },
    "name": "Chai Nat"
  },
  {
    "country": "TH",
    "id": 1611439,
    "coord": {
      "lat": 13.6882,
      "lon": 101.071564
    },
    "name": "Chachoengsao"
  },
  {
    "country": "TH",
    "id": 1611492,
    "coord": {
      "lat": 15.58552,
      "lon": 102.425873
    },
    "name": "Bua Yai"
  },
  {
    "country": "TH",
    "id": 1611635,
    "coord": {
      "lat": 5.77434,
      "lon": 101.072311
    },
    "name": "Betong"
  },
  {
    "country": "TH",
    "id": 1613769,
    "coord": {
      "lat": 14.02775,
      "lon": 100.756027
    },
    "name": "Ban Rangsit"
  },
  {
    "country": "TH",
    "id": 1614455,
    "coord": {
      "lat": 16.059971,
      "lon": 102.730972
    },
    "name": "Ban Phai"
  },
  {
    "country": "TH",
    "id": 1614465,
    "coord": {
      "lat": 13.59072,
      "lon": 100.107483
    },
    "name": "Ban Phaeo"
  },
  {
    "country": "TH",
    "id": 1616658,
    "coord": {
      "lat": 14.61544,
      "lon": 100.72731
    },
    "name": "Ban Mo"
  },
  {
    "country": "TH",
    "id": 1617111,
    "coord": {
      "lat": 13.97738,
      "lon": 100.777763
    },
    "name": "Ban Lam Luk Ka"
  },
  {
    "country": "TH",
    "id": 1619276,
    "coord": {
      "lat": 16.758471,
      "lon": 100.117416
    },
    "name": "Bang Rakam"
  },
  {
    "country": "TH",
    "id": 1619281,
    "coord": {
      "lat": 14.892,
      "lon": 100.317284
    },
    "name": "Bang Racham"
  },
  {
    "country": "TH",
    "id": 1619363,
    "coord": {
      "lat": 13.54297,
      "lon": 100.993332
    },
    "name": "Bang Pakong"
  },
  {
    "country": "TH",
    "id": 1619369,
    "coord": {
      "lat": 14.22783,
      "lon": 100.57589
    },
    "name": "Bang Pa-in"
  },
  {
    "country": "TH",
    "id": 1619400,
    "coord": {
      "lat": 16.027809,
      "lon": 100.379173
    },
    "name": "Bang Mun Nak"
  },
  {
    "country": "TH",
    "id": 1619415,
    "coord": {
      "lat": 14.02188,
      "lon": 100.171829
    },
    "name": "Bang Len"
  },
  {
    "country": "TH",
    "id": 1619423,
    "coord": {
      "lat": 13.04704,
      "lon": 100.928909
    },
    "name": "Bang Lamung"
  },
  {
    "country": "TH",
    "id": 1619434,
    "coord": {
      "lat": 13.805,
      "lon": 100.472832
    },
    "name": "Bang Kruai"
  },
  {
    "country": "TH",
    "id": 1619437,
    "coord": {
      "lat": 16.57831,
      "lon": 100.300339
    },
    "name": "Bang Krathum"
  },
  {
    "country": "TH",
    "id": 1619602,
    "coord": {
      "lat": 13.91783,
      "lon": 100.424026
    },
    "name": "Bang Bua Thong"
  },
  {
    "country": "TH",
    "id": 1619616,
    "coord": {
      "lat": 14.37394,
      "lon": 100.485283
    },
    "name": "Bang Ban"
  },
  {
    "country": "TH",
    "id": 1619650,
    "coord": {
      "lat": 17.698999,
      "lon": 103.259567
    },
    "name": "Ban Dung"
  },
  {
    "country": "TH",
    "id": 1620254,
    "coord": {
      "lat": 12.72543,
      "lon": 101.055298
    },
    "name": "Ban Chang"
  },
  {
    "country": "TH",
    "id": 1620442,
    "coord": {
      "lat": 13.07147,
      "lon": 101.003143
    },
    "name": "Ban Talat Bueng"
  },
  {
    "country": "TH",
    "id": 1620875,
    "coord": {
      "lat": 13.99904,
      "lon": 100.549622
    },
    "name": "Ban Bang Kadi Pathum Thani"
  },
  {
    "country": "TH",
    "id": 1620919,
    "coord": {
      "lat": 13.58333,
      "lon": 100.816673
    },
    "name": "Ban Bang Bo (1)"
  },
  {
    "country": "TH",
    "id": 1621020,
    "coord": {
      "lat": 13.69276,
      "lon": 102.501282
    },
    "name": "Aranyaprathet"
  },
  {
    "country": "TH",
    "id": 1906689,
    "coord": {
      "lat": 15.91667,
      "lon": 104.75
    },
    "name": "Changwat Amnat Charoen"
  },
  {
    "country": "TH",
    "id": 1621060,
    "coord": {
      "lat": 15.85851,
      "lon": 104.62883
    },
    "name": "Amnat Charoen"
  },
  {
    "country": "TH",
    "id": 7091861,
    "coord": {
      "lat": 7.84468,
      "lon": 98.338966
    },
    "name": "Ban Chalong"
  },
  {
    "country": "TH",
    "id": 7091912,
    "coord": {
      "lat": 7.90963,
      "lon": 98.402481
    },
    "name": "Ban Ratsada"
  },
  {
    "country": "TH",
    "id": 1153671,
    "coord": {
      "lat": 18.79038,
      "lon": 98.98468
    },
    "name": "Chiang Mai"
  },
  {
    "country": "TH",
    "id": 1116760,
    "coord": {
      "lat": 9.31676,
      "lon": 99.691841
    },
    "name": "Don Sak"
  },
  {
    "country": "TH",
    "id": 1117344,
    "coord": {
      "lat": 16.31489,
      "lon": 99.832672
    },
    "name": "Thung Sai"
  },
  {
    "country": "TH",
    "id": 1117557,
    "coord": {
      "lat": 8.42044,
      "lon": 99.395172
    },
    "name": "Tham Phannara"
  },
  {
    "country": "TH",
    "id": 1118429,
    "coord": {
      "lat": 8.72206,
      "lon": 99.748779
    },
    "name": "Nopphitam"
  },
  {
    "country": "TH",
    "id": 1119287,
    "coord": {
      "lat": 8.07228,
      "lon": 99.292252
    },
    "name": "Lam Thap"
  },
  {
    "country": "TH",
    "id": 1119933,
    "coord": {
      "lat": 18.078609,
      "lon": 98.035004
    },
    "name": "Ban Huai I Huak"
  },
  {
    "country": "TH",
    "id": 1120440,
    "coord": {
      "lat": 14.59922,
      "lon": 99.114059
    },
    "name": "Si Sawat"
  },
  {
    "country": "TH",
    "id": 1120443,
    "coord": {
      "lat": 19.36586,
      "lon": 99.201874
    },
    "name": "Phrao"
  },
  {
    "country": "TH",
    "id": 1120449,
    "coord": {
      "lat": 19.117121,
      "lon": 98.941757
    },
    "name": "Mae Taeng"
  },
  {
    "country": "TH",
    "id": 1120453,
    "coord": {
      "lat": 20.02883,
      "lon": 99.298332
    },
    "name": "Mae Ai"
  },
  {
    "country": "TH",
    "id": 1149700,
    "coord": {
      "lat": 19.34597,
      "lon": 99.814003
    },
    "name": "Mae Chai"
  },
  {
    "country": "TH",
    "id": 1149757,
    "coord": {
      "lat": 7.38622,
      "lon": 99.666924
    },
    "name": "Yan Ta Khao"
  },
  {
    "country": "TH",
    "id": 1149878,
    "coord": {
      "lat": 8.63585,
      "lon": 99.3666
    },
    "name": "Wiang Sa"
  },
  {
    "country": "TH",
    "id": 1149881,
    "coord": {
      "lat": 19.34778,
      "lon": 99.507217
    },
    "name": "Wiang Pa Pao"
  },
  {
    "country": "TH",
    "id": 1149882,
    "coord": {
      "lat": 19.556999,
      "lon": 98.642502
    },
    "name": "Wiang Haeng"
  },
  {
    "country": "TH",
    "id": 1149883,
    "coord": {
      "lat": 19.88361,
      "lon": 99.933144
    },
    "name": "Wiang Chai"
  },
  {
    "country": "TH",
    "id": 1149892,
    "coord": {
      "lat": 13.45407,
      "lon": 99.886368
    },
    "name": "Wat Phleng"
  },
  {
    "country": "TH",
    "id": 1149903,
    "coord": {
      "lat": 7.73631,
      "lon": 99.398697
    },
    "name": "Wang Wiset"
  },
  {
    "country": "TH",
    "id": 1149915,
    "coord": {
      "lat": 19.14678,
      "lon": 99.619331
    },
    "name": "Wang Nuea"
  },
  {
    "country": "TH",
    "id": 1149964,
    "coord": {
      "lat": 14.37514,
      "lon": 99.89225
    },
    "name": "U Thong"
  },
  {
    "country": "TH",
    "id": 1149975,
    "coord": {
      "lat": 16.01622,
      "lon": 98.862701
    },
    "name": "Umphang"
  },
  {
    "country": "TH",
    "id": 1150076,
    "coord": {
      "lat": 8.30119,
      "lon": 99.366096
    },
    "name": "Thung Yai"
  },
  {
    "country": "TH",
    "id": 1150081,
    "coord": {
      "lat": 10.11022,
      "lon": 99.083061
    },
    "name": "Thung Tako"
  },
  {
    "country": "TH",
    "id": 1150089,
    "coord": {
      "lat": 17.32106,
      "lon": 99.560921
    },
    "name": "Thung Saliam"
  },
  {
    "country": "TH",
    "id": 1150133,
    "coord": {
      "lat": 14.74345,
      "lon": 98.631012
    },
    "name": "Thong Pha Phum"
  },
  {
    "country": "TH",
    "id": 1150196,
    "coord": {
      "lat": 17.227079,
      "lon": 98.225723
    },
    "name": "Tha Song Yang"
  },
  {
    "country": "TH",
    "id": 1150200,
    "coord": {
      "lat": 8.66733,
      "lon": 99.930779
    },
    "name": "Tha Sala"
  },
  {
    "country": "TH",
    "id": 1150203,
    "coord": {
      "lat": 10.66461,
      "lon": 99.172813
    },
    "name": "Tha Sae"
  },
  {
    "country": "TH",
    "id": 1150218,
    "coord": {
      "lat": 11.49964,
      "lon": 99.621696
    },
    "name": "Thap Sakae"
  },
  {
    "country": "TH",
    "id": 1150221,
    "coord": {
      "lat": 8.51625,
      "lon": 98.639717
    },
    "name": "Thap Put"
  },
  {
    "country": "TH",
    "id": 1150227,
    "coord": {
      "lat": 6.79014,
      "lon": 99.970047
    },
    "name": "Tha Phae"
  },
  {
    "country": "TH",
    "id": 1150296,
    "coord": {
      "lat": 8.0317,
      "lon": 98.334084
    },
    "name": "Thalang"
  },
  {
    "country": "TH",
    "id": 1150317,
    "coord": {
      "lat": 8.39914,
      "lon": 98.260612
    },
    "name": "Thai Mueang"
  },
  {
    "country": "TH",
    "id": 1150338,
    "coord": {
      "lat": 9.26418,
      "lon": 99.192177
    },
    "name": "Tha Chang"
  },
  {
    "country": "TH",
    "id": 1150340,
    "coord": {
      "lat": 9.57203,
      "lon": 99.165863
    },
    "name": "Tha Chana"
  },
  {
    "country": "TH",
    "id": 1150447,
    "coord": {
      "lat": 8.38373,
      "lon": 98.451233
    },
    "name": "Takua Thung"
  },
  {
    "country": "TH",
    "id": 1150452,
    "coord": {
      "lat": 8.8705,
      "lon": 98.343826
    },
    "name": "Takua Pa"
  },
  {
    "country": "TH",
    "id": 1150544,
    "coord": {
      "lat": 13.5429,
      "lon": 99.339607
    },
    "name": "Suan Phueng"
  },
  {
    "country": "TH",
    "id": 1150562,
    "coord": {
      "lat": 17.880529,
      "lon": 99.336998
    },
    "name": "Sop Prap"
  },
  {
    "country": "TH",
    "id": 1150607,
    "coord": {
      "lat": 18.06506,
      "lon": 99.245369
    },
    "name": "Soem Ngam"
  },
  {
    "country": "TH",
    "id": 1150626,
    "coord": {
      "lat": 17.164,
      "lon": 99.862221
    },
    "name": "Si Samrong"
  },
  {
    "country": "TH",
    "id": 1150643,
    "coord": {
      "lat": 17.349079,
      "lon": 99.985626
    },
    "name": "Si Nakhon"
  },
  {
    "country": "TH",
    "id": 1150651,
    "coord": {
      "lat": 7.57158,
      "lon": 99.34494
    },
    "name": "Sikao"
  },
  {
    "country": "TH",
    "id": 1150659,
    "coord": {
      "lat": 7.72136,
      "lon": 99.8843
    },
    "name": "Si Banphot"
  },
  {
    "country": "TH",
    "id": 1150678,
    "coord": {
      "lat": 10.23668,
      "lon": 99.109383
    },
    "name": "Sawi"
  },
  {
    "country": "TH",
    "id": 1150683,
    "coord": {
      "lat": 15.58394,
      "lon": 99.860893
    },
    "name": "Sawang Arom"
  },
  {
    "country": "TH",
    "id": 1150700,
    "coord": {
      "lat": 18.71417,
      "lon": 99.035278
    },
    "name": "Saraphi"
  },
  {
    "country": "TH",
    "id": 1150726,
    "coord": {
      "lat": 18.847919,
      "lon": 99.045082
    },
    "name": "San Sai"
  },
  {
    "country": "TH",
    "id": 1150735,
    "coord": {
      "lat": 15.15553,
      "lon": 98.453613
    },
    "name": "Sangkhla Buri"
  },
  {
    "country": "TH",
    "id": 1150783,
    "coord": {
      "lat": 18.848061,
      "lon": 98.732422
    },
    "name": "Samoeng"
  },
  {
    "country": "TH",
    "id": 1150786,
    "coord": {
      "lat": 17.243311,
      "lon": 99.02256
    },
    "name": "Sam Ngao"
  },
  {
    "country": "TH",
    "id": 1150844,
    "coord": {
      "lat": 14.1194,
      "lon": 99.142059
    },
    "name": "Sai Yok"
  },
  {
    "country": "TH",
    "id": 1150854,
    "coord": {
      "lat": 16.46862,
      "lon": 99.888428
    },
    "name": "Sai Ngam"
  },
  {
    "country": "TH",
    "id": 1151150,
    "coord": {
      "lat": 8.53278,
      "lon": 98.863701
    },
    "name": "Plai Phraya"
  },
  {
    "country": "TH",
    "id": 1151278,
    "coord": {
      "lat": 8.52333,
      "lon": 99.822746
    },
    "name": "Phrom Khiri"
  },
  {
    "country": "TH",
    "id": 1151296,
    "coord": {
      "lat": 8.56781,
      "lon": 99.247559
    },
    "name": "Phrasaeng"
  },
  {
    "country": "TH",
    "id": 1151308,
    "coord": {
      "lat": 16.66511,
      "lon": 99.588943
    },
    "name": "Phran Kratai"
  },
  {
    "country": "TH",
    "id": 1151350,
    "coord": {
      "lat": 16.384609,
      "lon": 98.690277
    },
    "name": "Phop Phra"
  },
  {
    "country": "TH",
    "id": 1151397,
    "coord": {
      "lat": 8.56036,
      "lon": 99.607033
    },
    "name": "Phipun"
  },
  {
    "country": "TH",
    "id": 1151429,
    "coord": {
      "lat": 9.79089,
      "lon": 98.776581
    },
    "name": "Phato"
  },
  {
    "country": "TH",
    "id": 1151446,
    "coord": {
      "lat": 14.13031,
      "lon": 99.698578
    },
    "name": "Phanom Thuan"
  },
  {
    "country": "TH",
    "id": 1151449,
    "coord": {
      "lat": 8.85475,
      "lon": 98.812668
    },
    "name": "Phanom"
  },
  {
    "country": "TH",
    "id": 1151464,
    "coord": {
      "lat": 8.4509,
      "lon": 98.529846
    },
    "name": "Phangnga"
  },
  {
    "country": "TH",
    "id": 1151477,
    "coord": {
      "lat": 19.553949,
      "lon": 99.740463
    },
    "name": "Phan"
  },
  {
    "country": "TH",
    "id": 1151523,
    "coord": {
      "lat": 10.70908,
      "lon": 99.318199
    },
    "name": "Pathio"
  },
  {
    "country": "TH",
    "id": 1151557,
    "coord": {
      "lat": 7.17237,
      "lon": 99.686241
    },
    "name": "Palian"
  },
  {
    "country": "TH",
    "id": 1151567,
    "coord": {
      "lat": 13.37263,
      "lon": 99.839378
    },
    "name": "Pak Tho"
  },
  {
    "country": "TH",
    "id": 1151601,
    "coord": {
      "lat": 19.361679,
      "lon": 98.439728
    },
    "name": "Pai"
  },
  {
    "country": "TH",
    "id": 1151634,
    "coord": {
      "lat": 17.80122,
      "lon": 98.359329
    },
    "name": "Om Koi"
  },
  {
    "country": "TH",
    "id": 1151664,
    "coord": {
      "lat": 13.16288,
      "lon": 99.697227
    },
    "name": "Nong Ya Plong"
  },
  {
    "country": "TH",
    "id": 1151710,
    "coord": {
      "lat": 15.364,
      "lon": 99.92939
    },
    "name": "Nong Khayang"
  },
  {
    "country": "TH",
    "id": 1151730,
    "coord": {
      "lat": 15.39147,
      "lon": 99.841469
    },
    "name": "Nong Chang"
  },
  {
    "country": "TH",
    "id": 1151848,
    "coord": {
      "lat": 18.756781,
      "lon": 99.978142
    },
    "name": "Ngao"
  },
  {
    "country": "TH",
    "id": 1151958,
    "coord": {
      "lat": 8.26167,
      "lon": 99.594719
    },
    "name": "Na Bon"
  },
  {
    "country": "TH",
    "id": 1151987,
    "coord": {
      "lat": 18.76803,
      "lon": 99.502502
    },
    "name": "Mueang Pan"
  },
  {
    "country": "TH",
    "id": 1152180,
    "coord": {
      "lat": 18.46456,
      "lon": 99.140259
    },
    "name": "Mae Tha"
  },
  {
    "country": "TH",
    "id": 1152181,
    "coord": {
      "lat": 18.134109,
      "lon": 99.513893
    },
    "name": "Mae Tha"
  },
  {
    "country": "TH",
    "id": 1152186,
    "coord": {
      "lat": 19.65633,
      "lon": 99.543671
    },
    "name": "Mae Suai"
  },
  {
    "country": "TH",
    "id": 1152204,
    "coord": {
      "lat": 17.44688,
      "lon": 99.114197
    },
    "name": "Mae Phrik"
  },
  {
    "country": "TH",
    "id": 1152216,
    "coord": {
      "lat": 18.27561,
      "lon": 99.650436
    },
    "name": "Mae Mo"
  },
  {
    "country": "TH",
    "id": 1152217,
    "coord": {
      "lat": 18.39399,
      "lon": 97.905037
    },
    "name": "Mae La Noi"
  },
  {
    "country": "TH",
    "id": 1152230,
    "coord": {
      "lat": 18.49926,
      "lon": 98.364937
    },
    "name": "Mae Chaem"
  },
  {
    "country": "TH",
    "id": 1152322,
    "coord": {
      "lat": 18.076059,
      "lon": 99.832558
    },
    "name": "Long"
  },
  {
    "country": "TH",
    "id": 1152357,
    "coord": {
      "lat": 17.8027,
      "lon": 98.950974
    },
    "name": "Li"
  },
  {
    "country": "TH",
    "id": 1152375,
    "coord": {
      "lat": 10.11556,
      "lon": 98.749924
    },
    "name": "La-Un"
  },
  {
    "country": "TH",
    "id": 1152408,
    "coord": {
      "lat": 14.59522,
      "lon": 99.774307
    },
    "name": "Lao Khwan"
  },
  {
    "country": "TH",
    "id": 1152420,
    "coord": {
      "lat": 8.37097,
      "lon": 99.805641
    },
    "name": "Lan Saka"
  },
  {
    "country": "TH",
    "id": 1152421,
    "coord": {
      "lat": 15.45289,
      "lon": 99.576057
    },
    "name": "Lan Sak"
  },
  {
    "country": "TH",
    "id": 1152423,
    "coord": {
      "lat": 16.600031,
      "lon": 99.848892
    },
    "name": "Lan Krabue"
  },
  {
    "country": "TH",
    "id": 1152426,
    "coord": {
      "lat": 6.88492,
      "lon": 99.788361
    },
    "name": "La-ngu"
  },
  {
    "country": "TH",
    "id": 1152479,
    "coord": {
      "lat": 9.76789,
      "lon": 99.09256
    },
    "name": "Lamae"
  },
  {
    "country": "TH",
    "id": 1152625,
    "coord": {
      "lat": 10.40429,
      "lon": 98.772659
    },
    "name": "Kra Buri"
  },
  {
    "country": "TH",
    "id": 1152640,
    "coord": {
      "lat": 8.11014,
      "lon": 98.592308
    },
    "name": "Ko Yao"
  },
  {
    "country": "TH",
    "id": 1152654,
    "coord": {
      "lat": 7.40272,
      "lon": 99.949722
    },
    "name": "Kong Ra"
  },
  {
    "country": "TH",
    "id": 1152657,
    "coord": {
      "lat": 16.951969,
      "lon": 99.977699
    },
    "name": "Kong Krailat"
  },
  {
    "country": "TH",
    "id": 1152670,
    "coord": {
      "lat": 7.53362,
      "lon": 99.086472
    },
    "name": "Ko Lanta"
  },
  {
    "country": "TH",
    "id": 1152679,
    "coord": {
      "lat": 18.192249,
      "lon": 99.394333
    },
    "name": "Ko Kha"
  },
  {
    "country": "TH",
    "id": 1152762,
    "coord": {
      "lat": 9.19397,
      "lon": 98.415138
    },
    "name": "Khura Buri"
  },
  {
    "country": "TH",
    "id": 1152765,
    "coord": {
      "lat": 18.82958,
      "lon": 97.933472
    },
    "name": "Khun Yuam"
  },
  {
    "country": "TH",
    "id": 1152843,
    "coord": {
      "lat": 7.9375,
      "lon": 99.144569
    },
    "name": "Khlong Thom"
  },
  {
    "country": "TH",
    "id": 1152850,
    "coord": {
      "lat": 16.20331,
      "lon": 99.319969
    },
    "name": "Khlong Lan"
  },
  {
    "country": "TH",
    "id": 1152854,
    "coord": {
      "lat": 16.21633,
      "lon": 99.719063
    },
    "name": "Khlong Khlung"
  },
  {
    "country": "TH",
    "id": 1152873,
    "coord": {
      "lat": 9.0302,
      "lon": 98.952858
    },
    "name": "Khiri Ratthanikhom"
  },
  {
    "country": "TH",
    "id": 1152876,
    "coord": {
      "lat": 16.83333,
      "lon": 99.800003
    },
    "name": "Khiri Mat"
  },
  {
    "country": "TH",
    "id": 1152899,
    "coord": {
      "lat": 8.84295,
      "lon": 99.198563
    },
    "name": "Khian Sa"
  },
  {
    "country": "TH",
    "id": 1152933,
    "coord": {
      "lat": 8.26549,
      "lon": 99.051239
    },
    "name": "Khao Phanom"
  },
  {
    "country": "TH",
    "id": 1153059,
    "coord": {
      "lat": 8.69697,
      "lon": 98.409142
    },
    "name": "Kapong"
  },
  {
    "country": "TH",
    "id": 1153062,
    "coord": {
      "lat": 9.58522,
      "lon": 98.596107
    },
    "name": "Kapoe"
  },
  {
    "country": "TH",
    "id": 1153072,
    "coord": {
      "lat": 7.40542,
      "lon": 99.51561
    },
    "name": "Kantang"
  },
  {
    "country": "TH",
    "id": 1153079,
    "coord": {
      "lat": 9.16611,
      "lon": 99.470139
    },
    "name": "Kanchanadit"
  },
  {
    "country": "TH",
    "id": 1153263,
    "coord": {
      "lat": 15.29094,
      "lon": 99.616608
    },
    "name": "Huai Khot"
  },
  {
    "country": "TH",
    "id": 1153278,
    "coord": {
      "lat": 18.193171,
      "lon": 98.61039
    },
    "name": "Hot"
  },
  {
    "country": "TH",
    "id": 1153389,
    "coord": {
      "lat": 18.32164,
      "lon": 99.315613
    },
    "name": "Hang Chat"
  },
  {
    "country": "TH",
    "id": 1153427,
    "coord": {
      "lat": 19.916889,
      "lon": 99.2145
    },
    "name": "Fang"
  },
  {
    "country": "TH",
    "id": 1153467,
    "coord": {
      "lat": 17.95286,
      "lon": 98.684578
    },
    "name": "Doi Tao"
  },
  {
    "country": "TH",
    "id": 1153507,
    "coord": {
      "lat": 14.84183,
      "lon": 99.697563
    },
    "name": "Dan Chang"
  },
  {
    "country": "TH",
    "id": 1153634,
    "coord": {
      "lat": 18.417419,
      "lon": 98.674278
    },
    "name": "Chom Thong"
  },
  {
    "country": "TH",
    "id": 1153673,
    "coord": {
      "lat": 19.365419,
      "lon": 98.964531
    },
    "name": "Chiang Dao"
  },
  {
    "country": "TH",
    "id": 1153686,
    "coord": {
      "lat": 8.42614,
      "lon": 99.504723
    },
    "name": "Chawang"
  },
  {
    "country": "TH",
    "id": 1153783,
    "coord": {
      "lat": 9.38624,
      "lon": 99.198608
    },
    "name": "Chaiya"
  },
  {
    "country": "TH",
    "id": 1153788,
    "coord": {
      "lat": 8.46222,
      "lon": 99.076309
    },
    "name": "Chai Buri"
  },
  {
    "country": "TH",
    "id": 1153800,
    "coord": {
      "lat": 18.712669,
      "lon": 99.557579
    },
    "name": "Chae Hom"
  },
  {
    "country": "TH",
    "id": 1153981,
    "coord": {
      "lat": 19.379721,
      "lon": 98.446442
    },
    "name": "Wiang Nuea"
  },
  {
    "country": "TH",
    "id": 1154093,
    "coord": {
      "lat": 17.89978,
      "lon": 99.603279
    },
    "name": "Wang Chin"
  },
  {
    "country": "TH",
    "id": 1154094,
    "coord": {
      "lat": 16.6744,
      "lon": 99.269028
    },
    "name": "Wang Chao"
  },
  {
    "country": "TH",
    "id": 1154190,
    "coord": {
      "lat": 7.10957,
      "lon": 99.755859
    },
    "name": "Thung Wa"
  },
  {
    "country": "TH",
    "id": 1154329,
    "coord": {
      "lat": 18.00301,
      "lon": 99.027802
    },
    "name": "Thung Hua Chang"
  },
  {
    "country": "TH",
    "id": 1154519,
    "coord": {
      "lat": 13.92081,
      "lon": 99.765533
    },
    "name": "Tha Maka"
  },
  {
    "country": "TH",
    "id": 1154689,
    "coord": {
      "lat": 9.53567,
      "lon": 99.935669
    },
    "name": "Ko Samui"
  },
  {
    "country": "TH",
    "id": 1155010,
    "coord": {
      "lat": 7.77965,
      "lon": 98.325317
    },
    "name": "Rawai"
  },
  {
    "country": "TH",
    "id": 1155064,
    "coord": {
      "lat": 15.08417,
      "lon": 99.52108
    },
    "name": "Ban Rai"
  },
  {
    "country": "TH",
    "id": 1155214,
    "coord": {
      "lat": 15.93094,
      "lon": 99.981598
    },
    "name": "Banphot Phisai"
  },
  {
    "country": "TH",
    "id": 1155231,
    "coord": {
      "lat": 7.93333,
      "lon": 98.583328
    },
    "name": "Ban Phru Nai"
  },
  {
    "country": "TH",
    "id": 1155525,
    "coord": {
      "lat": 8.07144,
      "lon": 98.999329
    },
    "name": "Nuea Khlong"
  },
  {
    "country": "TH",
    "id": 1155656,
    "coord": {
      "lat": 14.60784,
      "lon": 99.457832
    },
    "name": "Nong Prue"
  },
  {
    "country": "TH",
    "id": 1155740,
    "coord": {
      "lat": 15.27613,
      "lon": 99.866402
    },
    "name": "Nong Mamong"
  },
  {
    "country": "TH",
    "id": 1155989,
    "coord": {
      "lat": 14.9501,
      "lon": 99.938988
    },
    "name": "Noen Kham"
  },
  {
    "country": "TH",
    "id": 1156244,
    "coord": {
      "lat": 8.88361,
      "lon": 99.310143
    },
    "name": "Ban Na Doem"
  },
  {
    "country": "TH",
    "id": 1156648,
    "coord": {
      "lat": 13.05003,
      "lon": 99.919083
    },
    "name": "Ban Lat"
  },
  {
    "country": "TH",
    "id": 1156739,
    "coord": {
      "lat": 13.20468,
      "lon": 99.979584
    },
    "name": "Ban Laem"
  },
  {
    "country": "TH",
    "id": 1156836,
    "coord": {
      "lat": 7.93599,
      "lon": 98.396637
    },
    "name": "Ban Ko Kaeo"
  },
  {
    "country": "TH",
    "id": 1157232,
    "coord": {
      "lat": 13.43047,
      "lon": 99.409668
    },
    "name": "Ban Kha"
  },
  {
    "country": "TH",
    "id": 1157241,
    "coord": {
      "lat": 7.90903,
      "lon": 98.333199
    },
    "name": "Kathu"
  },
  {
    "country": "TH",
    "id": 1157249,
    "coord": {
      "lat": 7.84769,
      "lon": 98.2985
    },
    "name": "Ban Karon"
  },
  {
    "country": "TH",
    "id": 1157277,
    "coord": {
      "lat": 12.90742,
      "lon": 99.647949
    },
    "name": "Kaeng Krachan"
  },
  {
    "country": "TH",
    "id": 1157482,
    "coord": {
      "lat": 14.3275,
      "lon": 99.667671
    },
    "name": "Huai Krachao"
  },
  {
    "country": "TH",
    "id": 1157551,
    "coord": {
      "lat": 18.33086,
      "lon": 98.819252
    },
    "name": "Ban Hong"
  },
  {
    "country": "TH",
    "id": 1157590,
    "coord": {
      "lat": 17.52034,
      "lon": 99.763962
    },
    "name": "Si Satchanalai"
  },
  {
    "country": "TH",
    "id": 1157660,
    "coord": {
      "lat": 11.07535,
      "lon": 99.441521
    },
    "name": "Bang Saphan Noi"
  },
  {
    "country": "TH",
    "id": 1157725,
    "coord": {
      "lat": 13.46906,
      "lon": 99.940208
    },
    "name": "Bang Khon Thi"
  },
  {
    "country": "TH",
    "id": 1157730,
    "coord": {
      "lat": 8.02689,
      "lon": 99.473717
    },
    "name": "Bang Khan"
  },
  {
    "country": "TH",
    "id": 1157794,
    "coord": {
      "lat": 13.9609,
      "lon": 100.07888
    },
    "name": "Don Tum"
  },
  {
    "country": "TH",
    "id": 1157949,
    "coord": {
      "lat": 18.460979,
      "lon": 98.777672
    },
    "name": "Doi Lo"
  },
  {
    "country": "TH",
    "id": 1157966,
    "coord": {
      "lat": 13.85339,
      "lon": 99.410423
    },
    "name": "Dan Makham Tia"
  },
  {
    "country": "TH",
    "id": 1157971,
    "coord": {
      "lat": 17.00683,
      "lon": 99.574966
    },
    "name": "Ban Dan Lan Hoi"
  },
  {
    "country": "TH",
    "id": 1158377,
    "coord": {
      "lat": 8.0458,
      "lon": 98.810349
    },
    "name": "Ban Ao Nang"
  },
  {
    "country": "TH",
    "id": 1158412,
    "coord": {
      "lat": 8.37803,
      "lon": 98.721169
    },
    "name": "Ao Luek"
  },
  {
    "country": "TH",
    "id": 1158432,
    "coord": {
      "lat": 13.42436,
      "lon": 99.956879
    },
    "name": "Amphawa"
  },
  {
    "country": "TH",
    "id": 1595207,
    "coord": {
      "lat": 15.21006,
      "lon": 100.830757
    },
    "name": "Sa Bot"
  },
  {
    "country": "TH",
    "id": 1595484,
    "coord": {
      "lat": 14.85646,
      "lon": 100.984589
    },
    "name": "Phatthana Nikhom"
  },
  {
    "country": "TH",
    "id": 1595865,
    "coord": {
      "lat": 15.71668,
      "lon": 103.227814
    },
    "name": "Na Dun"
  },
  {
    "country": "TH",
    "id": 1596216,
    "coord": {
      "lat": 9.71945,
      "lon": 99.99511
    },
    "name": "Ko Pha-Ngan"
  },
  {
    "country": "TH",
    "id": 1597130,
    "coord": {
      "lat": 15.68361,
      "lon": 103.103111
    },
    "name": "Yang Si Surat"
  },
  {
    "country": "TH",
    "id": 1597163,
    "coord": {
      "lat": 15.4206,
      "lon": 102.892822
    },
    "name": "Mueang Yang"
  },
  {
    "country": "TH",
    "id": 1598222,
    "coord": {
      "lat": 14.79583,
      "lon": 104.670174
    },
    "name": "Siao"
  },
  {
    "country": "TH",
    "id": 1598417,
    "coord": {
      "lat": 16.86322,
      "lon": 103.541061
    },
    "name": "Samran"
  },
  {
    "country": "TH",
    "id": 1598434,
    "coord": {
      "lat": 15.30868,
      "lon": 101.550453
    },
    "name": "Thepharak"
  },
  {
    "country": "TH",
    "id": 1598503,
    "coord": {
      "lat": 16.50528,
      "lon": 100.471031
    },
    "name": "Sak Lek"
  },
  {
    "country": "TH",
    "id": 1599042,
    "coord": {
      "lat": 14.90851,
      "lon": 104.390999
    },
    "name": "Phayu"
  },
  {
    "country": "TH",
    "id": 1599114,
    "coord": {
      "lat": 17.065069,
      "lon": 102.029648
    },
    "name": "Pha Khao"
  },
  {
    "country": "TH",
    "id": 1599410,
    "coord": {
      "lat": 14.58044,
      "lon": 102.596893
    },
    "name": "Non Suwan"
  },
  {
    "country": "TH",
    "id": 1599641,
    "coord": {
      "lat": 17.162609,
      "lon": 102.572723
    },
    "name": "Nong Wua So"
  },
  {
    "country": "TH",
    "id": 1600104,
    "coord": {
      "lat": 16.8043,
      "lon": 102.336472
    },
    "name": "Nong Na Kham"
  },
  {
    "country": "TH",
    "id": 1600129,
    "coord": {
      "lat": 15.24592,
      "lon": 100.655563
    },
    "name": "Nong Muang"
  },
  {
    "country": "TH",
    "id": 1600435,
    "coord": {
      "lat": 17.12356,
      "lon": 101.857887
    },
    "name": "Nong Hin"
  },
  {
    "country": "TH",
    "id": 1600444,
    "coord": {
      "lat": 15.61117,
      "lon": 103.994843
    },
    "name": "Nong Hi"
  },
  {
    "country": "TH",
    "id": 1600500,
    "coord": {
      "lat": 16.08256,
      "lon": 101.802307
    },
    "name": "Nong Bua Daeng"
  },
  {
    "country": "TH",
    "id": 1600752,
    "coord": {
      "lat": 17.89747,
      "lon": 102.149811
    },
    "name": "Na Yung"
  },
  {
    "country": "TH",
    "id": 1600814,
    "coord": {
      "lat": 15.89749,
      "lon": 105.293182
    },
    "name": "Na Tan"
  },
  {
    "country": "TH",
    "id": 1600964,
    "coord": {
      "lat": 9.87686,
      "lon": 98.865921
    },
    "name": "Ban Nam Yuen"
  },
  {
    "country": "TH",
    "id": 1600983,
    "coord": {
      "lat": 6.95856,
      "lon": 100.556831
    },
    "name": "Na Mom"
  },
  {
    "country": "TH",
    "id": 1601446,
    "coord": {
      "lat": 15.15951,
      "lon": 104.036148
    },
    "name": "Mueang Chan"
  },
  {
    "country": "TH",
    "id": 1601787,
    "coord": {
      "lat": 15.30154,
      "lon": 101.363647
    },
    "name": "Lam Sonthi"
  },
  {
    "country": "TH",
    "id": 1603291,
    "coord": {
      "lat": 14.96039,
      "lon": 103.18911
    },
    "name": "Huai Rat"
  },
  {
    "country": "TH",
    "id": 1603642,
    "coord": {
      "lat": 16.19648,
      "lon": 102.75959
    },
    "name": "Ban Haet"
  },
  {
    "country": "TH",
    "id": 1603666,
    "coord": {
      "lat": 18.01792,
      "lon": 103.303879
    },
    "name": "Fao Rai"
  },
  {
    "country": "TH",
    "id": 1604060,
    "coord": {
      "lat": 15.10839,
      "lon": 103.175507
    },
    "name": "Ban Dan"
  },
  {
    "country": "TH",
    "id": 1604194,
    "coord": {
      "lat": 17.57925,
      "lon": 103.540329
    },
    "name": "Charoen Sin"
  },
  {
    "country": "TH",
    "id": 1604597,
    "coord": {
      "lat": 5.928,
      "lon": 101.88382
    },
    "name": "Waeng"
  },
  {
    "country": "TH",
    "id": 1604600,
    "coord": {
      "lat": 6.82936,
      "lon": 100.96431
    },
    "name": "Thepha"
  },
  {
    "country": "TH",
    "id": 1604606,
    "coord": {
      "lat": 15.34917,
      "lon": 100.495216
    },
    "name": "Tak Fa"
  },
  {
    "country": "TH",
    "id": 1604614,
    "coord": {
      "lat": 16.967051,
      "lon": 102.27607
    },
    "name": "Si Bun Rueang"
  },
  {
    "country": "TH",
    "id": 1604632,
    "coord": {
      "lat": 14.61073,
      "lon": 103.079231
    },
    "name": "Prakhon Chai"
  },
  {
    "country": "TH",
    "id": 1604664,
    "coord": {
      "lat": 14.41142,
      "lon": 102.85936
    },
    "name": "Lahan Sai"
  },
  {
    "country": "TH",
    "id": 1604710,
    "coord": {
      "lat": 6.51678,
      "lon": 101.651001
    },
    "name": "Bacho"
  },
  {
    "country": "TH",
    "id": 1604761,
    "coord": {
      "lat": 6.40296,
      "lon": 101.706261
    },
    "name": "Yi-ngo"
  },
  {
    "country": "TH",
    "id": 1604792,
    "coord": {
      "lat": 13.69634,
      "lon": 100.542122
    },
    "name": "Yan Nawa"
  },
  {
    "country": "TH",
    "id": 1604797,
    "coord": {
      "lat": 16.39982,
      "lon": 103.367851
    },
    "name": "Yang Talat"
  },
  {
    "country": "TH",
    "id": 1604807,
    "coord": {
      "lat": 15.26453,
      "lon": 104.39769
    },
    "name": "Yang Chum Noi"
  },
  {
    "country": "TH",
    "id": 1604863,
    "coord": {
      "lat": 6.75986,
      "lon": 101.293388
    },
    "name": "Yarang"
  },
  {
    "country": "TH",
    "id": 1604979,
    "coord": {
      "lat": 6.4797,
      "lon": 101.132004
    },
    "name": "Yaha"
  },
  {
    "country": "TH",
    "id": 1605022,
    "coord": {
      "lat": 14.34586,
      "lon": 100.989418
    },
    "name": "Wihan Daeng"
  },
  {
    "country": "TH",
    "id": 1605026,
    "coord": {
      "lat": 18.59856,
      "lon": 100.741028
    },
    "name": "Wiang Sa"
  },
  {
    "country": "TH",
    "id": 1605043,
    "coord": {
      "lat": 13.74462,
      "lon": 102.318626
    },
    "name": "Watthana Nakhon"
  },
  {
    "country": "TH",
    "id": 1605048,
    "coord": {
      "lat": 15.25987,
      "lon": 100.040398
    },
    "name": "Wat Sing"
  },
  {
    "country": "TH",
    "id": 1605062,
    "coord": {
      "lat": 16.98114,
      "lon": 100.33194
    },
    "name": "Wat Bot"
  },
  {
    "country": "TH",
    "id": 1605070,
    "coord": {
      "lat": 17.29409,
      "lon": 103.638161
    },
    "name": "Warichaphum"
  },
  {
    "country": "TH",
    "id": 1605072,
    "coord": {
      "lat": 15.84523,
      "lon": 103.376778
    },
    "name": "Wapi Pathum"
  },
  {
    "country": "TH",
    "id": 1605074,
    "coord": {
      "lat": 16.72229,
      "lon": 104.741364
    },
    "name": "Wan Yai"
  },
  {
    "country": "TH",
    "id": 1605076,
    "coord": {
      "lat": 17.633909,
      "lon": 103.752411
    },
    "name": "Wanon Niwat"
  },
  {
    "country": "TH",
    "id": 1605092,
    "coord": {
      "lat": 16.824579,
      "lon": 100.429359
    },
    "name": "Wang Thong"
  },
  {
    "country": "TH",
    "id": 1605104,
    "coord": {
      "lat": 16.95294,
      "lon": 103.436501
    },
    "name": "Wang Sam Mo"
  },
  {
    "country": "TH",
    "id": 1605145,
    "coord": {
      "lat": 14.94783,
      "lon": 104.230972
    },
    "name": "Wang Hin"
  },
  {
    "country": "TH",
    "id": 1605149,
    "coord": {
      "lat": 12.93646,
      "lon": 101.523033
    },
    "name": "Wang Chan"
  },
  {
    "country": "TH",
    "id": 1605156,
    "coord": {
      "lat": 16.3885,
      "lon": 100.53801
    },
    "name": "Wang Sai Phun"
  },
  {
    "country": "TH",
    "id": 1605176,
    "coord": {
      "lat": 15.95547,
      "lon": 102.546898
    },
    "name": "Waeng Yai"
  },
  {
    "country": "TH",
    "id": 1605179,
    "coord": {
      "lat": 15.8035,
      "lon": 102.416138
    },
    "name": "Waeng Noi"
  },
  {
    "country": "TH",
    "id": 1605219,
    "coord": {
      "lat": 15.11161,
      "lon": 104.140106
    },
    "name": "Uthumphon Phisai"
  },
  {
    "country": "TH",
    "id": 1605223,
    "coord": {
      "lat": 14.36278,
      "lon": 100.672028
    },
    "name": "Uthai"
  },
  {
    "country": "TH",
    "id": 1605248,
    "coord": {
      "lat": 16.752701,
      "lon": 102.632439
    },
    "name": "Khuean Ubolratana"
  },
  {
    "country": "TH",
    "id": 1605268,
    "coord": {
      "lat": 17.48181,
      "lon": 100.112808
    },
    "name": "Tron"
  },
  {
    "country": "TH",
    "id": 1605281,
    "coord": {
      "lat": 15.61183,
      "lon": 105.021469
    },
    "name": "Trakan Phut Phon"
  },
  {
    "country": "TH",
    "id": 1605355,
    "coord": {
      "lat": 17.47167,
      "lon": 103.26033
    },
    "name": "Thung Fon"
  },
  {
    "country": "TH",
    "id": 1605409,
    "coord": {
      "lat": 19.68508,
      "lon": 100.194557
    },
    "name": "Thoeng"
  },
  {
    "country": "TH",
    "id": 1605451,
    "coord": {
      "lat": 15.39247,
      "lon": 101.450607
    },
    "name": "Thep Sathit"
  },
  {
    "country": "TH",
    "id": 1605469,
    "coord": {
      "lat": 14.811,
      "lon": 100.503326
    },
    "name": "Tha Wung"
  },
  {
    "country": "TH",
    "id": 1605473,
    "coord": {
      "lat": 16.0385,
      "lon": 103.746468
    },
    "name": "Thawat Buri"
  },
  {
    "country": "TH",
    "id": 1605475,
    "coord": {
      "lat": 19.121889,
      "lon": 100.811058
    },
    "name": "Tha Wang Pha"
  },
  {
    "country": "TH",
    "id": 1605479,
    "coord": {
      "lat": 17.57605,
      "lon": 104.59906
    },
    "name": "Tha Uthen"
  },
  {
    "country": "TH",
    "id": 1605481,
    "coord": {
      "lat": 15.3195,
      "lon": 103.675423
    },
    "name": "Tha Tum"
  },
  {
    "country": "TH",
    "id": 1605483,
    "coord": {
      "lat": 16.936359,
      "lon": 104.710388
    },
    "name": "That Phanom"
  },
  {
    "country": "TH",
    "id": 1605490,
    "coord": {
      "lat": 15.64218,
      "lon": 100.478394
    },
    "name": "Tha Tako"
  },
  {
    "country": "TH",
    "id": 1605529,
    "coord": {
      "lat": 17.791121,
      "lon": 100.376106
    },
    "name": "Tha Pla"
  },
  {
    "country": "TH",
    "id": 1605549,
    "coord": {
      "lat": 14.02114,
      "lon": 100.734329
    },
    "name": "Thanyaburi"
  },
  {
    "country": "TH",
    "id": 1605550,
    "coord": {
      "lat": 6.16739,
      "lon": 101.180077
    },
    "name": "Than To"
  },
  {
    "country": "TH",
    "id": 1605607,
    "coord": {
      "lat": 15.07124,
      "lon": 101.098007
    },
    "name": "Tha Luang"
  },
  {
    "country": "TH",
    "id": 1605613,
    "coord": {
      "lat": 17.62355,
      "lon": 101.42099
    },
    "name": "Tha Li"
  },
  {
    "country": "TH",
    "id": 1605639,
    "coord": {
      "lat": 16.939529,
      "lon": 103.245857
    },
    "name": "Tha Khantho"
  },
  {
    "country": "TH",
    "id": 1605671,
    "coord": {
      "lat": 14.76142,
      "lon": 100.389893
    },
    "name": "Tha Chang"
  },
  {
    "country": "TH",
    "id": 1605742,
    "coord": {
      "lat": 14.00308,
      "lon": 102.805412
    },
    "name": "Ta Phraya"
  },
  {
    "country": "TH",
    "id": 1605763,
    "coord": {
      "lat": 16.996889,
      "lon": 104.166718
    },
    "name": "Tao Ngoi"
  },
  {
    "country": "TH",
    "id": 1605773,
    "coord": {
      "lat": 15.3157,
      "lon": 105.15464
    },
    "name": "Tan Sum"
  },
  {
    "country": "TH",
    "id": 1605810,
    "coord": {
      "lat": 7.33922,
      "lon": 100.111671
    },
    "name": "Tamot"
  },
  {
    "country": "TH",
    "id": 1605843,
    "coord": {
      "lat": 13.77698,
      "lon": 100.456703
    },
    "name": "Taling Chan"
  },
  {
    "country": "TH",
    "id": 1605912,
    "coord": {
      "lat": 15.26336,
      "lon": 100.343781
    },
    "name": "Takhli"
  },
  {
    "country": "TH",
    "id": 1606017,
    "coord": {
      "lat": 15.60348,
      "lon": 103.802071
    },
    "name": "Suwannaphum"
  },
  {
    "country": "TH",
    "id": 1606019,
    "coord": {
      "lat": 17.56292,
      "lon": 102.279892
    },
    "name": "Suwannakhuha"
  },
  {
    "country": "TH",
    "id": 1606040,
    "coord": {
      "lat": 14.8992,
      "lon": 101.820747
    },
    "name": "Sung Noen"
  },
  {
    "country": "TH",
    "id": 1606043,
    "coord": {
      "lat": 18.051611,
      "lon": 100.11161
    },
    "name": "Sung Men"
  },
  {
    "country": "TH",
    "id": 1606047,
    "coord": {
      "lat": 6.07239,
      "lon": 101.871719
    },
    "name": "Ban Su-ngai Pa Di"
  },
  {
    "country": "TH",
    "id": 1606073,
    "coord": {
      "lat": 5.93889,
      "lon": 101.770767
    },
    "name": "Sukhirin"
  },
  {
    "country": "TH",
    "id": 1606114,
    "coord": {
      "lat": 18.0772,
      "lon": 103.443199
    },
    "name": "So Phisai"
  },
  {
    "country": "TH",
    "id": 1606139,
    "coord": {
      "lat": 14.22408,
      "lon": 100.020943
    },
    "name": "Song Phi Nong"
  },
  {
    "country": "TH",
    "id": 1606167,
    "coord": {
      "lat": 18.47006,
      "lon": 100.182938
    },
    "name": "Song"
  },
  {
    "country": "TH",
    "id": 1606188,
    "coord": {
      "lat": 16.70462,
      "lon": 103.749336
    },
    "name": "Somdet"
  },
  {
    "country": "TH",
    "id": 1606213,
    "coord": {
      "lat": 14.42642,
      "lon": 102.460579
    },
    "name": "Soeng Sang"
  },
  {
    "country": "TH",
    "id": 1606228,
    "coord": {
      "lat": 15.45214,
      "lon": 101.066673
    },
    "name": "Si Thep"
  },
  {
    "country": "TH",
    "id": 1606229,
    "coord": {
      "lat": 16.97361,
      "lon": 103.216438
    },
    "name": "Si That"
  },
  {
    "country": "TH",
    "id": 1606232,
    "coord": {
      "lat": 17.627451,
      "lon": 104.250702
    },
    "name": "Si Songkhram"
  },
  {
    "country": "TH",
    "id": 1606237,
    "coord": {
      "lat": 6.23137,
      "lon": 101.500481
    },
    "name": "Si Sakhon"
  },
  {
    "country": "TH",
    "id": 1606246,
    "coord": {
      "lat": 14.79328,
      "lon": 104.469223
    },
    "name": "Si Rattana"
  },
  {
    "country": "TH",
    "id": 1606257,
    "coord": {
      "lat": 14.61992,
      "lon": 100.144829
    },
    "name": "Si Prachan"
  },
  {
    "country": "TH",
    "id": 1606283,
    "coord": {
      "lat": 15.49315,
      "lon": 105.276237
    },
    "name": "Si Mueang Mai"
  },
  {
    "country": "TH",
    "id": 1606291,
    "coord": {
      "lat": 13.96597,
      "lon": 101.513031
    },
    "name": "Si Maha Phot"
  },
  {
    "country": "TH",
    "id": 1606302,
    "coord": {
      "lat": 14.94418,
      "lon": 103.797043
    },
    "name": "Si Khoraphum"
  },
  {
    "country": "TH",
    "id": 1606303,
    "coord": {
      "lat": 14.89225,
      "lon": 101.723137
    },
    "name": "Sikhio"
  },
  {
    "country": "TH",
    "id": 1606314,
    "coord": {
      "lat": 16.79878,
      "lon": 102.184662
    },
    "name": "Si Chomphu"
  },
  {
    "country": "TH",
    "id": 1606316,
    "coord": {
      "lat": 17.95639,
      "lon": 102.58667
    },
    "name": "Si Chiang Mai"
  },
  {
    "country": "TH",
    "id": 1606323,
    "coord": {
      "lat": 16.966669,
      "lon": 102.283333
    },
    "name": "Si Bun Ruang"
  },
  {
    "country": "TH",
    "id": 1606334,
    "coord": {
      "lat": 16.039721,
      "lon": 104.669388
    },
    "name": "Senangkhanikhom"
  },
  {
    "country": "TH",
    "id": 1606336,
    "coord": {
      "lat": 14.327,
      "lon": 100.404327
    },
    "name": "Sena"
  },
  {
    "country": "TH",
    "id": 1606340,
    "coord": {
      "lat": 16.029921,
      "lon": 103.938263
    },
    "name": "Selaphum"
  },
  {
    "country": "TH",
    "id": 1606374,
    "coord": {
      "lat": 14.74642,
      "lon": 100.329422
    },
    "name": "Sawaeng Ha"
  },
  {
    "country": "TH",
    "id": 1606378,
    "coord": {
      "lat": 15.29703,
      "lon": 103.291924
    },
    "name": "Satuek"
  },
  {
    "country": "TH",
    "id": 1606394,
    "coord": {
      "lat": 7.47303,
      "lon": 100.439079
    },
    "name": "Sathing Phra"
  },
  {
    "country": "TH",
    "id": 1606489,
    "coord": {
      "lat": 14.55083,
      "lon": 100.84436
    },
    "name": "Sao Hai"
  },
  {
    "country": "TH",
    "id": 1606505,
    "coord": {
      "lat": 18.9137,
      "lon": 100.941704
    },
    "name": "Santi Suk"
  },